city_index,city_name,city_country,city_lat,city_lon,population_2025_1000s,gauge_id,gauge_name,gauge_lat,gauge_lon,distance_km,rsl_low,rsl_central,rsl_high,novlm_low,novlm_central,novlm_high
1,Herat,Afghanistan,34.35,62.2,753,204,KARACHI,24.81,66.97,1157,,,,,,
2,Kabul,Afghanistan,34.53,69.17,4877,204,KARACHI,24.81,66.97,1103,,,,,,
3,Kandahar,Afghanistan,31.61,65.71,577,204,KARACHI,24.81,66.97,767,,,,,,
4,Mazar-e Sharif,Afghanistan,36.71,67.11,682,204,KARACHI,24.81,66.97,1325,,,,,,
5,Tiranë (Tirana),Albania,41.33,19.82,536,1075,BAR,42.08,19.08,104,,,,,,
6,Annaba,Algeria,36.9,7.77,379,104,CAGLIARI,39.2,9.17,284,,,,,,
7,Batna,Algeria,35.56,6.17,358,104,CAGLIARI,39.2,9.17,484,,,,,,
8,Blida,Algeria,36.48,2.83,536,1892,PALMA_DE_MALLORCA,39.55,2.64,342,,,,,,
9,El Djazaïr  (Algiers),Algeria,36.75,3.04,3004,1892,PALMA_DE_MALLORCA,39.55,2.64,313,,,,,,
10,El Djelfa,Algeria,34.67,3.26,607,960,ALICANTE,38.34,-0.48,528,,,,,,
11,Qacentina,Algeria,36.35,6.61,427,104,CAGLIARI,39.2,9.17,389,,,,,,
12,Sétif,Algeria,36.19,5.41,345,1892,PALMA_DE_MALLORCA,39.55,2.64,446,,,,,,
13,Wahran (Oran),Algeria,35.69,-0.64,966,1455,ALMERIA,36.83,-2.48,208,,,,,,
14,Benguela,Angola,-12.58,13.4,878,914,WALVIS_BAY,-22.95,14.5,1161,,,,,,
15,Cabinda,Angola,-5.55,12.2,991,1049,TEMA,5.62,0.0,1840,,,,,,
16,Cuito,Angola,-12.38,16.93,704,914,WALVIS_BAY,-22.95,14.5,1204,,,,,,
17,Huambo,Angola,-12.78,15.74,777,914,WALVIS_BAY,-22.95,14.5,1140,,,,,,
18,Lobito,Angola,-12.36,13.54,506,914,WALVIS_BAY,-22.95,14.5,1183,,,,,,
19,Luanda,Angola,-8.84,13.23,10028,914,WALVIS_BAY,-22.95,14.5,1577,,,,,,
20,Lubango,Angola,-14.92,13.49,1048,914,WALVIS_BAY,-22.95,14.5,900,,,,,,
21,Malanje,Angola,-9.54,16.34,861,914,WALVIS_BAY,-22.95,14.5,1506,,,,,,
22,Uige,Angola,-7.11,15.44,687,914,WALVIS_BAY,-22.95,14.5,1766,,,,,,
23,Bahia Blanca,Argentina,-38.72,-62.27,327,223,QUEQUEN,-38.58,-58.7,311,,,,,,
24,Buenos Aires,Argentina,-34.61,-58.4,15752,157,BUENOS_AIRES,-34.6,-58.37,3,0.21,0.52,1.85,0.21,0.52,1.85
25,Córdoba,Argentina,-31.41,-64.18,1641,832,PALERMO,-34.57,-58.4,644,,,,,,
26,Corrientes,Argentina,-27.48,-58.83,433,433,COLONIA,-34.48,-57.85,785,,,,,,
27,La Plata,Argentina,-34.92,-57.95,933,433,COLONIA,-34.48,-57.85,50,0.2,0.51,1.85,0.21,0.52,1.86
28,Mar Del Plata,Argentina,-38.0,-57.56,698,857,MAR_DEL_PLATA,-38.03,-57.53,4,0.16,0.47,1.81,0.21,0.52,1.85
29,Mendoza,Argentina,-32.89,-68.83,1257,499,VALPARAISO,-33.03,-71.63,262,,,,,,
30,Neuquén-Plottier-Cipolletti,Argentina,-38.95,-68.06,439,2262,CORRAL_II,-39.88,-73.42,472,,,,,,
31,Posadas,Argentina,-27.37,-55.9,420,542,IMBITUBA,-28.23,-48.65,720,,,,,,
32,Resistencia,Argentina,-27.46,-58.98,456,433,COLONIA,-34.48,-57.85,789,,,,,,
33,Rosario,Argentina,-32.95,-60.64,1631,832,PALERMO,-34.57,-58.4,275,,,,,,
34,Salta,Argentina,-24.79,-65.41,738,510,ANTOFAGASTA_2,-23.65,-70.4,522,,,,,,
35,San Juan,Argentina,-31.54,-68.54,561,499,VALPARAISO,-33.03,-71.63,335,,,,,,
36,San Miguel de Tucumán,Argentina,-26.82,-65.22,1051,619,CALDERA,-27.07,-70.83,557,,,,,,
37,San Salvador de Jujuy,Argentina,-24.19,-65.3,384,510,ANTOFAGASTA_2,-23.65,-70.4,523,,,,,,
38,Santa Fe,Argentina,-31.63,-60.7,596,832,PALERMO,-34.57,-58.4,391,,,,,,
39,Santiago Del Estero,Argentina,-27.8,-64.26,464,619,CALDERA,-27.07,-70.83,654,,,,,,
40,Yerevan,Armenia,40.18,44.51,1100,51,BATUMI,41.63,41.7,286,,,,,,
41,Adelaide,Australia,-34.93,138.6,1393,448,PORT_ADELAIDE,-34.78,138.48,20,0.26,0.57,1.91,0.23,0.53,1.88
42,Brisbane,Australia,-27.47,153.03,2568,822,BRISBANE,-27.37,153.17,18,0.2,0.53,2.01,0.25,0.58,2.06
43,Canberra,Australia,-35.28,149.13,483,2312,JERVIS_BAY_II,-35.12,150.71,145,,,,,,
44,Central Coast,Australia,-33.42,151.4,347,549,CAMP_COVE,-33.83,151.28,47,0.18,0.53,1.98,0.24,0.59,2.04
45,Gold Coast-Tweed Head,Australia,-28.0,153.43,753,1704,GOLD_COAST_SEAWAY_2,-27.95,153.42,6,0.21,0.54,2.01,0.25,0.58,2.06
46,Melbourne,Australia,-37.81,144.96,5392,1033,STONY_POINT,-38.37,145.22,66,0.16,0.49,1.82,0.23,0.53,1.87
47,Newcastle-Maitland,Australia,-32.92,151.74,470,837,NEWCASTLE_V,-32.92,151.79,5,0.23,0.57,2.03,0.25,0.59,2.05
48,Perth,Australia,-31.95,115.85,2169,111,FREMANTLE,-32.06,115.74,16,0.23,0.58,2.01,0.21,0.56,1.99
49,Sunshine Coast,Australia,-26.66,153.1,376,1493,MOOLOOLABA_2,-26.68,153.13,4,0.2,0.53,2.01,0.25,0.58,2.06
50,Sydney,Australia,-33.87,151.21,5249,196,SYDNEY,-33.85,151.23,3,0.18,0.53,1.97,0.24,0.59,2.04
51,Wollongong,Australia,-34.42,150.89,319,831,PORT_KEMBLA,-34.47,150.91,5,0.16,0.52,1.96,0.24,0.59,2.04
52,Wien (Vienna),Austria,48.21,16.37,2005,154,TRIESTE,45.65,13.76,347,,,,,,
53,Baku,Azerbaijan,40.38,49.89,2496,51,BATUMI,41.63,41.7,702,,,,,,
54,Gäncä,Azerbaijan,40.68,46.36,360,51,BATUMI,41.63,41.7,405,,,,,,
55,Sumquayit,Azerbaijan,40.59,49.67,378,51,BATUMI,41.63,41.7,678,,,,,,
56,Al-Manamah (Manama),Bahrain,26.22,50.58,743,1887,MASIRAH,20.68,58.87,1046,,,,,,
57,Barisal,Bangladesh,22.7,90.37,565,1496,CHARCHANGA,22.22,91.05,88,0.21,0.66,2.13,0.19,0.52,1.97
58,Bogra,Bangladesh,24.85,89.37,981,1002,TRIBENI,22.98,88.4,230,,,,,,
59,Chittagong,Bangladesh,22.33,91.84,5653,1496,CHARCHANGA,22.22,91.05,82,0.21,0.66,2.13,0.19,0.52,1.97
60,Comilla,Bangladesh,23.46,91.2,691,1496,CHARCHANGA,22.22,91.05,139,,,,,,
61,Dhaka,Bangladesh,23.71,90.41,24653,1496,CHARCHANGA,22.22,91.05,178,,,,,,
62,Khulna,Bangladesh,22.81,89.56,980,1454,KHEPUPARA,21.83,89.83,112,,,,,,
63,Mymensingh,Bangladesh,24.75,90.4,509,1002,TRIBENI,22.98,88.4,283,,,,,,
64,Rajshahi,Bangladesh,24.37,88.6,1007,1002,TRIBENI,22.98,88.4,156,,,,,,
65,Rangpur,Bangladesh,25.75,89.25,457,1002,TRIBENI,22.98,88.4,320,,,,,,
66,Rupganj,Bangladesh,23.79,90.52,662,1496,CHARCHANGA,22.22,91.05,183,,,,,,
67,Sylhet,Bangladesh,24.9,91.87,1033,1496,CHARCHANGA,22.22,91.05,310,,,,,,
68,Brest,Belarus,52.1,23.69,371,289,PIONERSKY,54.95,20.22,392,,,,,,
69,Gomel,Belarus,52.43,30.98,576,37,DAUGAVGRIVA,57.05,24.03,680,,,,,,
70,Grodno,Belarus,53.69,23.83,402,289,PIONERSKY,54.95,20.22,273,,,,,,
71,Minsk,Belarus,53.9,27.57,2071,37,DAUGAVGRIVA,57.05,24.03,415,,,,,,
72,Mogilev,Belarus,53.91,30.34,395,37,DAUGAVGRIVA,57.05,24.03,529,,,,,,
73,Vitebsk,Belarus,55.19,30.2,384,37,DAUGAVGRIVA,57.05,24.03,435,,,,,,
74,Antwerpen,Belgium,51.22,4.4,1065,20,VLISSINGEN,51.44,3.6,61,0.14,0.58,1.84,0.14,0.57,1.84
75,Bruxelles-Brussel,Belgium,50.85,4.35,2142,20,VLISSINGEN,51.44,3.6,84,0.14,0.58,1.84,0.14,0.57,1.84
76,Charleroi,Belgium,50.41,4.44,419,20,VLISSINGEN,51.44,3.6,129,,,,,,
77,Gent,Belgium,51.05,3.72,479,20,VLISSINGEN,51.44,3.6,44,0.14,0.58,1.84,0.14,0.57,1.84
78,Liège,Belgium,50.63,5.57,689,20,VLISSINGEN,51.44,3.6,164,,,,,,
79,Abomey-Calavi,Benin,6.45,2.36,1375,1049,TEMA,5.62,0.0,277,,,,,,
80,Cotonou,Benin,6.37,2.42,758,1049,TEMA,5.62,0.0,280,,,,,,
81,Djougou,Benin,9.71,1.67,410,1049,TEMA,5.62,0.0,491,,,,,,
82,Parakou,Benin,9.34,2.63,442,1049,TEMA,5.62,0.0,505,,,,,,
83,Cochabamba,Bolivia (Plurinational State of),-17.39,-66.16,1460,618,ARICA,-18.47,-70.33,458,,,,,,
84,La Paz,Bolivia (Plurinational State of),-16.5,-68.15,1997,618,ARICA,-18.47,-70.33,319,,,,,,
85,Oruro,Bolivia (Plurinational State of),-17.98,-67.15,353,618,ARICA,-18.47,-70.33,341,,,,,,
86,Santa Cruz,Bolivia (Plurinational State of),-17.8,-63.17,1891,618,ARICA,-18.47,-70.33,761,,,,,,
87,Sarajevo,Bosnia and Herzegovina,43.85,18.36,348,1706,SUCURAJ,43.13,17.2,123,,,,,,
88,Anápolis,Brazil,-16.33,-48.95,406,1032,ILHA_FISCAL,-22.9,-43.17,950,,,,,,
89,Aracaju,Brazil,-10.91,-37.07,1082,578,SALVADOR,-12.97,-38.52,278,,,,,,
90,Baixada Santista,Brazil,-23.96,-46.33,1982,726,CANANEIA,-25.02,-47.93,201,,,,,,
91,Bauru,Brazil,-22.31,-49.06,391,726,CANANEIA,-25.02,-47.93,322,,,,,,
92,Belém,Brazil,-1.46,-48.48,2454,580,BELEM,-1.45,-48.5,2,0.21,0.57,2.0,0.29,0.62,2.05
93,Belo Horizonte,Brazil,-19.92,-43.94,6352,1032,ILHA_FISCAL,-22.9,-43.17,341,,,,,,
94,Blumenau,Brazil,-26.92,-49.07,368,542,IMBITUBA,-28.23,-48.65,152,,,,,,
95,Boa Vista,Brazil,2.82,-60.67,369,580,BELEM,-1.45,-48.5,1436,,,,,,
96,Brasília,Brazil,-15.78,-47.93,4991,1032,ILHA_FISCAL,-22.9,-43.17,937,,,,,,
97,Campina Grande,Brazil,-7.23,-35.88,414,556,RECIFE,-8.05,-34.87,144,,,,,,
98,Campinas,Brazil,-22.91,-47.07,3492,726,CANANEIA,-25.02,-47.93,251,,,,,,
99,Campo Grande,Brazil,-20.46,-54.62,943,726,CANANEIA,-25.02,-47.93,854,,,,,,
100,Campos dos Goytacazes,Brazil,-21.77,-41.32,466,1032,ILHA_FISCAL,-22.9,-43.17,229,,,,,,
101,Caruaru,Brazil,-8.28,-35.98,351,556,RECIFE,-8.05,-34.87,125,,,,,,
102,Cascavel,Brazil,-24.96,-53.46,331,726,CANANEIA,-25.02,-47.93,557,,,,,,
103,Caxias Do Sul,Brazil,-29.17,-51.18,509,542,IMBITUBA,-28.23,-48.65,268,,,,,,
104,Cuiabá,Brazil,-15.6,-56.1,606,726,CANANEIA,-25.02,-47.93,1351,,,,,,
105,Curitiba,Brazil,-25.43,-49.27,3889,726,CANANEIA,-25.02,-47.93,143,,,,,,
106,Feira De Santana,Brazil,-12.27,-38.97,637,578,SALVADOR,-12.97,-38.52,92,0.22,0.58,2.05,0.26,0.59,2.06
107,Florianópolis,Brazil,-27.6,-48.55,1324,542,IMBITUBA,-28.23,-48.65,71,0.23,0.59,2.02,0.24,0.56,1.99
108,Fortaleza,Brazil,-3.74,-38.54,4284,556,RECIFE,-8.05,-34.87,629,,,,,,
109,Franca,Brazil,-20.54,-47.4,367,726,CANANEIA,-25.02,-47.93,502,,,,,,
110,Goiânia,Brazil,-16.68,-49.25,2927,726,CANANEIA,-25.02,-47.93,939,,,,,,
111,Grande São Luís,Brazil,-2.54,-44.28,1548,580,BELEM,-1.45,-48.5,485,,,,,,
112,Grande Vitória,Brazil,-20.31,-40.31,2221,1032,ILHA_FISCAL,-22.9,-43.17,414,,,,,,
113,João Pessoa,Brazil,-7.12,-34.86,1448,556,RECIFE,-8.05,-34.87,104,,,,,,
114,Joinville,Brazil,-26.3,-48.85,1375,726,CANANEIA,-25.02,-47.93,170,,,,,,
115,Juazeiro Do Norte,Brazil,-7.21,-39.32,492,556,RECIFE,-8.05,-34.87,499,,,,,,
116,Juiz De Fora,Brazil,-21.76,-43.35,601,1032,ILHA_FISCAL,-22.9,-43.17,128,,,,,,
117,Jundiaí,Brazil,-23.19,-46.89,721,726,CANANEIA,-25.02,-47.93,230,,,,,,
118,Londrina,Brazil,-23.31,-51.16,942,726,CANANEIA,-25.02,-47.93,379,,,,,,
119,Macapá,Brazil,0.04,-51.07,526,580,BELEM,-1.45,-48.5,330,,,,,,
120,Maceió,Brazil,-9.67,-35.74,1388,556,RECIFE,-8.05,-34.87,203,,,,,,
121,Manaus,Brazil,-3.1,-60.02,2435,580,BELEM,-1.45,-48.5,1295,,,,,,
122,Maringá,Brazil,-23.43,-51.94,446,726,CANANEIA,-25.02,-47.93,444,,,,,,
123,Montes Claros,Brazil,-16.74,-43.86,418,1032,ILHA_FISCAL,-22.9,-43.17,690,,,,,,
124,Natal,Brazil,-5.8,-35.21,1575,556,RECIFE,-8.05,-34.87,254,,,,,,
125,Pelotas,Brazil,-31.77,-52.34,336,764,LA_PALOMA,-34.65,-54.15,362,,,,,,
126,Petrolina,Brazil,-9.4,-40.5,513,578,SALVADOR,-12.97,-38.52,453,,,,,,
127,Piracicaba,Brazil,-22.73,-47.65,419,726,CANANEIA,-25.02,-47.93,257,,,,,,
128,Ponta Grossa,Brazil,-25.1,-50.16,367,726,CANANEIA,-25.02,-47.93,225,,,,,,
129,Pôrto Alegre,Brazil,-30.03,-51.23,4269,542,IMBITUBA,-28.23,-48.65,321,,,,,,
130,Pôrto Velho,Brazil,-8.76,-63.9,555,458,MATARANI,-17.0,-72.12,1278,,,,,,
131,Recife,Brazil,-8.05,-34.88,4344,556,RECIFE,-8.05,-34.87,1,0.2,0.57,2.06,0.28,0.61,2.1
132,Ribeirão  Preto,Brazil,-21.18,-47.81,758,726,CANANEIA,-25.02,-47.93,428,,,,,,
133,Rio Branco,Brazil,-9.97,-67.81,393,458,MATARANI,-17.0,-72.12,910,,,,,,
134,Rio de Janeiro,Brazil,-22.9,-43.21,13923,1032,ILHA_FISCAL,-22.9,-43.17,4,0.22,0.57,2.03,0.25,0.58,2.03
135,Salvador,Brazil,-12.97,-38.51,4030,578,SALVADOR,-12.97,-38.52,1,0.22,0.58,2.05,0.26,0.59,2.06
136,São José do Rio Preto,Brazil,-20.82,-49.38,461,726,CANANEIA,-25.02,-47.93,491,,,,,,
137,São José dos Campos,Brazil,-23.18,-45.89,764,1032,ILHA_FISCAL,-22.9,-43.17,280,,,,,,
138,São Paulo,Brazil,-23.55,-46.64,22990,726,CANANEIA,-25.02,-47.93,210,,,,,,
139,Sorocaba,Brazil,-23.5,-47.46,829,726,CANANEIA,-25.02,-47.93,176,,,,,,
140,Taubaté,Brazil,-23.03,-45.56,328,1032,ILHA_FISCAL,-22.9,-43.17,245,,,,,,
141,Teresina,Brazil,-5.09,-42.8,1069,580,BELEM,-1.45,-48.5,752,,,,,,
142,Uberaba,Brazil,-19.75,-47.93,351,726,CANANEIA,-25.02,-47.93,587,,,,,,
143,Uberlândia,Brazil,-18.92,-48.28,725,726,CANANEIA,-25.02,-47.93,680,,,,,,
144,Vale do Aço,Brazil,-19.94,-43.94,542,1032,ILHA_FISCAL,-22.9,-43.17,339,,,,,,
145,Vitória da Conquista,Brazil,-14.87,-40.84,348,578,SALVADOR,-12.97,-38.52,328,,,,,,
146,Volta Redonda,Brazil,-22.52,-44.1,454,1032,ILHA_FISCAL,-22.9,-43.17,105,,,,,,
147,Plovdiv,Bulgaria,42.15,24.75,347,375,KAVALLA,40.93,24.41,139,,,,,,
148,Sofia,Bulgaria,42.7,23.32,1286,375,KAVALLA,40.93,24.41,216,,,,,,
149,Varna,Bulgaria,43.22,27.92,334,318,VARNA,43.18,27.92,4,0.0,0.43,1.76,0.03,0.45,1.77
150,Bobo-Dioulasso,Burkina Faso,11.18,-4.3,1244,331,TAKORADI,4.88,-1.75,755,,,,,,
151,Ouagadougou,Burkina Faso,12.36,-1.54,3521,1049,TEMA,5.62,0.0,770,,,,,,
152,Bujumbura,Burundi,-3.38,29.36,1350,1600,ZANZIBAR,-6.15,39.18,1132,,,,,,
153,Phnum Pénh (Phnom Penh),Cambodia,11.56,104.92,2426,1495,VUNGTAU,10.33,107.07,272,,,,,,
154,Bafoussam,Cameroon,5.47,10.42,496,1049,TEMA,5.62,0.0,1154,,,,,,
155,Bamenda,Cameroon,5.95,10.16,636,1049,TEMA,5.62,0.0,1126,,,,,,
156,Douala,Cameroon,4.05,9.7,4346,1049,TEMA,5.62,0.0,1090,,,,,,
157,Garoua,Cameroon,9.3,13.4,391,1049,TEMA,5.62,0.0,1534,,,,,,
158,Loum,Cameroon,4.72,9.74,623,1049,TEMA,5.62,0.0,1084,,,,,,
159,Mbouda,Cameroon,5.63,10.26,629,1049,TEMA,5.62,0.0,1136,,,,,,
160,Yaoundé,Cameroon,3.87,11.52,4854,1049,TEMA,5.62,0.0,1292,,,,,,
161,Calgary,Canada,51.04,-114.06,1688,1245,NEW  WESTMINSTER,49.2,-122.92,664,,,,,,
162,Edmonton,Canada,53.54,-113.5,1589,1245,NEW  WESTMINSTER,49.2,-122.92,813,,,,,,
163,Halifax,Canada,44.65,-63.58,426,96,HALIFAX,44.67,-63.58,2,0.35,0.82,2.22,0.19,0.67,2.07
164,Hamilton,Canada,43.25,-79.85,793,148,BALTIMORE,39.27,-76.58,520,,,,,,
165,Kitchener-Cambrigde-Waterloo,Canada,43.43,-80.51,600,148,BALTIMORE,39.27,-76.58,567,,,,,,
166,London,Canada,42.98,-81.23,527,148,BALTIMORE,39.27,-76.58,568,,,,,,
167,Montréal,Canada,45.51,-73.59,4377,183,PORTLAND ,43.66,-70.25,335,,,,,,
168,Oshawa,Canada,43.9,-78.85,418,1637,BERGEN_POINT,40.64,-74.14,531,,,,,,
169,Ottawa-Gatineau,Canada,45.42,-75.7,1466,288,SEAVEY_ISLAND,43.08,-70.74,473,,,,,,
170,Québec,Canada,46.81,-71.21,858,1597,RIMOUSKI,48.48,-68.52,274,,,,,,
171,Saskatoon,Canada,52.12,-106.63,352,447,CHURCHILL,58.77,-94.18,1077,,,,,,
172,St. Catharines-Niagara,Canada,43.17,-79.25,430,148,BALTIMORE,39.27,-76.58,488,,,,,,
173,Toronto,Canada,43.7,-79.42,6491,148,BALTIMORE,39.27,-76.58,547,,,,,,
174,Vancouver,Canada,49.25,-123.12,2708,175,VANCOUVER,49.28,-123.12,3,0.05,0.33,1.7,0.15,0.43,1.8
175,Victoria,Canada,48.43,-123.37,405,166,VICTORIA,48.42,-123.37,1,0.09,0.38,1.76,0.18,0.47,1.85
176,Windsor,Canada,42.28,-83.01,347,360,WASHINGTON_DC,38.87,-77.02,633,,,,,,
177,Winnipeg,Canada,49.9,-97.13,857,447,CHURCHILL,58.77,-94.18,1006,,,,,,
178,Bangui,Central African Republic,4.36,18.55,1016,1049,TEMA,5.62,0.0,2062,,,,,,
179,N'Djaména,Chad,12.11,15.04,1723,1049,TEMA,5.62,0.0,1804,,,,,,
180,Antofagasta,Chile,-23.65,-70.4,466,510,ANTOFAGASTA_2,-23.65,-70.4,0,0.05,0.36,1.75,0.25,0.55,1.94
181,Concepción,Chile,-36.83,-73.05,929,571,TALCAHUANO,-36.68,-73.1,17,0.12,0.41,1.7,0.23,0.5,1.79
182,La Serena-Coquimbo,Chile,-29.9,-71.25,525,619,CALDERA,-27.07,-70.83,318,,,,,,
183,Santiago,Chile,-33.46,-70.65,6999,499,VALPARAISO,-33.03,-71.63,103,,,,,,
184,Temuco,Chile,-38.73,-72.6,359,2262,CORRAL_II,-39.88,-73.42,146,,,,,,
185,Valparaíso,Chile,-33.04,-71.63,1024,499,VALPARAISO,-33.03,-71.63,1,0.03,0.33,1.65,0.24,0.52,1.85
186,Akesu,China,41.17,80.26,478,1002,TRIBENI,22.98,88.4,2163,,,,,,
187,Ankang,China,32.69,109.03,766,1405,LIANYUNGANG,34.75,119.45,991,,,,,,
188,Anlu,China,31.26,113.68,395,1405,LIANYUNGANG,34.75,119.45,664,,,,,,
189,Anning,China,24.92,102.48,357,841,HONDAU,20.67,106.8,648,,,,,,
190,Anqing,China,30.54,117.05,812,979,LUSI,32.13,121.62,469,,,,,,
191,Anqiu,China,36.43,119.19,848,1404,SHIJIUSUO,35.38,119.55,122,,,,,,
192,Anshan,China,41.12,122.99,1738,1513,LAOHUTAN,38.87,121.68,275,,,,,,
193,Anshun,China,26.24,105.93,686,1408,BEIHAI,21.48,109.08,620,,,,,,
194,Anyang,China,36.09,114.35,1739,1403,TANGGU,39.0,117.72,439,,,,,,
195,Baicheng,China,45.62,122.84,361,614,QINHUANGDAO,39.9,119.6,689,,,,,,
196,Baishan,China,41.94,126.42,983,1007,WONSAN,39.17,127.45,320,,,,,,
197,Baiyin,China,36.55,104.18,436,1403,TANGGU,39.0,117.72,1221,,,,,,
198,Baoding,China,38.85,115.49,2190,1403,TANGGU,39.0,117.72,194,,,,,,
199,Baoji,China,34.37,107.2,1317,1403,TANGGU,39.0,117.72,1070,,,,,,
200,Baotou,China,40.65,109.82,2426,1403,TANGGU,39.0,117.72,700,,,,,,
201,Bayannaoer,China,40.75,107.41,492,1403,TANGGU,39.0,117.72,902,,,,,,
202,Bazhong,China,31.87,106.73,1268,1408,BEIHAI,21.48,109.08,1179,,,,,,
203,Beihai,China,21.48,109.12,515,1408,BEIHAI,21.48,109.08,4,0.07,0.54,2.03,0.24,0.58,2.04
204,Beijing,China,39.91,116.4,22596,1403,TANGGU,39.0,117.72,152,,,,,,
205,Bengbu,China,32.94,117.36,975,1405,LIANYUNGANG,34.75,119.45,279,,,,,,
206,Benxi,China,41.29,123.76,1258,723,DALIAN,38.87,121.68,323,,,,,,
207,Bijie,China,27.31,105.28,747,1408,BEIHAI,21.48,109.08,754,,,,,,
208,Binzhou,China,37.38,118.01,1264,1403,TANGGU,39.0,117.72,182,,,,,,
209,Botou,China,38.07,116.57,463,1403,TANGGU,39.0,117.72,144,,,,,,
210,Bozhou,China,33.87,115.78,877,1405,LIANYUNGANG,34.75,119.45,352,,,,,,
211,Cangzhou,China,38.32,116.87,605,1403,TANGGU,39.0,117.72,106,,,,,,
212,Cenxi,China,22.92,110.99,681,933,ZHAPO,21.58,111.82,172,,,,,,
213,Changchun,China,43.88,125.29,4891,1007,WONSAN,39.17,127.45,554,,,,,,
214,Changde,China,29.05,111.68,938,1366,TSIM_BEI_TSUI,22.49,114.01,766,,,,,,
215,Changge,China,34.22,113.77,597,1405,LIANYUNGANG,34.75,119.45,524,,,,,,
216,Changji,China,44.01,87.3,441,1002,TRIBENI,22.98,88.4,2343,,,,,,
217,Changning,China,26.41,112.4,600,1366,TSIM_BEI_TSUI,22.49,114.01,466,,,,,,
218,Changsha,China,28.23,112.94,5128,1366,TSIM_BEI_TSUI,22.49,114.01,648,,,,,,
219,Changshu,China,31.65,120.75,1124,979,LUSI,32.13,121.62,98,0.43,0.81,2.35,0.24,0.58,2.12
220,Changyi,China,36.85,119.39,581,1404,SHIJIUSUO,35.38,119.55,165,,,,,,
221,Changzhi,China,36.19,113.12,949,1403,TANGGU,39.0,117.72,512,,,,,,
222,"Changzhou, Jiangsu",China,31.79,119.96,4180,979,LUSI,32.13,121.62,161,,,,,,
223,Chaohu,China,31.6,117.87,532,979,LUSI,32.13,121.62,360,,,,,,
224,Chaoyang,China,41.58,120.45,582,614,QINHUANGDAO,39.9,119.6,200,,,,,,
225,Chaozhou,China,23.67,116.64,1545,1406,SHANWEI,22.75,115.35,167,,,,,,
226,Chengde,China,40.97,117.93,1052,614,QINHUANGDAO,39.9,119.6,185,,,,,,
227,Chengdu,China,30.67,104.07,9999,1408,BEIHAI,21.48,109.08,1138,,,,,,
228,Chenzhou,China,25.8,113.03,1151,1366,TSIM_BEI_TSUI,22.49,114.01,382,,,,,,
229,Chifeng,China,42.26,118.92,1305,614,QINHUANGDAO,39.9,119.6,269,,,,,,
230,Chizhou,China,30.66,117.48,544,979,LUSI,32.13,121.62,426,,,,,,
231,Chongqing,China,29.56,106.55,18171,1408,BEIHAI,21.48,109.08,935,,,,,,
232,Chuxiong,China,25.04,101.54,586,841,HONDAU,20.67,106.8,727,,,,,,
233,Chuzhou,China,32.3,118.32,590,1405,LIANYUNGANG,34.75,119.45,292,,,,,,
234,Cixi,China,30.18,121.25,1886,979,LUSI,32.13,121.62,220,,,,,,
235,Dali,China,25.59,100.22,590,841,HONDAU,20.67,106.8,868,,,,,,
236,Dalian,China,38.91,121.6,6347,1513,LAOHUTAN,38.87,121.68,8,0.19,0.55,2.06,0.22,0.56,2.08
237,Dandong,China,40.12,124.37,947,723,DALIAN,38.87,121.68,270,,,,,,
238,Danyang,China,32.0,119.57,829,979,LUSI,32.13,121.62,193,,,,,,
239,Danzhou,China,19.52,109.58,476,1428,HAIKOU,20.02,110.28,93,0.21,0.69,2.21,0.23,0.58,2.06
240,Daqing,China,46.58,125.0,2085,1007,WONSAN,39.17,127.45,849,,,,,,
241,Dashiqiao,China,40.64,122.5,403,1513,LAOHUTAN,38.87,121.68,209,,,,,,
242,Datong,China,40.08,113.29,1951,1403,TANGGU,39.0,117.72,399,,,,,,
243,Daye,China,30.1,114.97,647,934,KANMEN,28.08,121.28,653,,,,,,
244,Dazhou,China,31.22,107.5,785,1408,BEIHAI,21.48,109.08,1095,,,,,,
245,Dengfeng,China,34.46,113.03,669,1405,LIANYUNGANG,34.75,119.45,589,,,,,,
246,Dengzhou,China,32.68,112.08,804,1405,LIANYUNGANG,34.75,119.45,720,,,,,,
247,Deyang,China,31.13,104.38,985,1408,BEIHAI,21.48,109.08,1172,,,,,,
248,Dezhou,China,37.45,116.3,1134,1403,TANGGU,39.0,117.72,212,,,,,,
249,Dingzhou,China,38.51,115.0,360,1403,TANGGU,39.0,117.72,243,,,,,,
250,Donggang,China,39.88,124.15,413,723,DALIAN,38.87,121.68,240,,,,,,
251,Dongguan,China,23.02,113.74,7773,1366,TSIM_BEI_TSUI,22.49,114.01,65,0.08,0.48,1.97,0.24,0.59,2.07
252,Dongtai,China,32.85,120.31,773,979,LUSI,32.13,121.62,147,,,,,,
253,Dongyang,China,29.28,120.23,627,934,KANMEN,28.08,121.28,168,,,,,,
254,Dongying,China,37.45,118.58,1440,1403,TANGGU,39.0,117.72,188,,,,,,
255,Dujiangyan,China,31.0,103.63,420,1408,BEIHAI,21.48,109.08,1191,,,,,,
256,Emeishan,China,29.6,103.49,443,841,HONDAU,20.67,106.8,1049,,,,,,
257,Enping,China,22.19,112.3,457,933,ZHAPO,21.58,111.82,84,0.23,0.61,2.09,0.24,0.59,2.06
258,Enshi,China,30.29,109.48,724,1366,TSIM_BEI_TSUI,22.49,114.01,979,,,,,,
259,Erduosi (Ordoss),China,39.59,109.77,812,1403,TANGGU,39.0,117.72,688,,,,,,
260,Ezhou,China,30.4,114.88,716,1405,LIANYUNGANG,34.75,119.45,646,,,,,,
261,Fangchenggang,China,21.77,108.35,491,1408,BEIHAI,21.48,109.08,82,0.07,0.54,2.03,0.24,0.58,2.04
262,Feicheng,China,36.19,116.77,601,1404,SHIJIUSUO,35.38,119.55,267,,,,,,
263,Fengcheng,China,28.18,115.78,490,727,XIAMEN,24.45,118.07,474,,,,,,
264,Foshan,China,23.02,113.12,7817,269,MACAU,22.2,113.55,102,,,,,,
265,Fuan,China,27.09,119.65,527,934,KANMEN,28.08,121.28,195,,,,,,
266,Fujin,China,47.25,132.04,387,1103,WAKKANAI,45.41,141.69,769,,,,,,
267,Fuqing,China,25.72,119.38,648,727,XIAMEN,24.45,118.07,194,,,,,,
268,"Fushun, Liaoning",China,41.88,123.95,1332,1513,LAOHUTAN,38.87,121.68,386,,,,,,
269,Fuxin,China,42.02,121.66,904,614,QINHUANGDAO,39.9,119.6,292,,,,,,
270,Fuyang,China,32.89,115.82,1170,1405,LIANYUNGANG,34.75,119.45,395,,,,,,
271,"Fuzhou, Fujian",China,26.08,119.3,4072,727,XIAMEN,24.45,118.07,219,,,,,,
272,"Fuzhou, Jiangxi",China,27.98,116.36,1160,727,XIAMEN,24.45,118.07,429,,,,,,
273,Ganzhou,China,25.85,114.93,1551,1406,SHANWEI,22.75,115.35,348,,,,,,
274,Gaoan,China,28.43,115.37,542,727,XIAMEN,24.45,118.07,518,,,,,,
275,Gaomi,China,36.38,119.75,842,1404,SHIJIUSUO,35.38,119.55,113,,,,,,
276,Gaoping,China,35.8,112.92,454,1403,TANGGU,39.0,117.72,554,,,,,,
277,Gaoyou,China,32.78,119.45,592,979,LUSI,32.13,121.62,217,,,,,,
278,Gaozhou,China,21.92,110.85,640,933,ZHAPO,21.58,111.82,107,,,,,,
279,Gongyi,China,34.76,112.97,586,1405,LIANYUNGANG,34.75,119.45,592,,,,,,
280,Gongzhuling,China,43.5,124.82,400,1007,WONSAN,39.17,127.45,530,,,,,,
281,Guang'an,China,30.46,106.64,568,1408,BEIHAI,21.48,109.08,1029,,,,,,
282,Guangyuan,China,32.44,105.82,620,1408,BEIHAI,21.48,109.08,1262,,,,,,
283,"Guangzhou, Guangdong",China,23.13,113.26,14879,1366,TSIM_BEI_TSUI,22.49,114.01,105,,,,,,
284,Guigang,China,23.1,109.61,1011,1408,BEIHAI,21.48,109.08,188,,,,,,
285,Guilin,China,25.28,110.29,1239,1408,BEIHAI,21.48,109.08,441,,,,,,
286,Guiping,China,23.39,110.07,1087,1408,BEIHAI,21.48,109.08,236,,,,,,
287,Guiyang,China,26.58,106.72,3737,1408,BEIHAI,21.48,109.08,617,,,,,,
288,Haerbin,China,45.76,126.65,7067,1007,WONSAN,39.17,127.45,736,,,,,,
289,Haicheng,China,40.86,122.74,848,723,DALIAN,38.87,121.68,239,,,,,,
290,Haikou,China,20.03,110.33,2095,1428,HAIKOU,20.02,110.28,5,0.21,0.69,2.21,0.23,0.58,2.06
291,Hailin,China,44.58,129.39,353,1007,WONSAN,39.17,127.45,623,,,,,,
292,Haimen,China,31.9,121.17,715,979,LUSI,32.13,121.62,50,0.43,0.81,2.35,0.24,0.58,2.12
293,Haining,China,30.53,120.69,596,979,LUSI,32.13,121.62,199,,,,,,
294,Haiyang,China,36.78,121.17,372,731,YANTAI,37.53,121.38,85,0.06,0.46,1.98,0.22,0.56,2.08
295,Hami,China,42.83,93.52,446,1403,TANGGU,39.0,117.72,2072,,,,,,
296,Hanchuan,China,30.65,113.83,839,1405,LIANYUNGANG,34.75,119.45,696,,,,,,
297,Handan,China,36.6,114.47,3159,1403,TANGGU,39.0,117.72,391,,,,,,
298,Hangzhou,China,30.29,120.16,8591,979,LUSI,32.13,121.62,247,,,,,,
299,Hanzhong,China,33.07,107.03,668,1405,LIANYUNGANG,34.75,119.45,1162,,,,,,
300,Hebi,China,35.75,114.3,619,1403,TANGGU,39.0,117.72,472,,,,,,
301,Hechi,China,24.7,108.08,476,1408,BEIHAI,21.48,109.08,373,,,,,,
302,Hefei,China,31.86,117.28,4830,1405,LIANYUNGANG,34.75,119.45,379,,,,,,
303,Hegang,China,47.34,130.29,678,1103,WAKKANAI,45.41,141.69,900,,,,,,
304,Hejian,China,38.44,116.09,541,1403,TANGGU,39.0,117.72,154,,,,,,
305,Hengshui,China,37.74,115.68,1009,1403,TANGGU,39.0,117.72,227,,,,,,
306,Hengyang,China,26.88,112.63,1739,1366,TSIM_BEI_TSUI,22.49,114.01,509,,,,,,
307,Heshan,China,22.77,112.96,448,269,MACAU,22.2,113.55,88,0.12,0.5,1.99,0.24,0.59,2.07
308,Heyuan,China,23.75,114.7,570,1406,SHANWEI,22.75,115.35,130,,,,,,
309,Heze,China,35.25,115.46,851,1405,LIANYUNGANG,34.75,119.45,368,,,,,,
310,Hezhou,China,24.42,111.55,749,933,ZHAPO,21.58,111.82,317,,,,,,
311,Hohhot,China,40.81,111.65,2501,1403,TANGGU,39.0,117.72,556,,,,,,
312,Huai'an,China,33.61,119.01,3152,1405,LIANYUNGANG,34.75,119.45,133,,,,,,
313,Huaibei,China,33.95,116.79,1291,1405,LIANYUNGANG,34.75,119.45,260,,,,,,
314,Huaihua,China,27.55,109.96,893,1408,BEIHAI,21.48,109.08,681,,,,,,
315,Huainan,China,32.63,117.0,1564,1405,LIANYUNGANG,34.75,119.45,328,,,,,,
316,Huangshan,China,29.71,118.32,455,934,KANMEN,28.08,121.28,341,,,,,,
317,Huangshi,China,30.21,115.09,909,934,KANMEN,28.08,121.28,647,,,,,,
318,Huazhou,China,21.66,110.64,403,933,ZHAPO,21.58,111.82,123,,,,,,
319,Huixian,China,35.47,113.8,408,1405,LIANYUNGANG,34.75,119.45,520,,,,,,
320,Huizhou,China,23.08,114.4,2891,1034,TAI_PO_KAU,22.44,114.18,75,0.28,0.66,2.15,0.24,0.59,2.07
321,Huludao,China,40.75,120.84,851,614,QINHUANGDAO,39.9,119.6,141,,,,,,
322,Huzhou,China,30.87,120.09,1114,979,LUSI,32.13,121.62,202,,,,,,
323,Jiamusi,China,46.8,130.33,774,1007,WONSAN,39.17,127.45,881,,,,,,
324,"Ji'an, Jiangxi",China,27.12,114.98,491,727,XIAMEN,24.45,118.07,429,,,,,,
325,Jiangmen,China,22.58,113.08,1827,269,MACAU,22.2,113.55,64,0.12,0.5,1.99,0.24,0.59,2.07
326,Jiangyin,China,31.92,120.28,983,979,LUSI,32.13,121.62,129,,,,,,
327,Jianyang,China,30.39,104.54,551,1408,BEIHAI,21.48,109.08,1091,,,,,,
328,Jiaozhou,China,36.28,120.0,627,1404,SHIJIUSUO,35.38,119.55,109,,,,,,
329,Jiaozuo,China,35.24,113.23,820,1405,LIANYUNGANG,34.75,119.45,569,,,,,,
330,Jiaxing,China,30.77,120.75,1511,979,LUSI,32.13,121.62,173,,,,,,
331,Jiayuguan,China,39.81,98.28,397,1403,TANGGU,39.0,117.72,1672,,,,,,
332,Jieyang,China,23.55,116.37,1355,1406,SHANWEI,22.75,115.35,138,,,,,,
333,Jilin,China,43.85,126.56,1719,1007,WONSAN,39.17,127.45,526,,,,,,
334,"Ji'nan, Shandong",China,36.68,117.0,6066,1403,TANGGU,39.0,117.72,266,,,,,,
335,Jincheng,China,35.49,112.85,863,1403,TANGGU,39.0,117.72,582,,,,,,
336,Jingdezhen,China,29.29,117.21,424,934,KANMEN,28.08,121.28,420,,,,,,
337,Jingjiang,China,32.01,120.26,673,979,LUSI,32.13,121.62,129,,,,,,
338,Jingmen,China,31.04,112.2,540,1405,LIANYUNGANG,34.75,119.45,793,,,,,,
339,"Jingzhou, Hubei",China,30.33,112.25,1126,1405,LIANYUNGANG,34.75,119.45,836,,,,,,
340,Jinhua,China,29.08,119.65,1330,934,KANMEN,28.08,121.28,195,,,,,,
341,"Jining, Shandong",China,35.41,116.58,1622,1404,SHIJIUSUO,35.38,119.55,269,,,,,,
342,Jinjiang,China,24.81,118.58,554,727,XIAMEN,24.45,118.07,65,0.2,0.59,2.09,0.24,0.59,2.09
343,Jinzhong,China,37.69,112.73,680,1403,TANGGU,39.0,117.72,459,,,,,,
344,Jinzhou,China,41.11,121.14,1261,614,QINHUANGDAO,39.9,119.6,187,,,,,,
345,Jiujiang,China,29.7,116.0,1024,934,KANMEN,28.08,121.28,545,,,,,,
346,Jiuquan,China,39.74,98.5,446,1403,TANGGU,39.0,117.72,1653,,,,,,
347,"Jixi, Heilongjiang",China,45.3,130.97,1025,1007,WONSAN,39.17,127.45,741,,,,,,
348,Jiyuan,China,35.09,112.58,458,1405,LIANYUNGANG,34.75,119.45,628,,,,,,
349,Jurong,China,31.95,119.16,503,979,LUSI,32.13,121.62,233,,,,,,
350,Kaifeng,China,34.79,114.35,1467,1405,LIANYUNGANG,34.75,119.45,466,,,,,,
351,Kaili,China,26.58,107.97,387,1408,BEIHAI,21.48,109.08,579,,,,,,
352,Kaiping,China,22.37,112.7,426,269,MACAU,22.2,113.55,89,0.12,0.5,1.99,0.24,0.59,2.07
353,Kelamayi,China,45.59,84.87,513,1002,TRIBENI,22.98,88.4,2538,,,,,,
354,Kuerle,China,41.76,86.15,934,1002,TRIBENI,22.98,88.4,2102,,,,,,
355,Kunming,China,25.04,102.72,4956,841,HONDAU,20.67,106.8,642,,,,,,
356,Kunshan ,China,31.39,120.96,874,979,LUSI,32.13,121.62,103,,,,,,
357,Laibin,China,23.74,109.23,452,1408,BEIHAI,21.48,109.08,252,,,,,,
358,Laiwu,China,36.21,117.67,1031,1404,SHIJIUSUO,35.38,119.55,193,,,,,,
359,Laixi,China,36.87,120.52,585,731,YANTAI,37.53,121.38,106,,,,,,
360,Laiyang,China,36.98,120.71,413,731,YANTAI,37.53,121.38,85,0.06,0.46,1.98,0.22,0.56,2.08
361,Laizhou,China,37.18,119.94,416,731,YANTAI,37.53,121.38,133,,,,,,
362,Langfang,China,39.51,116.69,846,1403,TANGGU,39.0,117.72,105,,,,,,
363,Lanzhou,China,36.06,103.79,3431,1403,TANGGU,39.0,117.72,1271,,,,,,
364,Leiyang,China,26.42,112.85,1044,1366,TSIM_BEI_TSUI,22.49,114.01,453,,,,,,
365,Lengshuijiang,China,27.69,111.44,397,1366,TSIM_BEI_TSUI,22.49,114.01,634,,,,,,
366,Leping,China,28.97,117.13,384,934,KANMEN,28.08,121.28,418,,,,,,
367,Leshan,China,29.58,103.76,1143,841,HONDAU,20.67,106.8,1038,,,,,,
368,Lianyungang,China,34.6,119.18,2081,1405,LIANYUNGANG,34.75,119.45,30,0.13,0.6,2.13,0.22,0.56,2.07
369,Liaocheng,China,36.46,115.98,846,1403,TANGGU,39.0,117.72,322,,,,,,
370,Liaoyang,China,41.27,123.17,932,723,DALIAN,38.87,121.68,296,,,,,,
371,Liaoyuan,China,42.9,125.14,390,1007,WONSAN,39.17,127.45,459,,,,,,
372,Liling,China,27.67,113.5,1000,1406,SHANWEI,22.75,115.35,578,,,,,,
373,Linfen,China,36.09,111.52,1003,1403,TANGGU,39.0,117.72,636,,,,,,
374,Linhai,China,28.85,121.14,814,934,KANMEN,28.08,121.28,87,0.26,0.62,2.17,0.25,0.59,2.13
375,Linqing,China,36.85,115.71,413,1403,TANGGU,39.0,117.72,298,,,,,,
376,"Linyi, Shandong",China,35.05,118.33,2161,1405,LIANYUNGANG,34.75,119.45,107,,,,,,
377,Linzhou,China,36.07,113.82,455,1403,TANGGU,39.0,117.72,474,,,,,,
378,"Lishui, Zhejiang",China,28.46,119.92,487,934,KANMEN,28.08,121.28,140,,,,,,
379,Liuan,China,31.75,116.5,1471,1405,LIANYUNGANG,34.75,119.45,432,,,,,,
380,Liupanshui,China,26.59,104.84,1310,841,HONDAU,20.67,106.8,689,,,,,,
381,Liuyang,China,28.15,113.63,1476,727,XIAMEN,24.45,118.07,605,,,,,,
382,Liuzhou,China,24.3,109.38,2448,1408,BEIHAI,21.48,109.08,316,,,,,,
383,Liyang,China,31.42,119.48,503,979,LUSI,32.13,121.62,217,,,,,,
384,Longchang,China,29.34,105.29,462,1408,BEIHAI,21.48,109.08,954,,,,,,
385,Longhai,China,24.45,117.81,736,727,XIAMEN,24.45,118.07,26,0.2,0.59,2.09,0.24,0.59,2.09
386,Longkou,China,37.64,120.52,589,731,YANTAI,37.53,121.38,77,0.06,0.46,1.98,0.22,0.56,2.08
387,Longyan,China,25.11,117.02,753,727,XIAMEN,24.45,118.07,129,,,,,,
388,Loudi,China,27.73,111.99,747,1366,TSIM_BEI_TSUI,22.49,114.01,618,,,,,,
389,Luoding,China,22.77,111.57,408,933,ZHAPO,21.58,111.82,135,,,,,,
390,Luohe,China,33.57,114.02,1279,1405,LIANYUNGANG,34.75,119.45,517,,,,,,
391,Luoyang,China,34.62,112.46,2726,1405,LIANYUNGANG,34.75,119.45,640,,,,,,
392,Luzhou,China,28.88,105.44,884,1408,BEIHAI,21.48,109.08,901,,,,,,
393,Lvliang,China,37.52,111.13,540,1403,TANGGU,39.0,117.72,599,,,,,,
394,Ma'anshan,China,31.71,118.5,1166,979,LUSI,32.13,121.62,298,,,,,,
395,Macheng,China,31.18,115.03,384,1405,LIANYUNGANG,34.75,119.45,573,,,,,,
396,Manzhouli,China,49.59,117.45,382,614,QINHUANGDAO,39.9,119.6,1092,,,,,,
397,Maoming,China,21.66,110.92,1362,933,ZHAPO,21.58,111.82,93,0.23,0.61,2.09,0.24,0.59,2.06
398,Meishan,China,30.08,103.85,837,841,HONDAU,20.67,106.8,1088,,,,,,
399,Meizhou,China,24.3,116.12,429,1406,SHANWEI,22.75,115.35,190,,,,,,
400,"Mianyang, Sichuan",China,31.48,104.74,1401,1408,BEIHAI,21.48,109.08,1194,,,,,,
401,Miluo,China,28.81,113.07,751,727,XIAMEN,24.45,118.07,695,,,,,,
402,Mudanjiang,China,44.58,129.6,1009,1007,WONSAN,39.17,127.45,628,,,,,,
403,Nanchang,China,28.68,115.88,4104,727,XIAMEN,24.45,118.07,519,,,,,,
404,Nanchong,China,30.8,106.08,1445,1408,BEIHAI,21.48,109.08,1079,,,,,,
405,"Nanjing, Jiangsu",China,32.05,118.79,10175,979,LUSI,32.13,121.62,267,,,,,,
406,Nankang,China,25.67,114.76,489,1406,SHANWEI,22.75,115.35,330,,,,,,
407,Nanning,China,22.82,108.32,4384,1408,BEIHAI,21.48,109.08,168,,,,,,
408,Nanping,China,26.64,118.17,539,727,XIAMEN,24.45,118.07,244,,,,,,
409,Nantong,China,31.99,120.87,2614,979,LUSI,32.13,121.62,73,0.43,0.81,2.35,0.24,0.58,2.12
410,"Nanyang, Henan",China,33.0,112.53,1275,1405,LIANYUNGANG,34.75,119.45,669,,,,,,
411,Neijiang,China,29.58,105.06,692,1408,BEIHAI,21.48,109.08,988,,,,,,
412,Ningbo,China,29.88,121.55,4770,934,KANMEN,28.08,121.28,202,,,,,,
413,Ningde,China,26.66,119.52,377,934,KANMEN,28.08,121.28,235,,,,,,
414,Ningguo,China,30.62,118.98,406,979,LUSI,32.13,121.62,302,,,,,,
415,Panjin,China,41.12,122.07,1164,614,QINHUANGDAO,39.9,119.6,249,,,,,,
416,Panzhihua,China,26.59,101.71,762,841,HONDAU,20.67,106.8,838,,,,,,
417,"Pingdingshan, Henan",China,33.74,113.3,1313,1405,LIANYUNGANG,34.75,119.45,576,,,,,,
418,Pingdu,China,36.78,119.96,580,731,YANTAI,37.53,121.38,151,,,,,,
419,Pinghu,China,30.7,121.01,519,979,LUSI,32.13,121.62,169,,,,,,
420,Pingliang,China,35.54,106.69,447,1403,TANGGU,39.0,117.72,1050,,,,,,
421,"Pingxiang, Jiangxi",China,27.63,113.85,1042,727,XIAMEN,24.45,118.07,551,,,,,,
422,Pizhou,China,34.31,117.95,1282,1405,LIANYUNGANG,34.75,119.45,146,,,,,,
423,Puning,China,23.3,116.16,1309,1406,SHANWEI,22.75,115.35,103,,,,,,
424,Putian,China,25.44,119.01,2315,727,XIAMEN,24.45,118.07,145,,,,,,
425,Puyang,China,35.77,115.04,730,1404,SHIJIUSUO,35.38,119.55,410,,,,,,
426,Qianjiang,China,30.42,112.89,558,1405,LIANYUNGANG,34.75,119.45,781,,,,,,
427,Qidong,China,31.81,121.66,415,979,LUSI,32.13,121.62,35,0.43,0.81,2.35,0.24,0.58,2.12
428,Qingdao,China,36.1,120.37,6218,1404,SHIJIUSUO,35.38,119.55,109,,,,,,
429,Qingyuan,China,23.71,113.03,791,1366,TSIM_BEI_TSUI,22.49,114.01,169,,,,,,
430,Qingzhou,China,36.68,118.48,591,1404,SHIJIUSUO,35.38,119.55,174,,,,,,
431,Qinhuangdao,China,39.93,119.59,1763,614,QINHUANGDAO,39.9,119.6,4,0.07,0.47,1.96,0.19,0.54,2.03
432,Qinzhou,China,21.97,108.62,726,1408,BEIHAI,21.48,109.08,72,0.07,0.54,2.03,0.24,0.58,2.04
433,Qiqihaer,China,47.34,123.97,1689,614,QINHUANGDAO,39.9,119.6,900,,,,,,
434,Qitaihe,China,45.77,130.98,628,1007,WONSAN,39.17,127.45,789,,,,,,
435,Quanzhou,China,24.9,118.6,1967,727,XIAMEN,24.45,118.07,73,0.2,0.59,2.09,0.24,0.59,2.09
436,Qufu,China,35.6,116.99,402,1404,SHIJIUSUO,35.38,119.55,233,,,,,,
437,Qujing,China,25.49,103.8,1092,841,HONDAU,20.67,106.8,618,,,,,,
438,Quzhou,China,28.96,118.87,930,934,KANMEN,28.08,121.28,255,,,,,,
439,Renqiu,China,38.7,116.09,746,1403,TANGGU,39.0,117.72,145,,,,,,
440,Rizhao,China,35.4,119.51,1459,1404,SHIJIUSUO,35.38,119.55,4,-0.01,0.46,1.99,0.21,0.56,2.06
441,Rongcheng,China,37.15,122.44,439,731,YANTAI,37.53,121.38,102,,,,,,
442,Rugao,China,32.4,120.56,351,979,LUSI,32.13,121.62,104,,,,,,
443,Ruian,China,27.78,120.68,1345,934,KANMEN,28.08,121.28,68,0.26,0.62,2.17,0.25,0.59,2.13
444,Rushan,China,36.92,121.53,355,731,YANTAI,37.53,121.38,70,0.06,0.46,1.98,0.22,0.56,2.08
445,Sanhe,China,39.98,117.07,697,1403,TANGGU,39.0,117.72,123,,,,,,
446,Sanmenxia,China,34.77,111.2,642,1403,TANGGU,39.0,117.72,747,,,,,,
447,Sanming,China,26.26,117.62,402,727,XIAMEN,24.45,118.07,207,,,,,,
448,Sanya,China,18.27,109.5,713,1428,HAIKOU,20.02,110.28,211,,,,,,
449,Shanghai,China,31.22,121.46,30482,979,LUSI,32.13,121.62,102,,,,,,
450,Shangqiu,China,34.42,115.65,935,1405,LIANYUNGANG,34.75,119.45,350,,,,,,
451,Shangrao,China,28.46,117.95,1154,934,KANMEN,28.08,121.28,329,,,,,,
452,Shangyu,China,30.03,120.87,574,934,KANMEN,28.08,121.28,221,,,,,,
453,Shantou,China,23.37,116.71,4738,1406,SHANWEI,22.75,115.35,156,,,,,,
454,Shanwei,China,22.78,115.36,467,1406,SHANWEI,22.75,115.35,3,0.11,0.59,2.11,0.24,0.59,2.08
455,Shaoguan,China,24.8,113.58,805,1366,TSIM_BEI_TSUI,22.49,114.01,261,,,,,,
456,Shaoxing,China,30.01,120.57,2951,934,KANMEN,28.08,121.28,226,,,,,,
457,Shaoyang,China,27.24,111.47,791,1366,TSIM_BEI_TSUI,22.49,114.01,588,,,,,,
458,Shengzhou,China,29.59,120.82,436,934,KANMEN,28.08,121.28,174,,,,,,
459,Shenmu,China,38.83,110.48,387,1403,TANGGU,39.0,117.72,627,,,,,,
460,Shenyang,China,41.79,123.43,7974,1513,LAOHUTAN,38.87,121.68,358,,,,,,
461,Shenzhen,China,22.54,114.06,13545,1366,TSIM_BEI_TSUI,22.49,114.01,8,0.08,0.48,1.97,0.24,0.59,2.07
462,Shihezi,China,44.31,86.03,349,1002,TRIBENI,22.98,88.4,2384,,,,,,
463,Shijiazhuang,China,38.04,114.51,4535,1403,TANGGU,39.0,117.72,299,,,,,,
464,Shishi,China,24.74,118.63,649,727,XIAMEN,24.45,118.07,65,0.2,0.59,2.09,0.24,0.59,2.09
465,Shiyan,China,32.64,110.78,1418,1405,LIANYUNGANG,34.75,119.45,836,,,,,,
466,Shizuishan,China,39.23,106.77,574,1403,TANGGU,39.0,117.72,946,,,,,,
467,Shouguang,China,36.88,118.75,589,1404,SHIJIUSUO,35.38,119.55,182,,,,,,
468,Shuangyashan,China,46.64,131.15,532,1103,WAKKANAI,45.41,141.69,825,,,,,,
469,Shuozhou,China,39.32,112.42,655,1403,TANGGU,39.0,117.72,459,,,,,,
470,Sihui,China,23.35,112.7,710,269,MACAU,22.2,113.55,155,,,,,,
471,Siping,China,43.16,124.37,648,1007,WONSAN,39.17,127.45,514,,,,,,
472,Songyuan,China,27.62,119.06,551,934,KANMEN,28.08,121.28,224,,,,,,
473,Songzi,China,30.17,111.78,366,1405,LIANYUNGANG,34.75,119.45,882,,,,,,
474,Suihua,China,46.64,126.98,459,1007,WONSAN,39.17,127.45,832,,,,,,
475,"Suining, Sichuan",China,30.52,105.56,781,1408,BEIHAI,21.48,109.08,1066,,,,,,
476,Suizhou,China,31.71,113.36,481,1405,LIANYUNGANG,34.75,119.45,660,,,,,,
477,Suqian,China,33.97,118.29,1780,1405,LIANYUNGANG,34.75,119.45,137,,,,,,
478,"Suzhou, Anhui",China,33.64,116.97,1385,1405,LIANYUNGANG,34.75,119.45,259,,,,,,
479,"Suzhou, Jiangsu",China,31.3,120.59,8593,979,LUSI,32.13,121.62,135,,,,,,
480,"Taian, Shandong",China,36.19,117.12,1467,1404,SHIJIUSUO,35.38,119.55,237,,,,,,
481,Taicang,China,31.45,121.12,765,979,LUSI,32.13,121.62,89,0.43,0.81,2.35,0.24,0.58,2.12
482,Taishan,China,22.25,112.79,593,269,MACAU,22.2,113.55,78,0.12,0.5,1.99,0.24,0.59,2.07
483,Taixing,China,32.17,120.01,848,979,LUSI,32.13,121.62,151,,,,,,
484,"Taiyuan, Shanxi",China,37.86,112.55,4305,1403,TANGGU,39.0,117.72,468,,,,,,
485,"Taizhou, Jiangsu",China,32.49,119.9,1507,979,LUSI,32.13,121.62,167,,,,,,
486,"Taizhou, Zhejiang",China,28.64,121.42,2199,934,KANMEN,28.08,121.28,63,0.26,0.62,2.17,0.25,0.59,2.13
487,"Tangshan, Hebei",China,39.63,118.18,4024,1403,TANGGU,39.0,117.72,80,0.02,0.5,2.01,0.15,0.5,1.99
488,Tengzhou,China,35.08,117.16,1395,1405,LIANYUNGANG,34.75,119.45,212,,,,,,
489,Tianjin,China,39.11,117.19,14704,1403,TANGGU,39.0,117.72,48,0.02,0.5,2.01,0.15,0.5,1.99
490,Tianmen,China,30.65,113.16,1001,1405,LIANYUNGANG,34.75,119.45,745,,,,,,
491,Tianshui,China,34.58,105.72,878,1403,TANGGU,39.0,117.72,1176,,,,,,
492,Tieling,China,42.29,123.84,439,1513,LAOHUTAN,38.87,121.68,423,,,,,,
493,Tongcheng,China,31.05,116.96,494,979,LUSI,32.13,121.62,458,,,,,,
494,Tongchuan,China,34.9,108.95,597,1403,TANGGU,39.0,117.72,903,,,,,,
495,Tonghua,China,41.72,125.93,629,1007,WONSAN,39.17,127.45,312,,,,,,
496,Tongliao,China,43.61,122.27,788,614,QINHUANGDAO,39.9,119.6,469,,,,,,
497,Tongling,China,30.94,117.81,786,979,LUSI,32.13,121.62,385,,,,,,
498,Tongxiang,China,30.63,120.55,745,979,LUSI,32.13,121.62,195,,,,,,
499,Ürümqi (Wulumqi),China,43.83,87.6,5132,1002,TRIBENI,22.98,88.4,2322,,,,,,
500,Wafangdian ,China,39.63,121.99,494,1513,LAOHUTAN,38.87,121.68,88,0.19,0.55,2.06,0.22,0.56,2.08
501,Wanning,China,18.8,110.38,435,1428,HAIKOU,20.02,110.28,137,,,,,,
502,Weifang,China,36.71,119.1,3064,1404,SHIJIUSUO,35.38,119.55,153,,,,,,
503,Weihai,China,37.5,122.11,1499,731,YANTAI,37.53,121.38,65,0.06,0.46,1.98,0.22,0.56,2.08
504,Weinan,China,34.5,109.51,610,1403,TANGGU,39.0,117.72,886,,,,,,
505,Wenchang,China,19.61,110.75,409,1428,HAIKOU,20.02,110.28,67,0.21,0.69,2.21,0.23,0.58,2.06
506,Wenling,China,28.38,121.38,1185,934,KANMEN,28.08,121.28,34,0.26,0.62,2.17,0.25,0.59,2.13
507,Wenzhou,China,28.0,120.67,4093,934,KANMEN,28.08,121.28,61,0.26,0.62,2.17,0.25,0.59,2.13
508,Wuchuan ,China,21.43,110.78,369,933,ZHAPO,21.58,111.82,109,,,,,,
509,Wuhai,China,39.66,106.81,701,1403,TANGGU,39.0,117.72,942,,,,,,
510,Wuhan,China,30.58,114.27,8986,1405,LIANYUNGANG,34.75,119.45,671,,,,,,
511,"Wuhu, Anhui",China,31.33,118.38,2257,979,LUSI,32.13,121.62,319,,,,,,
512,Wulanhaote,China,46.07,122.07,369,614,QINHUANGDAO,39.9,119.6,716,,,,,,
513,Wuwei,China,37.93,102.63,440,1403,TANGGU,39.0,117.72,1319,,,,,,
514,"Wuxi, Jiangsu",China,31.54,120.3,3559,979,LUSI,32.13,121.62,141,,,,,,
515,Wuzhou,China,23.48,111.27,784,933,ZHAPO,21.58,111.82,219,,,,,,
516,Xiamen,China,24.48,118.08,4078,727,XIAMEN,24.45,118.07,4,0.2,0.59,2.09,0.24,0.59,2.09
517,"Xi'an, Shaanxi",China,34.29,108.94,9222,1403,TANGGU,39.0,117.72,943,,,,,,
518,"Xiangtan, Hunan",China,27.83,112.93,1274,1366,TSIM_BEI_TSUI,22.49,114.01,604,,,,,,
519,Xiangyang,China,32.01,112.14,1802,1405,LIANYUNGANG,34.75,119.45,744,,,,,,
520,Xianning,China,29.84,114.33,369,934,KANMEN,28.08,121.28,704,,,,,,
521,Xiantao,China,30.37,113.45,625,1405,LIANYUNGANG,34.75,119.45,744,,,,,,
522,"Xianyang, Shaanxi",China,34.34,108.7,766,1403,TANGGU,39.0,117.72,957,,,,,,
523,Xiaogan,China,30.93,113.92,888,1405,LIANYUNGANG,34.75,119.45,670,,,,,,
524,Xinghua,China,32.94,119.84,902,979,LUSI,32.13,121.62,190,,,,,,
525,Xingning,China,24.15,115.73,597,1406,SHANWEI,22.75,115.35,160,,,,,,
526,Xingping,China,34.3,108.49,470,1403,TANGGU,39.0,117.72,976,,,,,,
527,Xingtai,China,37.06,114.49,921,1403,TANGGU,39.0,117.72,356,,,,,,
528,Xingyang,China,34.79,113.38,461,1405,LIANYUNGANG,34.75,119.45,555,,,,,,
529,"Xingyi, Guizhou",China,25.09,104.9,396,841,HONDAU,20.67,106.8,530,,,,,,
530,Xining,China,36.62,101.77,1741,1403,TANGGU,39.0,117.72,1426,,,,,,
531,Xinmi,China,34.54,113.39,685,1405,LIANYUNGANG,34.75,119.45,556,,,,,,
532,Xintai,China,35.9,117.75,1073,1404,SHIJIUSUO,35.38,119.55,173,,,,,,
533,Xinxiang,China,35.3,113.9,1181,1405,LIANYUNGANG,34.75,119.45,509,,,,,,
534,Xinyang,China,32.13,114.07,890,1405,LIANYUNGANG,34.75,119.45,578,,,,,,
535,Xinyi,China,34.37,118.34,640,1405,LIANYUNGANG,34.75,119.45,110,,,,,,
536,Xinyi,China,22.36,110.94,441,933,ZHAPO,21.58,111.82,126,,,,,,
537,Xinyu,China,27.8,114.93,1004,727,XIAMEN,24.45,118.07,487,,,,,,
538,Xinzheng,China,34.4,113.74,500,1405,LIANYUNGANG,34.75,119.45,525,,,,,,
539,Xinzhou,China,38.42,112.73,424,1403,TANGGU,39.0,117.72,438,,,,,,
540,Xiongan,China,38.98,116.08,1289,1403,TANGGU,39.0,117.72,142,,,,,,
541,Xuancheng,China,30.95,118.75,543,979,LUSI,32.13,121.62,302,,,,,,
542,Xuanwei,China,26.23,104.1,394,841,HONDAU,20.67,106.8,677,,,,,,
543,Xuchang,China,34.02,113.82,1117,1405,LIANYUNGANG,34.75,119.45,524,,,,,,
544,Xuzhou,China,34.26,117.19,2376,1405,LIANYUNGANG,34.75,119.45,215,,,,,,
545,Yaan,China,29.99,102.99,412,841,HONDAU,20.67,106.8,1105,,,,,,
546,Yan'an,China,36.6,109.48,814,1403,TANGGU,39.0,117.72,772,,,,,,
547,"Yancheng, Jiangsu",China,33.36,120.16,2073,1405,LIANYUNGANG,34.75,119.45,168,,,,,,
548,Yangchun,China,22.17,111.79,324,933,ZHAPO,21.58,111.82,66,0.23,0.61,2.09,0.24,0.59,2.06
549,Yangjiang,China,21.86,111.96,996,933,ZHAPO,21.58,111.82,34,0.23,0.61,2.09,0.24,0.59,2.06
550,Yangquan,China,37.86,113.58,887,1403,TANGGU,39.0,117.72,383,,,,,,
551,Yangzhou,China,32.39,119.42,2217,979,LUSI,32.13,121.62,209,,,,,,
552,Yanji,China,42.91,129.51,793,1007,WONSAN,39.17,127.45,450,,,,,,
553,Yanshi,China,34.73,112.78,613,1405,LIANYUNGANG,34.75,119.45,610,,,,,,
554,Yantai,China,37.47,121.44,2898,731,YANTAI,37.53,121.38,9,0.06,0.46,1.98,0.22,0.56,2.08
555,Yibin,China,28.77,104.62,897,1408,BEIHAI,21.48,109.08,927,,,,,,
556,Yichang,China,30.71,111.28,1800,1405,LIANYUNGANG,34.75,119.45,886,,,,,,
557,"Yichun, Heilongjiang",China,47.72,128.83,600,1007,WONSAN,39.17,127.45,959,,,,,,
558,"Yichun, Jiangxi",China,27.81,114.39,1159,727,XIAMEN,24.45,118.07,524,,,,,,
559,Yinchuan,China,38.47,106.27,1796,1403,TANGGU,39.0,117.72,995,,,,,,
560,Yingde,China,24.2,113.41,478,1366,TSIM_BEI_TSUI,22.49,114.01,200,,,,,,
561,Yingkou,China,40.66,122.23,1385,1513,LAOHUTAN,38.87,121.68,205,,,,,,
562,Yining,China,43.92,81.32,389,1002,TRIBENI,22.98,88.4,2420,,,,,,
563,Yiwu,China,29.32,120.08,1564,934,KANMEN,28.08,121.28,181,,,,,,
564,Yixing,China,31.36,119.78,479,979,LUSI,32.13,121.62,194,,,,,,
565,"Yiyang, Hunan",China,28.57,112.35,638,1366,TSIM_BEI_TSUI,22.49,114.01,697,,,,,,
566,Yongcheng,China,33.93,116.44,548,1405,LIANYUNGANG,34.75,119.45,291,,,,,,
567,Yongkang,China,28.9,120.03,603,934,KANMEN,28.08,121.28,153,,,,,,
568,Yongzhou,China,26.44,111.61,904,1366,TSIM_BEI_TSUI,22.49,114.01,502,,,,,,
569,Yuanjiang,China,28.84,112.36,380,1366,TSIM_BEI_TSUI,22.49,114.01,726,,,,,,
570,Yueqing,China,28.12,120.96,1230,934,KANMEN,28.08,121.28,32,0.26,0.62,2.17,0.25,0.59,2.13
571,Yueyang,China,29.37,113.12,1080,727,XIAMEN,24.45,118.07,736,,,,,,
572,Yuhuan,China,28.14,121.23,517,934,KANMEN,28.08,121.28,8,0.26,0.62,2.17,0.25,0.59,2.13
573,"Yulin, Guangxi",China,22.63,110.15,661,1408,BEIHAI,21.48,109.08,170,,,,,,
574,"Yulin, Shaanxi",China,38.28,109.73,754,1403,TANGGU,39.0,117.72,699,,,,,,
575,Yuncheng,China,35.02,110.99,797,1403,TANGGU,39.0,117.72,744,,,,,,
576,Yunfu,China,22.93,112.04,395,933,ZHAPO,21.58,111.82,152,,,,,,
577,Yushu,China,44.82,126.55,398,1007,WONSAN,39.17,127.45,634,,,,,,
578,Yuxi,China,24.36,102.54,796,841,HONDAU,20.67,106.8,600,,,,,,
579,Yuyao,China,30.04,121.15,759,934,KANMEN,28.08,121.28,219,,,,,,
580,Zaoyang,China,32.13,112.75,627,1405,LIANYUNGANG,34.75,119.45,687,,,,,,
581,Zaozhuang,China,34.86,117.55,1168,1405,LIANYUNGANG,34.75,119.45,174,,,,,,
582,Zhangjiagang,China,31.86,120.54,775,979,LUSI,32.13,121.62,106,,,,,,
583,Zhangjiakou,China,40.81,114.88,1598,1403,TANGGU,39.0,117.72,315,,,,,,
584,Zhangshu,China,28.07,115.55,385,727,XIAMEN,24.45,118.07,475,,,,,,
585,Zhangye,China,38.93,100.45,475,1403,TANGGU,39.0,117.72,1492,,,,,,
586,Zhangzhou,China,24.51,117.66,1002,727,XIAMEN,24.45,118.07,43,0.2,0.59,2.09,0.24,0.59,2.09
587,Zhanjiang,China,21.27,110.36,1425,1408,BEIHAI,21.48,109.08,135,,,,,,
588,Zhaodong,China,46.07,125.99,647,1007,WONSAN,39.17,127.45,777,,,,,,
589,Zhaoqing,China,23.05,112.46,1150,269,MACAU,22.2,113.55,147,,,,,,
590,Zhaotong,China,27.34,103.72,382,841,HONDAU,20.67,106.8,805,,,,,,
591,Zhaoyuan,China,37.36,120.4,385,731,YANTAI,37.53,121.38,89,0.06,0.46,1.98,0.22,0.56,2.08
592,Zhengzhou,China,34.76,113.65,6156,1405,LIANYUNGANG,34.75,119.45,531,,,,,,
593,"Zhenjiang, Jiangsu",China,32.2,119.45,1299,979,LUSI,32.13,121.62,205,,,,,,
594,Zhongshan,China,22.52,113.38,3094,269,MACAU,22.2,113.55,39,0.12,0.5,1.99,0.24,0.59,2.07
595,Zhongxiang,China,31.17,112.58,530,1405,LIANYUNGANG,34.75,119.45,755,,,,,,
596,Zhoukou,China,33.62,114.65,746,1405,LIANYUNGANG,34.75,119.45,460,,,,,,
597,Zhoushan,China,29.99,122.21,710,934,KANMEN,28.08,121.28,231,,,,,,
598,Zhuanghe,China,39.71,122.97,547,723,DALIAN,38.87,121.68,145,,,,,,
599,Zhucheng,China,35.99,119.4,1045,1404,SHIJIUSUO,35.38,119.55,70,-0.01,0.46,1.99,0.21,0.56,2.06
600,Zhuhai,China,22.28,113.57,1969,269,MACAU,22.2,113.55,9,0.12,0.5,1.99,0.24,0.59,2.07
601,Zhuji,China,29.71,120.24,869,934,KANMEN,28.08,121.28,208,,,,,,
602,Zhumadian,China,32.98,114.03,851,1405,LIANYUNGANG,34.75,119.45,538,,,,,,
603,Zhuozhou,China,39.48,115.98,404,1403,TANGGU,39.0,117.72,160,,,,,,
604,Zhuzhou,China,27.83,113.15,1299,1366,TSIM_BEI_TSUI,22.49,114.01,601,,,,,,
605,Zibo,China,36.79,118.06,2876,1404,SHIJIUSUO,35.38,119.55,206,,,,,,
606,Zigong,China,29.34,104.78,792,1408,BEIHAI,21.48,109.08,976,,,,,,
607,Zixing,China,25.98,113.23,388,1366,TSIM_BEI_TSUI,22.49,114.01,396,,,,,,
608,Ziyang,China,30.13,104.63,565,1408,BEIHAI,21.48,109.08,1060,,,,,,
609,Zunyi,China,27.71,106.94,1434,1408,BEIHAI,21.48,109.08,727,,,,,,
610,Hong Kong,"China, Hong Kong SAR",22.28,114.19,7769,1674,QUARRY_BAY,22.29,114.21,2,0.13,0.56,2.06,0.24,0.59,2.08
611,Macao,"China, Macao SAR",22.2,113.55,701,269,MACAU,22.2,113.55,0,0.12,0.5,1.99,0.24,0.59,2.07
612,Gaoxiong,"China, Taiwan Province of China",22.63,120.32,1566,1356,KAOHSIUNG_II,22.53,120.32,11,0.05,0.56,2.12,0.24,0.61,2.14
613,Jilong,"China, Taiwan Province of China",25.13,121.74,371,545,KEELUNG_II,25.13,121.73,1,0.16,0.57,2.14,0.25,0.61,2.16
614,Taibei,"China, Taiwan Province of China",25.05,121.55,2779,545,KEELUNG_II,25.13,121.73,21,0.16,0.57,2.14,0.25,0.61,2.16
615,Tainan,"China, Taiwan Province of China",23.13,120.26,881,1356,KAOHSIUNG_II,22.53,120.32,67,0.05,0.56,2.12,0.24,0.61,2.14
616,Taizhong,"China, Taiwan Province of China",24.14,120.67,1393,545,KEELUNG_II,25.13,121.73,153,,,,,,
617,Taoyuan,"China, Taiwan Province of China",24.99,121.3,2357,545,KEELUNG_II,25.13,121.73,46,0.16,0.57,2.14,0.25,0.61,2.16
618,Xinbei,"China, Taiwan Province of China",25.01,121.46,4564,545,KEELUNG_II,25.13,121.73,30,0.16,0.57,2.14,0.25,0.61,2.16
619,Xinzhu,"China, Taiwan Province of China",24.8,120.97,467,545,KEELUNG_II,25.13,121.73,85,0.16,0.57,2.14,0.25,0.61,2.16
620,Armenia,Colombia,4.53,-75.68,428,456,BUENAVENTURA,3.9,-77.1,173,,,,,,
621,Barranquilla,Colombia,10.96,-74.8,2396,572,CARTAGENA,10.4,-75.55,104,,,,,,
622,Bogotá,Colombia,4.61,-74.08,11796,456,BUENAVENTURA,3.9,-77.1,344,,,,,,
623,Bucaramanga,Colombia,7.13,-73.12,1411,572,CARTAGENA,10.4,-75.55,452,,,,,,
624,Buenaventura,Colombia,3.89,-77.07,488,456,BUENAVENTURA,3.9,-77.1,4,0.17,0.51,1.97,0.24,0.56,2.02
625,Cali,Colombia,3.44,-76.52,2917,456,BUENAVENTURA,3.9,-77.1,82,0.17,0.51,1.97,0.24,0.56,2.02
626,Cartagena,Colombia,10.4,-75.51,1106,572,CARTAGENA,10.4,-75.55,4,0.45,0.82,2.31,0.29,0.64,2.13
627,Cúcuta,Colombia,7.89,-72.51,982,572,CARTAGENA,10.4,-75.55,435,,,,,,
628,Ibagué,Colombia,4.44,-75.23,610,456,BUENAVENTURA,3.9,-77.1,216,,,,,,
629,Manizales,Colombia,5.07,-75.52,461,456,BUENAVENTURA,3.9,-77.1,219,,,,,,
630,Medellín,Colombia,6.25,-75.56,4173,456,BUENAVENTURA,3.9,-77.1,312,,,,,,
631,Monteria,Colombia,8.75,-75.88,457,572,CARTAGENA,10.4,-75.55,187,,,,,,
632,Neiva,Colombia,2.93,-75.28,369,456,BUENAVENTURA,3.9,-77.1,229,,,,,,
633,Pasto,Colombia,1.21,-77.28,403,639,TUMACO,1.83,-78.73,175,,,,,,
634,Pereira,Colombia,4.81,-75.7,590,456,BUENAVENTURA,3.9,-77.1,186,,,,,,
635,Santa Marta,Colombia,11.24,-74.2,557,572,CARTAGENA,10.4,-75.55,175,,,,,,
636,Valledupar,Colombia,10.46,-73.25,592,572,CARTAGENA,10.4,-75.55,252,,,,,,
637,Villavicencio,Colombia,4.14,-73.63,585,456,BUENAVENTURA,3.9,-77.1,387,,,,,,
638,Brazzaville,Congo,-4.27,15.28,2813,1049,TEMA,5.62,0.0,2024,,,,,,
639,Pointe-Noire,Congo,-4.78,11.86,1424,1049,TEMA,5.62,0.0,1755,,,,,,
640,Alajuela,Costa Rica,10.02,-84.22,435,464,PUNTARENAS,9.97,-84.83,67,0.27,0.62,2.13,0.25,0.58,2.09
641,Heredia,Costa Rica,10.0,-84.12,359,464,PUNTARENAS,9.97,-84.83,78,0.27,0.62,2.13,0.25,0.58,2.09
642,San José,Costa Rica,9.93,-84.08,1503,464,PUNTARENAS,9.97,-84.83,82,0.27,0.62,2.13,0.25,0.58,2.09
643,Abidjan,Côte d'Ivoire,5.35,-4.03,6057,331,TAKORADI,4.88,-1.75,258,,,,,,
644,Bouake,Côte d'Ivoire,7.69,-5.03,636,331,TAKORADI,4.88,-1.75,479,,,,,,
645,Zagreb,Croatia,45.81,15.98,684,353,BAKAR,45.3,14.53,127,,,,,,
646,Camaguey,Cuba,21.38,-77.92,314,1910,CABO_CRUZ,19.83,-77.73,174,,,,,,
647,La Habana (Havana),Cuba,23.12,-82.38,2156,1162,SIBONEY,23.1,-82.47,10,0.38,0.72,2.2,0.28,0.61,2.09
648,Santiago de Cuba,Cuba,20.02,-75.82,443,418,GUANTANAMO_BAY,19.91,-75.15,71,0.28,0.65,2.14,0.26,0.6,2.09
649,Brno,Czechia,49.2,16.61,381,154,TRIESTE,45.65,13.76,449,,,,,,
650,Praha (Prague),Czechia,50.09,14.42,1332,2,SWINOUJSCIE,53.92,14.23,427,,,,,,
651,Chongjin,Dem. People's Republic of Korea,41.8,129.78,662,1007,WONSAN,39.17,127.45,352,,,,,,
652,Hamhung,Dem. People's Republic of Korea,39.92,127.54,546,1007,WONSAN,39.17,127.45,84,0.18,0.59,2.13,0.25,0.57,2.1
653,P'yongyang,Dem. People's Republic of Korea,39.03,125.75,3209,1007,WONSAN,39.17,127.45,147,,,,,,
654,Sinuiju,Dem. People's Republic of Korea,40.1,124.4,333,1513,LAOHUTAN,38.87,121.68,271,,,,,,
655,Wonsan,Dem. People's Republic of Korea,39.15,127.44,366,1007,WONSAN,39.17,127.45,2,0.18,0.59,2.13,0.25,0.57,2.1
656,Bukavu,Democratic Republic of the Congo,-2.51,28.86,1369,2183,MOMBASA_II,-4.07,39.65,1212,,,,,,
657,Bunia,Democratic Republic of the Congo,1.57,30.25,900,2183,MOMBASA_II,-4.07,39.65,1220,,,,,,
658,Goma,Democratic Republic of the Congo,-1.68,29.22,820,2183,MOMBASA_II,-4.07,39.65,1189,,,,,,
659,Kabinda,Democratic Republic of the Congo,-6.14,24.48,640,1600,ZANZIBAR,-6.15,39.18,1627,,,,,,
660,Kananga,Democratic Republic of the Congo,-5.9,22.42,1816,1600,ZANZIBAR,-6.15,39.18,1856,,,,,,
661,Kikwit,Democratic Republic of the Congo,-5.04,18.82,615,914,WALVIS_BAY,-22.95,14.5,2047,,,,,,
662,Kinshasa,Democratic Republic of the Congo,-4.33,15.31,17778,1049,TEMA,5.62,0.0,2031,,,,,,
663,Kisangani,Democratic Republic of the Congo,0.52,25.2,1547,2183,MOMBASA_II,-4.07,39.65,1686,,,,,,
664,Kolwezi,Democratic Republic of the Congo,-10.71,25.47,555,1600,ZANZIBAR,-6.15,39.18,1593,,,,,,
665,Likasi,Democratic Republic of the Congo,-10.98,26.73,676,1600,ZANZIBAR,-6.15,39.18,1471,,,,,,
666,Lubumbashi,Democratic Republic of the Congo,-11.66,27.48,3061,1600,ZANZIBAR,-6.15,39.18,1425,,,,,,
667,Matadi,Democratic Republic of the Congo,-5.82,13.47,466,914,WALVIS_BAY,-22.95,14.5,1910,,,,,,
668,Mbandaka,Democratic Republic of the Congo,0.05,18.26,535,1049,TEMA,5.62,0.0,2122,,,,,,
669,Mbuji-Mayi,Democratic Republic of the Congo,-6.15,23.6,3158,1600,ZANZIBAR,-6.15,39.18,1724,,,,,,
670,Tshikapa,Democratic Republic of the Congo,-6.42,20.8,1186,914,WALVIS_BAY,-22.95,14.5,1961,,,,,,
671,Uvira,Democratic Republic of the Congo,-3.4,29.14,761,1600,ZANZIBAR,-6.15,39.18,1155,,,,,,
672,København (Copenhagen),Denmark,55.68,12.57,1401,82,KOBENHAVN,55.7,12.6,3,0.1,0.52,1.76,0.17,0.59,1.83
673,Djibouti,Djibouti,11.59,43.14,616,44,ADEN,12.79,44.97,239,,,,,,
674,Santiago,Dominican Republic,19.46,-70.7,707,759,MAGUEYES_ISLAND,17.97,-67.05,419,,,,,,
675,Santo Domingo,Dominican Republic,18.49,-69.9,3648,759,MAGUEYES_ISLAND,17.97,-67.05,307,,,,,,
676,Cuenca,Ecuador,-2.88,-78.98,461,555,LA_LIBERTAD,-2.2,-80.92,228,,,,,,
677,Guayaquil,Ecuador,-2.17,-79.9,3245,544,LA_LIBERTAD_II,-2.2,-80.92,114,,,,,,
678,Quito,Ecuador,-0.23,-78.52,2017,639,TUMACO,1.83,-78.73,230,,,,,,
679,Santo Domingo,Ecuador,-0.25,-79.17,396,639,TUMACO,1.83,-78.73,237,,,,,,
680,Al-Fayyum,Egypt,29.31,30.84,449,503,ALEXANDRIA,31.22,29.92,230,,,,,,
681,Al-Iskandariyah (Alexandria),Egypt,31.19,29.9,5807,503,ALEXANDRIA,31.22,29.92,3,0.24,0.62,1.98,0.2,0.56,1.93
682,Al-Ismailiyah,Egypt,30.6,32.27,383,253,PORT_SAID,31.25,32.3,72,0.18,0.57,1.94,0.19,0.56,1.92
683,Al-Mahallah al-Kubra,Egypt,30.97,31.16,556,253,PORT_SAID,31.25,32.3,112,,,,,,
684,Al-Mansurah,Egypt,31.04,31.38,607,253,PORT_SAID,31.25,32.3,91,0.18,0.57,1.94,0.19,0.56,1.92
685,Al-Qahirah (Cairo),Egypt,30.04,31.24,23074,253,PORT_SAID,31.25,32.3,169,,,,,,
686,As-Suways,Egypt,29.97,32.55,698,253,PORT_SAID,31.25,32.3,145,,,,,,
687,Aswan,Egypt,24.09,32.91,379,253,PORT_SAID,31.25,32.3,799,,,,,,
688,Asyut,Egypt,27.18,31.18,497,253,PORT_SAID,31.25,32.3,466,,,,,,
689,Az-Zaqazig,Egypt,30.59,31.5,386,253,PORT_SAID,31.25,32.3,106,,,,,,
690,Bur Sa'id,Egypt,31.26,32.28,808,253,PORT_SAID,31.25,32.3,2,0.18,0.57,1.94,0.19,0.56,1.92
691,Kafr-ad-Dawwar,Egypt,31.13,30.13,375,503,ALEXANDRIA,31.22,29.92,22,0.24,0.62,1.98,0.2,0.56,1.93
692,Tanta,Egypt,30.79,31.0,541,503,ALEXANDRIA,31.22,29.92,114,,,,,,
693,San Salvador,El Salvador,13.69,-89.19,1132,1011,ACAJUTLA,13.57,-89.83,71,0.25,0.6,2.1,0.24,0.57,2.08
694,Bata,Equatorial Guinea,1.86,9.77,513,1049,TEMA,5.62,0.0,1162,,,,,,
695,Asmara,Eritrea,15.33,38.93,1152,44,ADEN,12.79,44.97,711,,,,,,
696,Tallinn,Estonia,59.44,24.75,458,14,HELSINKI,60.15,24.96,80,-0.22,0.24,1.46,0.14,0.59,1.81
697,Addis Ababa,Ethiopia,9.02,38.75,5957,44,ADEN,12.79,44.97,799,,,,,,
698,Dire Dawa,Ethiopia,9.59,41.87,507,44,ADEN,12.79,44.97,491,,,,,,
699,Gondar,Ethiopia,12.6,37.47,450,44,ADEN,12.79,44.97,815,,,,,,
700,Mekele,Ethiopia,13.5,39.48,637,44,ADEN,12.79,44.97,601,,,,,,
701,Nazret,Ethiopia,8.54,39.27,468,44,ADEN,12.79,44.97,782,,,,,,
702,Helsinki,Finland,60.17,24.94,1355,14,HELSINKI,60.15,24.96,2,-0.22,0.24,1.46,0.14,0.59,1.81
703,Tampere,Finland,61.5,23.79,351,172,MANTYLUOTO,61.59,21.46,124,,,,,,
704,Avignon,France,43.95,4.81,484,61,MARSEILLE,43.28,5.35,86,0.17,0.53,1.8,0.18,0.54,1.82
705,Béthune,France,50.53,2.63,365,468,DUNKERQUE,51.05,2.37,60,0.15,0.58,1.85,0.14,0.58,1.84
706,Bordeaux,France,44.84,-0.58,1018,1915,PORT_BLOC,45.57,-1.06,89,0.16,0.53,1.81,0.18,0.55,1.83
707,Douai-Lens,France,50.37,3.08,507,489,NIEUWPOORT,51.15,2.73,90,0.18,0.61,1.88,0.14,0.57,1.84
708,Grenoble,France,45.17,5.72,544,1468,NICE,43.7,7.29,206,,,,,,
709,Lille,France,50.63,3.06,1092,489,NIEUWPOORT,51.15,2.73,62,0.18,0.61,1.88,0.14,0.57,1.84
710,Lyon,France,45.75,4.85,1787,958,SETE,43.4,3.7,277,,,,,,
711,Marseille-Aix-en-Provence,France,43.53,5.44,1645,61,MARSEILLE,43.28,5.35,29,0.17,0.53,1.8,0.18,0.54,1.82
712,Montpellier,France,43.61,3.88,487,958,SETE,43.4,3.7,27,0.18,0.56,1.84,0.18,0.54,1.81
713,Nantes,France,47.22,-1.55,711,457,ST. NAZAIRE,47.27,-2.2,49,0.15,0.52,1.79,0.18,0.55,1.82
714,Nice-Cannes,France,43.66,7.15,956,1468,NICE,43.7,7.29,12,0.11,0.48,1.75,0.18,0.54,1.81
715,Paris,France,48.85,2.35,11347,474,DIEPPE,49.93,1.08,151,,,,,,
716,Rennes,France,48.11,-1.67,371,454,ST. MALO,48.64,-2.03,64,0.13,0.53,1.8,0.16,0.55,1.82
717,Rouen,France,49.44,1.1,479,474,DIEPPE,49.93,1.08,54,0.25,0.68,1.95,0.14,0.57,1.83
718,Saint-Étienne,France,45.43,4.4,382,958,SETE,43.4,3.7,233,,,,,,
719,Strasbourg,France,48.58,7.74,490,20,VLISSINGEN,51.44,3.6,435,,,,,,
720,Toulon,France,43.12,5.93,593,980,TOULON,43.11,5.91,2,0.12,0.5,1.77,0.18,0.55,1.82
721,Toulouse,France,43.6,1.44,1080,1469,PORT_VENDRES,42.52,3.11,181,,,,,,
722,Tours,France,47.38,0.68,370,466,LA_ROCHELLE-LA_PALLICE,46.16,-1.22,199,,,,,,
723,Valenciennes,France,50.35,3.53,344,489,NIEUWPOORT,51.15,2.73,106,,,,,,
724,Libreville,Gabon,0.39,9.45,899,1049,TEMA,5.62,0.0,1201,,,,,,
725,Banjul,Gambia,13.45,-16.68,510,1816,DAKAR_2,14.68,-17.42,158,,,,,,
726,Tbilisi,Georgia,41.69,44.83,1087,51,BATUMI,41.63,41.7,261,,,,,,
727,Berlin,Germany,52.52,13.41,3580,2,SWINOUJSCIE,53.92,14.23,165,,,,,,
728,Bielefeld,Germany,52.03,8.53,335,24,DELFZIJL,53.33,6.93,180,,,,,,
729,Bochum,Germany,51.48,7.22,382,24,DELFZIJL,53.33,6.93,206,,,,,,
730,Bonn,Germany,50.73,7.1,320,9,MAASSLUIS,51.92,4.25,238,,,,,,
731,Bremen,Germany,53.08,8.81,569,7,CUXHAVEN_2,53.87,8.72,89,0.2,0.64,1.89,0.13,0.57,1.82
732,Dortmund,Germany,51.52,7.45,590,24,DELFZIJL,53.33,6.93,205,,,,,,
733,Dresden,Germany,51.05,13.74,594,2,SWINOUJSCIE,53.92,14.23,321,,,,,,
734,Duesseldorf,Germany,51.22,6.78,643,9,MAASSLUIS,51.92,4.25,191,,,,,,
735,Duisburg,Germany,51.43,6.75,529,9,MAASSLUIS,51.92,4.25,181,,,,,,
736,Essen,Germany,51.45,7.01,581,9,MAASSLUIS,51.92,4.25,197,,,,,,
737,Frankfurt am Main,Germany,50.12,8.68,804,9,MAASSLUIS,51.92,4.25,370,,,,,,
738,Hamburg,Germany,53.55,10.0,1788,13,TRAVEMUNDE,53.96,10.87,73,0.19,0.63,1.88,0.16,0.61,1.86
739,Hannover,Germany,52.37,9.73,539,7,CUXHAVEN_2,53.87,8.72,180,,,,,,
740,Karlsruhe,Germany,49.0,8.39,324,20,VLISSINGEN,51.44,3.6,435,,,,,,
741,Köln (Cologne),Germany,50.93,6.95,1153,9,MAASSLUIS,51.92,4.25,217,,,,,,
742,Leipzig,Germany,51.34,12.37,609,8,WISMAR_2,53.9,11.46,292,,,,,,
743,Mannheim,Germany,49.49,8.46,348,9,MAASSLUIS,51.92,4.25,402,,,,,,
744,Muenster (Westfalen),Germany,51.96,7.63,342,24,DELFZIJL,53.33,6.93,159,,,,,,
745,München (Munich),Germany,48.14,11.57,1591,168,VENEZIA,45.43,12.33,307,,,,,,
746,Nurenberg,Germany,49.45,11.08,512,168,VENEZIA,45.43,12.33,457,,,,,,
747,Stuttgart,Germany,48.78,9.18,637,168,VENEZIA,45.43,12.33,443,,,,,,
748,Wuppertal,Germany,51.27,7.18,348,9,MAASSLUIS,51.92,4.25,215,,,,,,
749,Accra,Ghana,5.56,-0.2,2788,1049,TEMA,5.62,0.0,23,0.23,0.6,2.05,0.28,0.61,2.06
750,Kumasi,Ghana,6.69,-1.62,4036,331,TAKORADI,4.88,-1.75,202,,,,,,
751,Sekondi Takoradi,Ghana,4.93,-1.71,1160,331,TAKORADI,4.88,-1.75,7,0.32,0.67,2.13,0.28,0.61,2.07
752,Tamale,Ghana,9.4,-0.84,784,1049,TEMA,5.62,0.0,431,,,,,,
753,Athínai (Athens),Greece,37.95,23.75,3155,374,PIRAIEVS,37.94,23.63,11,-0.0,0.37,1.68,0.17,0.54,1.84
754,Thessaloniki,Greece,40.64,22.94,815,373,THESSALONIKI,40.63,22.93,2,0.28,0.65,1.94,0.15,0.52,1.8
755,Ciudad de Guatemala (Guatemala City),Guatemala,14.61,-90.53,3230,1011,ACAJUTLA,13.57,-89.83,139,,,,,,
756,Conakry,Guinea,9.57,-13.65,2252,1816,DAKAR_2,14.68,-17.42,701,,,,,,
757,Bissau,Guinea-Bissau,11.86,-15.6,709,1816,DAKAR_2,14.68,-17.42,370,,,,,,
758,Port-au-Prince,Haiti,18.54,-72.33,3133,418,GUANTANAMO_BAY,19.91,-75.15,333,,,,,,
759,San Pedro Sula,Honduras,15.5,-88.03,1034,557,PUERTO_CORTES,15.83,-87.95,38,0.57,0.97,2.49,0.28,0.62,2.13
760,Tegucigalpa,Honduras,14.08,-87.21,1650,558,LA_UNION,13.33,-87.82,107,,,,,,
761,Budapest,Hungary,47.5,19.04,1782,353,BAKAR,45.3,14.53,424,,,,,,
762,Agartala,India,23.84,91.28,670,1496,CHARCHANGA,22.22,91.05,181,,,,,,
763,Agra,India,27.18,78.02,2478,420,BHAUNAGAR_I,21.8,72.3,833,,,,,,
764,Ahmadabad,India,23.03,72.62,9062,420,BHAUNAGAR_I,21.8,72.3,141,,,,,,
765,Ahmadnagar,India,19.08,74.73,432,43,MUMBAI,18.92,72.83,201,,,,,,
766,Aizawl,India,23.72,92.72,415,1496,CHARCHANGA,22.22,91.05,239,,,,,,
767,Ajmer,India,26.45,74.63,665,420,BHAUNAGAR_I,21.8,72.3,569,,,,,,
768,Akola,India,20.73,77.0,481,43,MUMBAI,18.92,72.83,481,,,,,,
769,Aligarh,India,27.88,78.08,1380,420,BHAUNAGAR_I,21.8,72.3,894,,,,,,
770,Allahabad,India,25.45,81.85,1524,1002,TRIBENI,22.98,88.4,719,,,,,,
771,Alwar,India,27.56,76.62,482,420,BHAUNAGAR_I,21.8,72.3,776,,,,,,
772,Amravati,India,20.93,77.75,825,43,MUMBAI,18.92,72.83,562,,,,,,
773,Amritsar,India,31.63,74.88,1511,596,KANDLA,23.02,70.22,1063,,,,,,
774,Anand,India,22.57,72.93,420,420,BHAUNAGAR_I,21.8,72.3,107,,,,,,
775,Anantapur,India,14.68,77.6,510,205,CHENNAI,13.1,80.3,341,,,,,,
776,Arrah,India,25.56,84.67,370,1002,TRIBENI,22.98,88.4,475,,,,,,
777,Asansol,India,23.68,86.98,1565,1002,TRIBENI,22.98,88.4,165,,,,,,
778,Aurangabad,India,19.88,75.34,1767,43,MUMBAI,18.92,72.83,285,,,,,,
779,Baharampur,India,24.1,88.25,465,1002,TRIBENI,22.98,88.4,126,,,,,,
780,Bangalore,India,12.97,77.59,14395,205,CHENNAI,13.1,80.3,294,,,,,,
781,Barddhaman,India,23.24,87.87,458,1002,TRIBENI,22.98,88.4,62,1.64,2.01,3.43,0.17,0.5,1.92
782,Bareilly,India,28.35,79.42,1413,420,BHAUNAGAR_I,21.8,72.3,1022,,,,,,
783,Bathinda,India,30.2,74.95,415,596,KANDLA,23.02,70.22,927,,,,,,
784,Begusarai,India,25.42,86.13,587,1002,TRIBENI,22.98,88.4,356,,,,,,
785,Belgaum,India,15.85,74.5,800,1249,MORMUGAO,15.42,73.8,90,0.13,0.51,2.01,0.21,0.53,2.04
786,Bellary,India,15.15,76.93,586,1249,MORMUGAO,15.42,73.8,338,,,,,,
787,Bhagalpur,India,25.25,87.0,525,1002,TRIBENI,22.98,88.4,290,,,,,,
788,Bhavnagar,India,21.77,72.15,767,420,BHAUNAGAR_I,21.8,72.3,16,0.27,0.71,2.19,0.12,0.44,1.89
789,Bhilwara,India,25.35,74.63,507,420,BHAUNAGAR_I,21.8,72.3,461,,,,,,
790,Bhiwandi,India,19.3,73.07,944,43,MUMBAI,18.92,72.83,49,0.14,0.46,1.94,0.2,0.51,1.99
791,Bhopal,India,23.27,77.4,2686,420,BHAUNAGAR_I,21.8,72.3,549,,,,,,
792,Bhubaneswar,India,20.23,85.83,1321,1161,PARADIP,20.27,86.7,91,0.1,0.47,1.93,0.18,0.52,1.97
793,Bihar Sharif,India,25.18,85.52,419,1002,TRIBENI,22.98,88.4,382,,,,,,
794,Bijapur,India,16.82,75.72,465,1249,MORMUGAO,15.42,73.8,258,,,,,,
795,Bikaner,India,28.02,73.3,854,596,KANDLA,23.02,70.22,636,,,,,,
796,Bilaspur,India,22.08,82.15,682,414,VISAKHAPATNAM,17.68,83.28,504,,,,,,
797,Bokaro Steel City,India,23.66,86.15,688,1002,TRIBENI,22.98,88.4,242,,,,,,
798,Brahmapur,India,19.32,84.78,446,1161,PARADIP,20.27,86.7,227,,,,,,
799,Chandigarh,India,30.73,76.79,1266,596,KANDLA,23.02,70.22,1078,,,,,,
800,Chandrapur,India,19.95,79.3,380,414,VISAKHAPATNAM,17.68,83.28,490,,,,,,
801,Chennai (Madras),India,13.05,80.25,12336,205,CHENNAI,13.1,80.3,8,0.11,0.45,1.97,0.21,0.54,2.06
802,Cherthala,India,9.68,76.34,931,438,COCHIN,9.97,76.27,33,0.23,0.58,2.11,0.24,0.57,2.1
803,Coimbatore,India,10.99,76.96,3159,438,COCHIN,9.97,76.27,137,,,,,,
804,Cuttack,India,20.46,85.88,805,1161,PARADIP,20.27,86.7,88,0.1,0.47,1.93,0.18,0.52,1.97
805,Darbhanga,India,26.17,85.9,383,1002,TRIBENI,22.98,88.4,436,,,,,,
806,Davanagere,India,14.46,75.92,563,1423,MANGALORE,12.92,74.8,210,,,,,,
807,Dehradun,India,30.32,78.03,1041,420,BHAUNAGAR_I,21.8,72.3,1107,,,,,,
808,Delhi,India,28.67,77.22,34666,420,BHAUNAGAR_I,21.8,72.3,910,,,,,,
809,Deoghar,India,24.49,86.7,429,1002,TRIBENI,22.98,88.4,241,,,,,,
810,Dewas,India,22.97,76.07,396,420,BHAUNAGAR_I,21.8,72.3,409,,,,,,
811,Dhanbad,India,23.8,86.45,1442,1002,TRIBENI,22.98,88.4,219,,,,,,
812,Dhule,India,20.9,74.78,441,420,BHAUNAGAR_I,21.8,72.3,276,,,,,,
813,Dhulian,India,24.67,87.95,477,1002,TRIBENI,22.98,88.4,194,,,,,,
814,Dindigul,India,10.37,77.98,439,1072,TUTICORIN,8.75,78.2,182,,,,,,
815,Durgapur,India,23.52,87.31,741,1002,TRIBENI,22.98,88.4,127,,,,,,
816,Durg-Bhilainagar,India,21.19,81.28,1315,414,VISAKHAPATNAM,17.68,83.28,443,,,,,,
817,English Bazar,India,25.0,88.15,490,1002,TRIBENI,22.98,88.4,226,,,,,,
818,Erode,India,11.34,77.73,706,438,COCHIN,9.97,76.27,221,,,,,,
819,Farrukhabad,India,27.39,79.58,380,420,BHAUNAGAR_I,21.8,72.3,964,,,,,,
820,Firozabad,India,27.15,78.42,942,420,BHAUNAGAR_I,21.8,72.3,859,,,,,,
821,Gandhidham,India,23.07,70.14,466,596,KANDLA,23.02,70.22,10,0.11,0.46,1.9,0.14,0.46,1.9
822,Gaya,India,24.78,85.0,624,1002,TRIBENI,22.98,88.4,400,,,,,,
823,Gorakhpur,India,26.76,83.37,817,1002,TRIBENI,22.98,88.4,659,,,,,,
824,Gulbarga,India,17.33,76.83,752,1249,MORMUGAO,15.42,73.8,388,,,,,,
825,Guntur,India,16.3,80.45,962,414,VISAKHAPATNAM,17.68,83.28,338,,,,,,
826,Guwahati (Gauhati),India,26.17,91.75,1224,1496,CHARCHANGA,22.22,91.05,446,,,,,,
827,Gwalior,India,26.22,78.18,1544,420,BHAUNAGAR_I,21.8,72.3,774,,,,,,
828,Habra,India,22.83,88.63,382,1002,TRIBENI,22.98,88.4,28,1.64,2.01,3.43,0.17,0.5,1.92
829,Haldwani-cum-kathgodam,India,29.22,79.52,382,420,BHAUNAGAR_I,21.8,72.3,1098,,,,,,
830,Hapur,India,28.72,77.78,357,420,BHAUNAGAR_I,21.8,72.3,947,,,,,,
831,Hardwar,India,29.97,78.17,489,420,BHAUNAGAR_I,21.8,72.3,1082,,,,,,
832,Hisar,India,29.17,75.72,387,596,KANDLA,23.02,70.22,877,,,,,,
833,Hosur,India,12.72,77.82,646,205,CHENNAI,13.1,80.3,273,,,,,,
834,Hubli-Dharwad,India,15.46,75.01,1231,1249,MORMUGAO,15.42,73.8,130,,,,,,
835,Hyderabad,India,17.38,78.47,11338,414,VISAKHAPATNAM,17.68,83.28,511,,,,,,
836,Ichalkaranji,India,16.7,74.47,399,1249,MORMUGAO,15.42,73.8,159,,,,,,
837,Imphal,India,24.82,93.95,662,1496,CHARCHANGA,22.22,91.05,414,,,,,,
838,Indore,India,22.72,75.83,3483,420,BHAUNAGAR_I,21.8,72.3,378,,,,,,
839,Jabalpur,India,23.17,79.95,1582,414,VISAKHAPATNAM,17.68,83.28,703,,,,,,
840,Jaipur,India,26.92,75.82,4411,420,BHAUNAGAR_I,21.8,72.3,672,,,,,,
841,Jalandhar,India,31.33,75.58,1168,596,KANDLA,23.02,70.22,1066,,,,,,
842,Jalgaon,India,21.01,75.56,629,420,BHAUNAGAR_I,21.8,72.3,350,,,,,,
843,Jalna,India,19.83,75.88,376,43,MUMBAI,18.92,72.83,336,,,,,,
844,Jammu,India,32.73,74.86,752,204,KARACHI,24.81,66.97,1169,,,,,,
845,Jamnagar,India,22.47,70.07,691,596,KANDLA,23.02,70.22,64,0.11,0.46,1.9,0.14,0.46,1.9
846,Jamshedpur,India,22.8,86.18,1768,1369,GANGRA,21.95,88.02,211,,,,,,
847,Jhansi,India,25.43,78.58,707,420,BHAUNAGAR_I,21.8,72.3,758,,,,,,
848,Jodhpur,India,26.24,73.02,1664,596,KANDLA,23.02,70.22,457,,,,,,
849,Junagadh,India,21.52,70.47,444,596,KANDLA,23.02,70.22,169,,,,,,
850,Kadapa,India,14.47,78.82,500,205,CHENNAI,13.1,80.3,221,,,,,,
851,Kakinada,India,16.93,82.22,564,414,VISAKHAPATNAM,17.68,83.28,140,,,,,,
852,Kanhangad,India,12.31,75.11,399,696,MANGALORE,12.85,74.83,67,-0.0,0.44,1.97,0.23,0.55,2.06
853,Kannur,India,11.87,75.37,2465,696,MANGALORE,12.85,74.83,124,,,,,,
854,Kanpur,India,26.47,80.35,3345,1002,TRIBENI,22.98,88.4,901,,,,,,
855,Karimnagar,India,18.43,79.15,451,414,VISAKHAPATNAM,17.68,83.28,445,,,,,,
856,Karnal,India,29.68,76.98,459,420,BHAUNAGAR_I,21.8,72.3,995,,,,,,
857,Karur,India,10.96,78.08,406,438,COCHIN,9.97,76.27,227,,,,,,
858,Kayamkulam,India,9.17,76.5,839,438,COCHIN,9.97,76.27,93,0.23,0.58,2.11,0.24,0.57,2.1
859,Khammam,India,17.25,80.15,383,414,VISAKHAPATNAM,17.68,83.28,336,,,,,,
860,Kharagpur,India,22.33,87.32,352,1369,GANGRA,21.95,88.02,84,0.14,0.54,1.98,0.18,0.51,1.94
861,Kochi (Cochin),India,9.93,76.26,3605,438,COCHIN,9.97,76.27,5,0.23,0.58,2.11,0.24,0.57,2.1
862,Kolhapur,India,16.7,74.23,669,1249,MORMUGAO,15.42,73.8,149,,,,,,
863,Kolkata (Calcutta),India,22.53,88.36,15845,48,KIDDERPORE,22.53,88.33,3,-0.33,0.04,1.47,0.17,0.5,1.93
864,Kollam,India,8.88,76.59,2252,438,COCHIN,9.97,76.27,126,,,,,,
865,Korba,India,22.35,82.68,456,1161,PARADIP,20.27,86.7,477,,,,,,
866,Kota,India,25.17,75.86,1599,420,BHAUNAGAR_I,21.8,72.3,522,,,,,,
867,Kottayam,India,9.58,76.52,885,438,COCHIN,9.97,76.27,51,0.23,0.58,2.11,0.24,0.57,2.1
868,Kozhikode (Calicut),India,11.26,75.78,4387,438,COCHIN,9.97,76.27,153,,,,,,
869,Kurnool,India,15.83,78.04,765,205,CHENNAI,13.1,80.3,389,,,,,,
870,Latur,India,18.4,76.58,537,43,MUMBAI,18.92,72.83,400,,,,,,
871,Lucknow,India,26.85,80.92,4133,1002,TRIBENI,22.98,88.4,869,,,,,,
872,Ludhiana,India,30.9,75.85,2029,596,KANDLA,23.02,70.22,1039,,,,,,
873,Madurai,India,9.93,78.12,1912,1072,TUTICORIN,8.75,78.2,132,,,,,,
874,Malappuram,India,11.07,76.07,4344,438,COCHIN,9.97,76.27,124,,,,,,
875,Malegaon,India,20.55,74.53,800,43,MUMBAI,18.92,72.83,255,,,,,,
876,Mangalore,India,12.92,74.86,779,1423,MANGALORE,12.92,74.8,6,0.11,0.52,2.03,0.23,0.55,2.06
877,Mathura,India,27.5,77.68,665,420,BHAUNAGAR_I,21.8,72.3,836,,,,,,
878,Maunath Bhanjan,India,25.95,83.56,403,1002,TRIBENI,22.98,88.4,591,,,,,,
879,Meerut,India,28.97,77.72,1875,420,BHAUNAGAR_I,21.8,72.3,966,,,,,,
880,Moradabad,India,28.83,78.78,1370,420,BHAUNAGAR_I,21.8,72.3,1019,,,,,,
881,Morvi,India,22.82,70.83,399,596,KANDLA,23.02,70.22,67,0.11,0.46,1.9,0.14,0.46,1.9
882,Mumbai (Bombay),India,19.07,72.88,22089,43,MUMBAI,18.92,72.83,18,0.14,0.46,1.94,0.2,0.51,1.99
883,Muzaffarnagar,India,29.47,77.68,837,420,BHAUNAGAR_I,21.8,72.3,1010,,,,,,
884,Muzaffarpur,India,26.12,85.4,567,1002,TRIBENI,22.98,88.4,463,,,,,,
885,Mysore,India,12.3,76.64,1346,696,MANGALORE,12.85,74.83,206,,,,,,
886,Nagpur,India,21.15,79.1,3170,414,VISAKHAPATNAM,17.68,83.28,585,,,,,,
887,Nanded Waghala,India,19.16,77.31,773,43,MUMBAI,18.92,72.83,473,,,,,,
888,Nashik,India,19.98,73.8,2351,43,MUMBAI,18.92,72.83,156,,,,,,
889,Navsari,India,20.95,72.93,375,420,BHAUNAGAR_I,21.8,72.3,115,,,,,,
890,Nellore,India,14.45,79.98,859,205,CHENNAI,13.1,80.3,154,,,,,,
891,Nizamabad,India,18.67,78.1,357,43,MUMBAI,18.92,72.83,556,,,,,,
892,Ottappalam,India,10.77,76.38,465,438,COCHIN,9.97,76.27,90,0.23,0.58,2.11,0.24,0.57,2.1
893,Palakkad,India,10.77,76.65,412,438,COCHIN,9.97,76.27,99,0.23,0.58,2.11,0.24,0.57,2.1
894,Panipat,India,29.39,76.97,611,420,BHAUNAGAR_I,21.8,72.3,966,,,,,,
895,Parbhani,India,19.27,76.78,394,43,MUMBAI,18.92,72.83,418,,,,,,
896,Patiala,India,30.33,76.4,685,596,KANDLA,23.02,70.22,1019,,,,,,
897,Patna,India,25.6,85.12,2690,1002,TRIBENI,22.98,88.4,443,,,,,,
898,Puducherry,India,11.93,79.83,941,205,CHENNAI,13.1,80.3,140,,,,,,
899,Pune (Poona),India,18.52,73.86,7526,43,MUMBAI,18.92,72.83,118,,,,,,
900,Purnia,India,25.78,87.47,566,1002,TRIBENI,22.98,88.4,326,,,,,,
901,Raipur,India,21.23,81.63,1923,414,VISAKHAPATNAM,17.68,83.28,432,,,,,,
902,Rajahmundry,India,17.0,81.79,593,414,VISAKHAPATNAM,17.68,83.28,175,,,,,,
903,Rajkot,India,22.3,70.78,2150,596,KANDLA,23.02,70.22,99,0.11,0.46,1.9,0.14,0.46,1.9
904,Rampur,India,28.81,79.03,474,420,BHAUNAGAR_I,21.8,72.3,1032,,,,,,
905,Ranchi,India,23.35,85.33,1622,1002,TRIBENI,22.98,88.4,317,,,,,,
906,Raniganj,India,23.62,87.13,508,1002,TRIBENI,22.98,88.4,148,,,,,,
907,Ranipet,India,12.93,79.33,407,205,CHENNAI,13.1,80.3,107,,,,,,
908,Ratlam,India,23.32,75.07,346,420,BHAUNAGAR_I,21.8,72.3,331,,,,,,
909,Raurkela,India,22.22,84.86,677,1161,PARADIP,20.27,86.7,289,,,,,,
910,Rohtak,India,28.9,76.57,522,420,BHAUNAGAR_I,21.8,72.3,899,,,,,,
911,Roorkee,India,29.87,77.88,416,420,BHAUNAGAR_I,21.8,72.3,1058,,,,,,
912,Sagar,India,23.84,78.74,482,420,BHAUNAGAR_I,21.8,72.3,698,,,,,,
913,Saharanpur,India,29.97,77.55,1242,420,BHAUNAGAR_I,21.8,72.3,1050,,,,,,
914,Salem,India,11.65,78.17,1221,438,COCHIN,9.97,76.27,279,,,,,,
915,Sangli,India,16.85,74.56,636,1249,MORMUGAO,15.42,73.8,179,,,,,,
916,Santipur,India,23.25,88.43,412,1002,TRIBENI,22.98,88.4,30,1.64,2.01,3.43,0.17,0.5,1.92
917,Satna,India,24.58,80.83,381,1161,PARADIP,20.27,86.7,771,,,,,,
918,Shahjahanpur,India,27.88,79.92,401,1002,TRIBENI,22.98,88.4,1012,,,,,,
919,Shillong,India,25.57,91.88,520,1496,CHARCHANGA,22.22,91.05,382,,,,,,
920,Shimoga,India,13.93,75.57,411,1423,MANGALORE,12.92,74.8,140,,,,,,
921,Siliguri,India,26.72,88.42,1191,1002,TRIBENI,22.98,88.4,416,,,,,,
922,Solapur,India,17.68,75.92,1108,1249,MORMUGAO,15.42,73.8,338,,,,,,
923,Srinagar,India,34.08,74.8,1778,204,KARACHI,24.81,66.97,1280,,,,,,
924,Surat,India,21.17,72.83,8582,420,BHAUNAGAR_I,21.8,72.3,90,0.27,0.71,2.19,0.12,0.44,1.89
925,Thanjavur,India,10.8,79.15,369,1072,TUTICORIN,8.75,78.2,251,,,,,,
926,Thiruvananthapuram,India,8.51,76.96,3073,1072,TUTICORIN,8.75,78.2,139,,,,,,
927,Thoothukkudi (Tuticorin),India,8.81,78.14,644,1072,TUTICORIN,8.75,78.2,10,0.07,0.46,2.0,0.24,0.57,2.11
928,Thrissur,India,10.52,76.22,3720,438,COCHIN,9.97,76.27,61,0.23,0.58,2.11,0.24,0.57,2.1
929,Tiruchirappalli,India,10.8,78.69,1270,1072,TUTICORIN,8.75,78.2,235,,,,,,
930,Tirunelveli,India,8.73,77.7,616,1072,TUTICORIN,8.75,78.2,55,0.07,0.46,2.0,0.24,0.57,2.11
931,Tirupati,India,13.65,79.42,797,205,CHENNAI,13.1,80.3,114,,,,,,
932,Tiruppur,India,11.12,77.35,1784,438,COCHIN,9.97,76.27,174,,,,,,
933,Tumkur,India,13.34,77.1,399,696,MANGALORE,12.85,74.83,252,,,,,,
934,Udaipur,India,24.57,73.69,630,420,BHAUNAGAR_I,21.8,72.3,339,,,,,,
935,Ujjain,India,23.18,75.77,668,420,BHAUNAGAR_I,21.8,72.3,388,,,,,,
936,Vadodara,India,22.3,73.2,2425,420,BHAUNAGAR_I,21.8,72.3,108,,,,,,
937,Varanasi (Benares),India,25.32,82.98,1826,1002,TRIBENI,22.98,88.4,609,,,,,,
938,Vellore,India,12.93,79.13,626,205,CHENNAI,13.1,80.3,128,,,,,,
939,Vijayawada,India,16.52,80.62,2351,414,VISAKHAPATNAM,17.68,83.28,312,,,,,,
940,Visakhapatnam,India,17.68,83.21,2440,414,VISAKHAPATNAM,17.68,83.28,7,0.08,0.43,1.91,0.18,0.51,1.99
941,Warangal,India,18.0,79.58,1080,414,VISAKHAPATNAM,17.68,83.28,393,,,,,,
942,Yamunanagar,India,30.1,77.28,496,420,BHAUNAGAR_I,21.8,72.3,1050,,,,,,
943,Ambon,Indonesia,-3.7,128.18,604,935,DARWIN,-12.47,130.85,1020,,,,,,
944,Balikpapan,Indonesia,-1.27,116.83,754,1734,TAWAU,4.23,117.88,623,,,,,,
945,Bandar Lampung,Indonesia,-5.43,105.26,1210,1351,RAFFLES_LIGHT_HOUSE,1.17,103.75,753,,,,,,
946,Bandung,Indonesia,-6.92,107.61,2758,1351,RAFFLES_LIGHT_HOUSE,1.17,103.75,997,,,,,,
947,Banjarmasin,Indonesia,-3.32,114.59,800,1833,BINTULU,3.26,113.06,752,,,,,,
948,Batam,Indonesia,1.12,104.03,1859,1746,TANJONG_PAGAR,1.27,103.85,26,0.12,0.54,2.09,0.25,0.59,2.12
949,Bekasi,Indonesia,-6.24,106.98,3926,1351,RAFFLES_LIGHT_HOUSE,1.17,103.75,899,,,,,,
950,Bengkulu,Indonesia,-3.8,102.27,451,1351,RAFFLES_LIGHT_HOUSE,1.17,103.75,577,,,,,,
951,Bogor,Indonesia,-6.61,106.8,1281,1351,RAFFLES_LIGHT_HOUSE,1.17,103.75,930,,,,,,
952,Cirebon,Indonesia,-6.71,108.56,342,1351,RAFFLES_LIGHT_HOUSE,1.17,103.75,1027,,,,,,
953,Denpasar,Indonesia,-8.65,115.22,1097,1159,BROOME,-18.0,122.22,1287,,,,,,
954,Depok,Indonesia,-6.4,106.79,3218,1351,RAFFLES_LIGHT_HOUSE,1.17,103.75,908,,,,,,
955,Jakarta,Indonesia,-6.21,106.84,11634,1351,RAFFLES_LIGHT_HOUSE,1.17,103.75,891,,,,,,
956,Jambi,Indonesia,-1.6,103.62,685,1351,RAFFLES_LIGHT_HOUSE,1.17,103.75,309,,,,,,
957,Jayapura,Indonesia,-2.68,140.8,347,1860,LOMBRUM,-2.04,147.37,734,,,,,,
958,Makassar (Ujung Pandang),Indonesia,-5.14,119.42,1737,1734,TAWAU,4.23,117.88,1058,,,,,,
959,Malang,Indonesia,-7.98,112.63,949,1833,BINTULU,3.26,113.06,1252,,,,,,
960,Manado,Indonesia,1.49,124.85,474,537,DAVAO,7.08,125.63,629,,,,,,
961,Mataram,Indonesia,-8.58,116.12,562,1159,BROOME,-18.0,122.22,1239,,,,,,
962,Medan,Indonesia,3.58,98.67,2522,1594,LUMUT,4.24,100.61,228,,,,,,
963,Padang,Indonesia,-0.95,100.35,1073,1593,TANJUNG_KELING,2.21,102.15,404,,,,,,
964,Palembang,Indonesia,-2.92,104.75,1888,1351,RAFFLES_LIGHT_HOUSE,1.17,103.75,468,,,,,,
965,Pekalongan,Indonesia,-6.89,109.67,338,1351,RAFFLES_LIGHT_HOUSE,1.17,103.75,1112,,,,,,
966,Pekan Baru,Indonesia,0.53,101.45,1365,1593,TANJUNG_KELING,2.21,102.15,202,,,,,,
967,Pontianak,Indonesia,-0.03,109.33,735,1833,BINTULU,3.26,113.06,553,,,,,,
968,Samarinda,Indonesia,-0.49,117.14,1155,1734,TAWAU,4.23,117.88,532,,,,,,
969,Semarang,Indonesia,-6.99,110.42,2052,1351,RAFFLES_LIGHT_HOUSE,1.17,103.75,1172,,,,,,
970,Sukabumi,Indonesia,-6.92,106.93,369,1351,RAFFLES_LIGHT_HOUSE,1.17,103.75,967,,,,,,
971,Surabaya,Indonesia,-7.29,112.74,3138,1833,BINTULU,3.26,113.06,1175,,,,,,
972,Surakarta,Indonesia,-7.56,110.83,561,1833,BINTULU,3.26,113.06,1229,,,,,,
973,Tangerang,Indonesia,-6.2,106.65,2627,1351,RAFFLES_LIGHT_HOUSE,1.17,103.75,882,,,,,,
974,Tasikmalaya,Indonesia,-7.35,108.22,1298,1351,RAFFLES_LIGHT_HOUSE,1.17,103.75,1070,,,,,,
975,Yogyakarta,Indonesia,-7.78,110.36,476,1351,RAFFLES_LIGHT_HOUSE,1.17,103.75,1238,,,,,,
976,Ahvaz,Iran (Islamic Republic of),31.32,48.67,1325,51,BATUMI,41.63,41.7,1305,,,,,,
977,Arak,Iran (Islamic Republic of),34.09,49.69,590,51,BATUMI,41.63,41.7,1093,,,,,,
978,Ardabil,Iran (Islamic Republic of),38.25,48.29,614,51,BATUMI,41.63,41.7,677,,,,,,
979,Bandar Abbas,Iran (Islamic Republic of),27.19,56.28,691,1887,MASIRAH,20.68,58.87,771,,,,,,
980,Esfahan,Iran (Islamic Republic of),32.66,51.68,2328,51,BATUMI,41.63,41.7,1333,,,,,,
981,Eslamshahr,Iran (Islamic Republic of),35.56,51.24,553,51,BATUMI,41.63,41.7,1069,,,,,,
982,Gorgan,Iran (Islamic Republic of),36.84,54.44,392,51,BATUMI,41.63,41.7,1220,,,,,,
983,Hamadan,Iran (Islamic Republic of),34.8,48.51,612,51,BATUMI,41.63,41.7,965,,,,,,
984,Karaj,Iran (Islamic Republic of),35.84,51.01,1615,51,BATUMI,41.63,41.7,1033,,,,,,
985,Kashan,Iran (Islamic Republic of),33.98,51.44,357,51,BATUMI,41.63,41.7,1206,,,,,,
986,Kerman,Iran (Islamic Republic of),30.28,57.08,559,1887,MASIRAH,20.68,58.87,1084,,,,,,
987,Kermanshah,Iran (Islamic Republic of),34.31,47.06,1117,51,BATUMI,41.63,41.7,940,,,,,,
988,Khorramabad,Iran (Islamic Republic of),33.49,48.36,421,51,BATUMI,41.63,41.7,1079,,,,,,
989,Mashhad,Iran (Islamic Republic of),36.3,59.61,3461,204,KARACHI,24.81,66.97,1459,,,,,,
990,Orumiyeh,Iran (Islamic Republic of),37.55,45.08,860,51,BATUMI,41.63,41.7,538,,,,,,
991,Qazvin,Iran (Islamic Republic of),36.27,50.0,445,51,BATUMI,41.63,41.7,934,,,,,,
992,Qods,Iran (Islamic Republic of),35.71,51.11,357,51,BATUMI,41.63,41.7,1049,,,,,,
993,Qom,Iran (Islamic Republic of),34.64,50.88,1392,51,BATUMI,41.63,41.7,1117,,,,,,
994,Rasht,Iran (Islamic Republic of),37.28,49.58,758,51,BATUMI,41.63,41.7,832,,,,,,
995,Sanandaj,Iran (Islamic Republic of),35.31,46.99,483,51,BATUMI,41.63,41.7,840,,,,,,
996,Sari,Iran (Islamic Republic of),36.56,53.06,338,51,BATUMI,41.63,41.7,1131,,,,,,
997,Shahriyar,Iran (Islamic Republic of),35.66,51.06,420,51,BATUMI,41.63,41.7,1050,,,,,,
998,Shiraz,Iran (Islamic Republic of),29.6,52.54,1764,1887,MASIRAH,20.68,58.87,1180,,,,,,
999,Tabriz,Iran (Islamic Republic of),38.08,46.29,1696,51,BATUMI,41.63,41.7,557,,,,,,
1000,Tehran,Iran (Islamic Republic of),35.69,51.42,9730,51,BATUMI,41.63,41.7,1071,,,,,,
1001,Yazd,Iran (Islamic Republic of),31.9,54.37,609,1887,MASIRAH,20.68,58.87,1327,,,,,,
1002,Zahedan,Iran (Islamic Republic of),29.5,60.86,644,204,KARACHI,24.81,66.97,799,,,,,,
1003,Zanjan,Iran (Islamic Republic of),36.67,48.48,510,51,BATUMI,41.63,41.7,804,,,,,,
1004,Al-Basrah (Basra),Iraq,30.5,47.81,1525,1797,HADERA,32.47,34.86,1248,,,,,,
1005,Al-Mawsil (Mosul),Iraq,36.34,43.12,1904,51,BATUMI,41.63,41.7,602,,,,,,
1006,Amara,Iraq,31.83,47.15,778,1797,HADERA,32.47,34.86,1160,,,,,,
1007,Baaqoobah,Iraq,33.75,44.64,377,51,BATUMI,41.63,41.7,914,,,,,,
1008,Baghdad,Iraq,33.34,44.4,8141,1797,HADERA,32.47,34.86,897,,,,,,
1009,Diwaniyah,Iraq,31.99,44.93,611,1797,HADERA,32.47,34.86,949,,,,,,
1010,Faloojah,Iraq,33.36,43.79,386,1797,HADERA,32.47,34.86,840,,,,,,
1011,Hillah,Iraq,32.48,44.43,673,1797,HADERA,32.47,34.86,899,,,,,,
1012,Irbil (Erbil),Iraq,36.19,44.01,941,51,BATUMI,41.63,41.7,637,,,,,,
1013,Karbala,Iraq,32.6,44.02,618,1797,HADERA,32.47,34.86,860,,,,,,
1014,Kirkuk,Iraq,35.47,44.39,1128,51,BATUMI,41.63,41.7,725,,,,,,
1015,Kut,Iraq,32.5,45.83,525,1797,HADERA,32.47,34.86,1030,,,,,,
1016,Najaf,Iraq,32.0,44.33,1018,1797,HADERA,32.47,34.86,893,,,,,,
1017,Nasiriyah,Iraq,31.03,46.27,711,1797,HADERA,32.47,34.86,1091,,,,,,
1018,Ramadi,Iraq,33.42,43.3,504,1797,HADERA,32.47,34.86,795,,,,,,
1019,Samarra,Iraq,34.2,43.87,347,51,BATUMI,41.63,41.7,849,,,,,,
1020,Sulaimaniya,Iraq,35.56,45.44,847,51,BATUMI,41.63,41.7,750,,,,,,
1021,Dublin,Ireland,53.33,-6.25,1299,432,DUBLIN,53.35,-6.22,3,0.1,0.52,1.74,0.12,0.54,1.76
1022,Be'er Sheva,Israel,31.25,34.79,676,1797,HADERA,32.47,34.86,136,,,,,,
1023,Hefa (Haifa),Israel,32.81,34.99,1200,1797,HADERA,32.47,34.86,40,0.17,0.57,1.94,0.19,0.55,1.91
1024,Jerusalem,Israel,31.77,35.22,997,1797,HADERA,32.47,34.86,85,0.17,0.57,1.94,0.19,0.55,1.91
1025,Tel Aviv-Yafo (Tel Aviv-Jaffa),Israel,32.08,34.78,4569,1797,HADERA,32.47,34.86,44,0.17,0.57,1.94,0.19,0.55,1.91
1026,Bari,Italy,41.12,16.85,626,760,DUBROVNIK,42.66,18.06,199,,,,,,
1027,Barletta,Italy,41.31,16.29,343,129,NAPOLI,40.87,14.27,177,,,,,,
1028,Bergamo,Italy,45.7,9.67,923,59,GENOVA,44.4,8.9,157,,,,,,
1029,Bologna,Italy,44.49,11.34,819,39,VENEZIA,45.42,12.33,129,,,,,,
1030,Brescia,Italy,45.52,10.23,496,59,GENOVA,44.4,8.9,163,,,,,,
1031,Busto Arsizio,Italy,45.61,8.85,669,59,GENOVA,44.4,8.9,135,,,,,,
1032,Cagliari,Italy,39.21,9.13,479,104,CAGLIARI,39.2,9.17,3,0.19,0.57,1.89,0.21,0.57,1.88
1033,Caserta,Italy,41.08,14.33,433,129,NAPOLI,40.87,14.27,24,0.15,0.51,1.81,0.19,0.55,1.84
1034,Catania,Italy,37.5,15.09,589,107,PALERMO,38.13,13.33,170,,,,,,
1035,Como,Italy,45.81,9.09,493,59,GENOVA,44.4,8.9,158,,,,,,
1036,Firenze (Florence),Italy,43.77,11.25,714,106,CIVITAVECCHIA,42.05,11.82,197,,,,,,
1037,Genova (Genoa),Italy,44.41,8.93,674,59,GENOVA,44.4,8.9,3,0.15,0.51,1.77,0.17,0.53,1.78
1038,Latina,Italy,41.47,12.9,467,106,CIVITAVECCHIA,42.05,11.82,111,,,,,,
1039,Lecco,Italy,45.85,9.39,314,59,GENOVA,44.4,8.9,166,,,,,,
1040,Milano (Milan),Italy,45.55,9.18,3167,59,GENOVA,44.4,8.9,130,,,,,,
1041,Modena,Italy,44.65,10.93,364,39,VENEZIA,45.42,12.33,140,,,,,,
1042,Napoli (Naples),Italy,40.85,14.26,2182,105,NAPOLI,40.84,14.26,1,0.15,0.51,1.81,0.19,0.55,1.84
1043,Nola,Italy,40.92,14.53,330,129,NAPOLI,40.87,14.27,23,0.15,0.51,1.81,0.19,0.55,1.84
1044,Padova,Italy,45.42,11.88,700,39,VENEZIA,45.42,12.33,35,0.23,0.59,1.83,0.15,0.5,1.75
1045,Palermo,Italy,38.12,13.36,851,107,PALERMO,38.13,13.33,3,0.13,0.51,1.84,0.21,0.57,1.89
1046,Parma,Italy,44.8,10.33,336,59,GENOVA,44.4,8.9,122,,,,,,
1047,Pescara,Italy,42.46,14.21,385,129,NAPOLI,40.87,14.27,177,,,,,,
1048,Reggio Emilia,Italy,44.7,10.63,380,59,GENOVA,44.4,8.9,141,,,,,,
1049,Roma (Rome),Italy,41.89,12.48,4347,106,CIVITAVECCHIA,42.05,11.82,57,0.11,0.48,1.78,0.19,0.55,1.84
1050,Salerno,Italy,40.68,14.77,423,105,NAPOLI,40.84,14.26,46,0.15,0.51,1.81,0.19,0.55,1.84
1051,Seregno,Italy,45.65,9.2,639,59,GENOVA,44.4,8.9,141,,,,,,
1052,Taranto,Italy,40.46,17.26,462,1075,BAR,42.08,19.08,236,,,,,,
1053,Torino (Turin),Italy,45.07,7.68,1810,59,GENOVA,44.4,8.9,122,,,,,,
1054,Treviso,Italy,45.67,12.24,386,168,VENEZIA,45.43,12.33,27,0.23,0.59,1.84,0.15,0.5,1.75
1055,Venezia,Italy,45.44,12.34,643,168,VENEZIA,45.43,12.33,1,0.23,0.59,1.84,0.15,0.5,1.75
1056,Verona,Italy,45.43,11.0,644,168,VENEZIA,45.43,12.33,104,,,,,,
1057,Vicenza,Italy,45.56,11.54,334,168,VENEZIA,45.43,12.33,63,0.23,0.59,1.84,0.15,0.5,1.75
1058,Kingston,Jamaica,18.0,-76.79,604,1910,CABO_CRUZ,19.83,-77.73,227,,,,,,
1059,Akita,Japan,39.72,140.12,296,1264,OGA,39.94,139.71,43,0.04,0.39,1.99,0.27,0.61,2.21
1060,Asahikawa,Japan,43.77,142.37,320,772,MONBETU_I,44.35,143.37,103,,,,,,
1061,Chukyo M.M.A. (Nagoya),Japan,35.18,136.91,9535,1488,NAGOYA_II,35.09,136.88,10,-0.09,0.28,1.87,0.26,0.62,2.22
1062,Fukuyama,Japan,34.48,133.37,460,812,UNO,34.49,133.95,54,0.52,0.88,2.46,0.27,0.62,2.2
1063,Hiroshima,Japan,34.39,132.46,2058,1028,HIROSIMA,34.35,132.46,5,0.45,0.81,2.38,0.27,0.62,2.19
1064,Iwaki,Japan,37.05,140.88,354,635,ONAHAMA,36.94,140.89,12,-0.04,0.35,2.01,0.23,0.62,2.27
1065,Kagoshima,Japan,31.57,130.55,579,1265,AKUNE,32.02,130.19,60,0.14,0.52,2.1,0.26,0.63,2.22
1066,Kanazawa,Japan,36.56,136.64,461,1190,MIKUNI,36.25,136.15,56,0.42,0.78,2.36,0.27,0.62,2.2
1067,Kinki M.M.A. (Osaka),Japan,34.68,135.55,18922,1099,OSAKA,34.66,135.43,11,0.54,0.9,2.49,0.27,0.62,2.21
1068,Kitakyushu-Fukuoka M.M.A.,Japan,33.61,130.42,5466,1094,HAKATA,33.62,130.41,2,0.23,0.59,2.15,0.26,0.61,2.19
1069,Kochi,Japan,33.56,133.53,320,1567,KOCHI_III,33.5,133.57,8,0.1,0.49,2.08,0.25,0.62,2.21
1070,Koriyama,Japan,37.4,140.38,324,635,ONAHAMA,36.94,140.89,68,-0.04,0.35,2.01,0.23,0.62,2.27
1071,Kumamoto,Japan,32.79,130.74,735,810,MISUMI,32.62,130.45,33,0.32,0.69,2.27,0.26,0.62,2.2
1072,Kurashiki,Japan,34.58,133.77,470,812,UNO,34.49,133.95,20,0.52,0.88,2.46,0.27,0.62,2.2
1073,Kurume,Japan,33.32,130.52,302,1094,HAKATA,33.62,130.41,35,0.23,0.59,2.15,0.26,0.61,2.19
1074,Maebashi,Japan,36.38,139.07,323,1545,TOKYO_III,35.65,139.77,103,,,,,,
1075,Matsuyama,Japan,33.83,132.76,502,1062,MATSUYAMA_II,33.86,132.71,6,0.04,0.41,1.99,0.26,0.62,2.2
1076,Miyazaki,Japan,31.92,131.43,395,814,ABURATSU,31.58,131.41,37,0.24,0.63,2.22,0.25,0.64,2.23
1077,Nagano,Japan,36.65,138.18,364,753,KASHIWAZAKI,37.36,138.51,84,0.18,0.52,2.12,0.28,0.61,2.21
1078,Nagasaki,Japan,32.75,129.88,397,1100,NAGASAKI,32.73,129.87,2,0.26,0.62,2.2,0.26,0.62,2.2
1079,Naha,Japan,26.21,127.69,318,1151,NAHA,26.21,127.67,2,0.24,0.66,2.25,0.24,0.64,2.24
1080,Niigata,Japan,37.91,139.03,794,1093,AWA_SIMA,38.47,139.25,65,0.47,0.81,2.41,0.27,0.61,2.21
1081,Oita,Japan,33.24,131.61,474,1293,OITA_II,33.27,131.69,8,0.17,0.54,2.11,0.26,0.62,2.2
1082,Okayama,Japan,34.65,133.91,719,812,UNO,34.49,133.95,18,0.52,0.88,2.46,0.27,0.62,2.2
1083,Sapporo,Japan,43.06,141.35,2654,159,OSHORO_I,43.22,140.87,42,0.15,0.5,2.07,0.26,0.57,2.14
1084,Sendai,Japan,38.26,140.9,2338,1345,SOMA,37.83,140.96,48,0.6,1.01,2.66,0.22,0.61,2.26
1085,Shizuoka-Hamamatsu M.M.A.,Japan,34.98,138.38,2930,1438,YAIZU,34.87,138.33,13,0.53,0.92,2.53,0.25,0.63,2.24
1086,Takamatsu,Japan,34.33,134.06,415,1789,TAKAMATSU_II,34.35,134.06,2,0.23,0.6,2.19,0.26,0.62,2.2
1087,Takasaki,Japan,36.33,139.02,364,1545,TOKYO_III,35.65,139.77,102,,,,,,
1088,Tokyo,Japan,35.69,139.69,37036,1545,TOKYO_III,35.65,139.77,8,0.06,0.45,2.07,0.25,0.62,2.25
1089,Toyama,Japan,36.69,137.22,406,1389,TOYAMA,36.76,137.22,8,0.34,0.69,2.28,0.27,0.61,2.2
1090,Toyohashi,Japan,34.77,137.38,365,1089,MAISAKA,34.68,137.61,23,-0.01,0.36,1.97,0.25,0.62,2.24
1091,Utsunomiya,Japan,36.57,139.88,518,635,ONAHAMA,36.94,140.89,99,-0.04,0.35,2.01,0.23,0.62,2.27
1092,Al-Quwaysimah,Jordan,31.92,35.95,431,1797,HADERA,32.47,34.86,120,,,,,,
1093,Amman,Jordan,31.96,35.95,2273,1797,HADERA,32.47,34.86,117,,,,,,
1094,Ar-Rusayfah,Jordan,32.02,36.04,533,1797,HADERA,32.47,34.86,122,,,,,,
1095,Irbid,Jordan,32.56,35.85,567,1797,HADERA,32.47,34.86,93,0.17,0.57,1.94,0.19,0.55,1.91
1096,Tila al-Ali,Jordan,31.99,35.86,368,1797,HADERA,32.47,34.86,108,,,,,,
1097,Zarqa,Jordan,32.07,36.09,759,1797,HADERA,32.47,34.86,124,,,,,,
1098,Aktyubinsk,Kazakhstan,50.29,57.16,453,41,POTI,42.17,41.68,1491,,,,,,
1099,Almaty,Kazakhstan,43.25,76.91,2042,204,KARACHI,24.81,66.97,2244,,,,,,
1100,Astana,Kazakhstan,51.18,71.45,1353,1128,ANTIPAIUTA,69.08,76.85,2013,,,,,,
1101,Karaganda,Kazakhstan,49.8,73.1,515,1128,ANTIPAIUTA,69.08,76.85,2156,,,,,,
1102,Pavlodar,Kazakhstan,52.3,76.95,339,1128,ANTIPAIUTA,69.08,76.85,1868,,,,,,
1103,Semipalatinsk,Kazakhstan,50.43,80.27,326,1128,ANTIPAIUTA,69.08,76.85,2084,,,,,,
1104,Shimkent,Kazakhstan,42.3,69.6,1204,204,KARACHI,24.81,66.97,1962,,,,,,
1105,Taraz,Kazakhstan,42.9,71.37,377,204,KARACHI,24.81,66.97,2054,,,,,,
1106,Ust-Kamenogorsk,Kazakhstan,49.96,82.61,333,1128,ANTIPAIUTA,69.08,76.85,2150,,,,,,
1107,Eldoret,Kenya,0.52,35.27,484,2198,LAMU_B,-2.27,40.9,699,,,,,,
1108,Kisumu,Kenya,-0.1,34.76,422,2183,MOMBASA_II,-4.07,39.65,700,,,,,,
1109,Mombasa,Kenya,-4.05,39.66,1553,2183,MOMBASA_II,-4.07,39.65,2,0.23,0.6,2.07,0.27,0.6,2.07
1110,Nairobi,Kenya,-1.28,36.82,5767,2183,MOMBASA_II,-4.07,39.65,442,,,,,,
1111,Nakuru,Kenya,-0.28,36.07,453,2183,MOMBASA_II,-4.07,39.65,580,,,,,,
1112,Ruiru,Kenya,-1.15,36.95,485,2183,MOMBASA_II,-4.07,39.65,442,,,,,,
1113,Al Kuwayt (Kuwait City),Kuwait,29.37,47.98,3405,1797,HADERA,32.47,34.86,1298,,,,,,
1114,Bishkek,Kyrgyzstan,42.87,74.59,1151,204,KARACHI,24.81,66.97,2128,,,,,,
1115,Vientiane,Lao People's Democratic Republic,17.97,102.6,756,1003,HONNGU,18.8,105.77,347,,,,,,
1116,Riga,Latvia,56.95,24.11,616,37,DAUGAVGRIVA,57.05,24.03,12,0.09,0.54,1.79,0.16,0.61,1.85
1117,Bayrut (Beirut),Lebanon,33.9,35.48,2379,1797,HADERA,32.47,34.86,169,,,,,,
1118,Monrovia,Liberia,6.3,-10.8,1795,331,TAKORADI,4.88,-1.75,1015,,,,,,
1119,Banghazi,Libya,32.12,20.07,882,1232,SOUDHAS,35.49,24.08,528,,,,,,
1120,Misratah,Libya,32.38,15.09,1035,1735,MARSAXLOKK  ,35.82,14.53,387,,,,,,
1121,Tarabulus (Tripoli),Libya,32.88,13.19,1203,1735,MARSAXLOKK  ,35.82,14.53,350,,,,,,
1122,Vilnius,Lithuania,54.69,25.28,542,37,DAUGAVGRIVA,57.05,24.03,274,,,,,,
1123,Antananarivo,Madagascar,-18.91,47.54,4229,1501,POINTE_DES_GALETS,-20.93,55.29,842,,,,,,
1124,Antsirabe,Madagascar,-19.87,47.03,446,1501,POINTE_DES_GALETS,-20.93,55.29,869,,,,,,
1125,Toamasina,Madagascar,-18.17,49.38,554,1501,POINTE_DES_GALETS,-20.93,55.29,692,,,,,,
1126,Blantyre-Limbe,Malawi,-15.78,35.01,1114,1600,ZANZIBAR,-6.15,39.18,1165,,,,,,
1127,Lilongwe,Malawi,-13.97,33.79,1393,1600,ZANZIBAR,-6.15,39.18,1052,,,,,,
1128,Alor Star,Malaysia,6.12,100.37,382,1676,PULAU_LANGKAWI,6.43,99.76,76,0.06,0.48,2.02,0.22,0.58,2.1
1129,Ipoh,Malaysia,4.58,101.08,888,1594,LUMUT,4.24,100.61,65,0.03,0.45,1.98,0.23,0.58,2.1
1130,Johor Bahru,Malaysia,1.47,103.76,1128,248,JOHOR_BAHRU,1.46,103.79,4,0.12,0.55,2.1,0.25,0.59,2.12
1131,Kota Bharu,Malaysia,6.13,102.25,375,1703,GETING,6.23,102.11,19,0.05,0.49,2.02,0.24,0.59,2.11
1132,Kota Kinabalu,Malaysia,5.98,116.12,613,1733,KOTA_KINABALU,5.98,116.07,5,0.19,0.56,2.1,0.24,0.6,2.13
1133,Kuala Lumpur,Malaysia,3.14,101.69,9000,1591,PELABUHAN_KELANG,3.05,101.36,38,0.06,0.48,2.01,0.24,0.58,2.09
1134,Kuala Terengganu,Malaysia,5.33,103.14,419,1592,CENDERING,5.26,103.19,10,0.12,0.55,2.1,0.24,0.59,2.11
1135,Kuantan,Malaysia,3.81,103.33,559,1589,TANJUNG_GELANG,3.98,103.43,22,0.13,0.54,2.08,0.25,0.59,2.11
1136,Kuching,Malaysia,1.55,110.33,663,1833,BINTULU,3.26,113.06,358,,,,,,
1137,Sandakan,Malaysia,5.84,118.12,403,1834,SANDAKAN,5.81,118.07,6,0.16,0.54,2.08,0.22,0.6,2.14
1138,Seremban,Malaysia,2.73,101.94,523,1593,TANJUNG_KELING,2.21,102.15,62,0.04,0.45,1.99,0.25,0.59,2.11
1139,Bamako,Mali,12.65,-8.0,3180,1816,DAKAR_2,14.68,-17.42,1044,,,,,,
1140,Sikasso,Mali,11.31,-5.67,488,331,TAKORADI,4.88,-1.75,836,,,,,,
1141,Nouakchott,Mauritania,18.09,-15.98,1613,1816,DAKAR_2,14.68,-17.42,409,,,,,,
1142,Acapulco de Juárez,Mexico,16.86,-99.89,1047,686,ACAPULCO,16.83,-99.92,5,0.7,1.03,2.54,0.25,0.57,2.08
1143,Aguascalientes,Mexico,21.88,-102.3,1197,737,MANZANILLO,19.05,-104.33,380,,,,,,
1144,Cancún,Mexico,21.17,-86.85,1065,1297,CABO_DE_SAN_ANTONIO,21.9,-84.9,217,,,,,,
1145,Celaya,Mexico,20.52,-100.82,727,918,TUXPAN,21.0,-97.33,367,,,,,,
1146,Chihuahua,Mexico,28.63,-106.08,1154,693,GUAYMAS,27.92,-110.9,479,,,,,,
1147,Ciudad de México (Mexico City),Mexico,19.43,-99.14,22752,918,TUXPAN,21.0,-97.33,258,,,,,,
1148,Ciudad Juárez,Mexico,31.73,-106.48,1626,693,GUAYMAS,27.92,-110.9,602,,,,,,
1149,Ciudad Obregón,Mexico,27.48,-109.93,408,693,GUAYMAS,27.92,-110.9,107,,,,,,
1150,Ciudad Victoria,Mexico,23.73,-99.13,392,1020,CIUDAD_MADERO,22.25,-97.8,214,,,,,,
1151,Coatzacoalcos,Mexico,18.15,-94.42,423,692,COATZACOALCOS,18.15,-94.42,0,0.28,0.64,2.17,0.27,0.61,2.13
1152,Colima,Mexico,19.23,-103.72,447,737,MANZANILLO,19.05,-104.33,68,0.46,0.78,2.3,0.26,0.56,2.07
1153,Córdoba,Mexico,18.88,-96.93,375,768,ALVARADO,18.77,-95.77,123,,,,,,
1154,Cuautla Morelos,Mexico,18.8,-98.95,559,686,ACAPULCO,16.83,-99.92,242,,,,,,
1155,Cuernavaca,Mexico,18.92,-99.25,1156,686,ACAPULCO,16.83,-99.92,243,,,,,,
1156,Culiacán,Mexico,24.8,-107.39,918,712,MAZATLAN,23.2,-106.42,204,,,,,,
1157,Durango,Mexico,24.03,-104.67,687,712,MAZATLAN,23.2,-106.42,201,,,,,,
1158,Ensenada,Mexico,31.87,-116.62,363,795,ENSENADA,31.85,-116.63,2,0.19,0.49,1.99,0.22,0.51,2.01
1159,Guadalajara,Mexico,20.67,-103.33,5579,737,MANZANILLO,19.05,-104.33,208,,,,,,
1160,Hermosillo,Mexico,29.08,-110.97,944,693,GUAYMAS,27.92,-110.9,130,,,,,,
1161,Irapuato,Mexico,20.68,-101.35,490,737,MANZANILLO,19.05,-104.33,361,,,,,,
1162,La Laguna,Mexico,25.55,-103.43,1867,712,MAZATLAN,23.2,-106.42,400,,,,,,
1163,León de los Aldamas,Mexico,21.12,-101.68,1950,737,MANZANILLO,19.05,-104.33,361,,,,,,
1164,Los Mochis,Mexico,25.77,-108.97,342,695,LA_PAZ,24.17,-110.35,226,,,,,,
1165,Matamoros,Mexico,25.53,-103.25,604,712,MAZATLAN,23.2,-106.42,413,,,,,,
1166,Mazatlán,Mexico,23.24,-106.41,492,712,MAZATLAN,23.2,-106.42,5,0.3,0.63,2.12,0.24,0.54,2.03
1167,Mérida,Mexico,20.97,-89.62,1258,690,PROGRESO,21.3,-89.67,38,0.45,0.81,2.33,0.28,0.61,2.12
1168,Mexicali,Mexico,32.65,-115.47,1215,795,ENSENADA,31.85,-116.63,141,,,,,,
1169,Minatitlán,Mexico,18.0,-94.56,428,692,COATZACOALCOS,18.15,-94.42,22,0.28,0.64,2.17,0.27,0.61,2.13
1170,Monclova,Mexico,26.9,-101.42,386,1038,PORT_MANSFIELD,26.55,-97.42,399,,,,,,
1171,Monterrey,Mexico,25.67,-100.32,5272,1038,PORT_MANSFIELD,26.55,-97.42,306,,,,,,
1172,Morelia,Mexico,19.7,-101.18,1016,737,MANZANILLO,19.05,-104.33,338,,,,,,
1173,Nuevo Laredo,Mexico,27.48,-99.52,481,1903,CORPUS_CHRISTI,27.58,-97.22,227,,,,,,
1174,Oaxaca de Juárez,Mexico,17.05,-96.72,757,689,SALINA_CRUZ,16.17,-95.2,189,,,,,,
1175,Orizaba,Mexico,18.85,-97.1,505,768,ALVARADO,18.77,-95.77,140,,,,,,
1176,Pachuca de Soto,Mexico,20.12,-98.73,693,918,TUXPAN,21.0,-97.33,176,,,,,,
1177,Poza Rica de Hidalgo,Mexico,20.53,-97.46,598,918,TUXPAN,21.0,-97.33,54,0.39,0.76,2.29,0.26,0.6,2.12
1178,Puebla,Mexico,19.04,-98.2,3443,918,TUXPAN,21.0,-97.33,236,,,,,,
1179,Puerto Vallarta,Mexico,20.62,-105.23,578,737,MANZANILLO,19.05,-104.33,199,,,,,,
1180,Querétaro,Mexico,20.6,-100.38,1459,918,TUXPAN,21.0,-97.33,321,,,,,,
1181,Reynosa,Mexico,26.08,-98.28,983,1038,PORT_MANSFIELD,26.55,-97.42,101,,,,,,
1182,Saltillo,Mexico,25.42,-101.0,1066,1038,PORT_MANSFIELD,26.55,-97.42,380,,,,,,
1183,San Luis Potosí,Mexico,22.15,-100.98,1311,1020,CIUDAD_MADERO,22.25,-97.8,328,,,,,,
1184,Tampico,Mexico,22.22,-97.85,1078,1020,CIUDAD_MADERO,22.25,-97.8,6,0.42,0.81,2.33,0.26,0.6,2.11
1185,Tehuacán,Mexico,18.45,-97.38,367,768,ALVARADO,18.77,-95.77,174,,,,,,
1186,Tepic,Mexico,21.5,-104.9,601,712,MAZATLAN,23.2,-106.42,246,,,,,,
1187,Tijuana,Mexico,32.53,-117.02,2333,158,SAN_DIEGO,32.71,-117.17,24,0.25,0.55,2.04,0.21,0.5,2.0
1188,Tlaxcala,Mexico,19.31,-98.24,646,918,TUXPAN,21.0,-97.33,210,,,,,,
1189,Toluca de Lerdo,Mexico,19.28,-99.66,2720,686,ACAPULCO,16.83,-99.92,275,,,,,,
1190,Tuxtla Gutierrez,Mexico,16.75,-93.12,928,692,COATZACOALCOS,18.15,-94.42,208,,,,,,
1191,Uruapán,Mexico,19.42,-102.06,362,737,MANZANILLO,19.05,-104.33,242,,,,,,
1192,Veracruz,Mexico,19.2,-96.13,981,768,ALVARADO,18.77,-95.77,61,0.23,0.6,2.14,0.27,0.61,2.13
1193,Villahermosa,Mexico,17.98,-92.92,972,796,CIUDAD_DEL_CARMEN,18.63,-91.85,134,,,,,,
1194,Xalapa,Mexico,19.54,-96.91,835,768,ALVARADO,18.77,-95.77,148,,,,,,
1195,Zacatecas,Mexico,22.78,-102.57,399,712,MAZATLAN,23.2,-106.42,397,,,,,,
1196,Ulaanbaatar,Mongolia,47.91,106.88,1725,1403,TANGGU,39.0,117.72,1320,,,,,,
1197,Agadir,Morocco,30.42,-9.59,1017,593,ARRECIFE,28.97,-13.53,414,,,,,,
1198,Dar-el-Beida (Casablanca),Morocco,33.59,-7.62,4012,488,TARIFA,36.01,-5.6,326,,,,,,
1199,Fès,Morocco,34.04,-5.0,1337,498,CEUTA,35.89,-5.32,208,,,,,,
1200,Kénitra,Morocco,34.26,-6.58,527,488,TARIFA,36.01,-5.6,214,,,,,,
1201,Marrakech,Morocco,31.63,-8.01,1085,498,CEUTA,35.89,-5.32,535,,,,,,
1202,Meknès,Morocco,33.89,-5.55,595,498,CEUTA,35.89,-5.32,223,,,,,,
1203,Oujda,Morocco,34.68,-1.91,618,1455,ALMERIA,36.83,-2.48,245,,,,,,
1204,Rabat,Morocco,34.01,-6.83,2021,488,TARIFA,36.01,-5.6,249,,,,,,
1205,Safi,Morocco,32.3,-9.24,346,488,TARIFA,36.01,-5.6,532,,,,,,
1206,Tanger,Morocco,35.78,-5.81,1381,488,TARIFA,36.01,-5.6,32,0.18,0.53,1.86,0.24,0.58,1.91
1207,Tétouan,Morocco,35.57,-5.37,461,498,CEUTA,35.89,-5.32,36,0.13,0.48,1.81,0.24,0.58,1.91
1208,Beira,Mozambique,-19.84,34.84,667,284,DURBAN,-29.87,31.05,1180,,,,,,
1209,Chimoio,Mozambique,-19.12,33.48,529,284,DURBAN,-29.87,31.05,1222,,,,,,
1210,Maputo,Mozambique,-25.97,32.59,1230,284,DURBAN,-29.87,31.05,460,,,,,,
1211,Matola,Mozambique,-25.96,32.46,1985,284,DURBAN,-29.87,31.05,457,,,,,,
1212,Nampula,Mozambique,-15.12,39.27,1057,1600,ZANZIBAR,-6.15,39.18,998,,,,,,
1213,Quelimane,Mozambique,-17.88,36.89,536,1600,ZANZIBAR,-6.15,39.18,1329,,,,,,
1214,Tete,Mozambique,-16.16,33.59,490,1600,ZANZIBAR,-6.15,39.18,1270,,,,,,
1215,Mandalay,Myanmar,21.97,96.08,1594,1476,COX'S_BAZAAR,21.45,91.83,444,,,,,,
1216,Nay Pyi Taw,Myanmar,19.74,96.13,788,210,RANGOON,16.77,96.17,331,,,,,,
1217,Yangon,Myanmar,16.81,96.16,5813,210,RANGOON,16.77,96.17,4,0.33,0.71,2.18,0.21,0.54,2.01
1218,Windhoek,Namibia,-22.56,17.08,511,914,WALVIS_BAY,-22.95,14.5,269,,,,,,
1219,Kathmandu,Nepal,27.7,85.32,1673,1002,TRIBENI,22.98,88.4,610,,,,,,
1220,Pokhara,Nepal,28.23,83.98,511,1002,TRIBENI,22.98,88.4,734,,,,,,
1221,Amsterdam,Netherlands,52.37,4.89,1189,32,IJMUIDEN,52.46,4.55,25,0.15,0.59,1.86,0.13,0.57,1.84
1222,Eindhoven,Netherlands,51.44,5.48,373,9,MAASSLUIS,51.92,4.25,100,0.16,0.6,1.86,0.13,0.57,1.84
1223,Rotterdam,Netherlands,51.92,4.48,1026,9,MAASSLUIS,51.92,4.25,16,0.16,0.6,1.86,0.13,0.57,1.84
1224,s-Gravenhage (The Hague),Netherlands,52.08,4.3,725,22,HOEK_VAN_HOLLAND,51.98,4.12,16,0.21,0.65,1.92,0.13,0.57,1.84
1225,Utrecht,Netherlands,52.09,5.12,576,32,IJMUIDEN,52.46,4.55,57,0.15,0.59,1.86,0.13,0.57,1.84
1226,Auckland,New Zealand,-36.87,174.77,1711,150,AUCKLAND_II,-36.84,174.77,3,0.21,0.57,2.03,0.22,0.58,2.04
1227,Christchurch,New Zealand,-43.53,172.63,410,247,PORT_LYTTELTON,-43.61,172.72,11,0.26,0.62,2.0,0.23,0.58,1.96
1228,Wellington,New Zealand,-41.29,174.78,428,500,WELLINGTON_II,-41.28,174.78,1,0.28,0.63,2.05,0.23,0.57,1.99
1229,Managua,Nicaragua,12.13,-86.25,1121,558,LA_UNION,13.33,-87.82,216,,,,,,
1230,Niamey,Niger,13.51,2.11,1561,1049,TEMA,5.62,0.0,909,,,,,,
1231,Zinder,Niger,13.81,8.99,632,1049,TEMA,5.62,0.0,1342,,,,,,
1232,Aba,Nigeria,5.11,7.37,1275,1049,TEMA,5.62,0.0,818,,,,,,
1233,Abakaliki,Nigeria,6.32,8.12,723,1049,TEMA,5.62,0.0,902,,,,,,
1234,Abeokuta,Nigeria,7.15,3.35,608,1049,TEMA,5.62,0.0,408,,,,,,
1235,Abuja,Nigeria,9.06,7.49,4210,1049,TEMA,5.62,0.0,911,,,,,,
1236,Ado-Ekiti,Nigeria,7.62,5.22,578,1049,TEMA,5.62,0.0,619,,,,,,
1237,Akure,Nigeria,7.25,5.19,803,1049,TEMA,5.62,0.0,602,,,,,,
1238,Bauchi,Nigeria,10.31,9.84,724,1049,TEMA,5.62,0.0,1204,,,,,,
1239,Benin City,Nigeria,6.34,5.63,2045,1049,TEMA,5.62,0.0,628,,,,,,
1240,Birnin Kebbi,Nigeria,12.45,4.2,446,1049,TEMA,5.62,0.0,890,,,,,,
1241,Calabar,Nigeria,4.95,8.32,713,1049,TEMA,5.62,0.0,925,,,,,,
1242,Effon Alaiye,Nigeria,7.65,4.92,457,1049,TEMA,5.62,0.0,589,,,,,,
1243,Enugu,Nigeria,6.44,7.49,907,1049,TEMA,5.62,0.0,835,,,,,,
1244,Gboko,Nigeria,7.33,9.0,524,1049,TEMA,5.62,0.0,1014,,,,,,
1245,Gombe,Nigeria,10.29,11.17,620,1049,TEMA,5.62,0.0,1336,,,,,,
1246,Gwagwalada,Nigeria,8.94,7.09,566,1049,TEMA,5.62,0.0,866,,,,,,
1247,Ibadan,Nigeria,7.39,3.9,4144,1049,TEMA,5.62,0.0,474,,,,,,
1248,Ife,Nigeria,7.48,4.56,438,1049,TEMA,5.62,0.0,545,,,,,,
1249,Igbidu,Nigeria,6.07,8.12,528,1049,TEMA,5.62,0.0,900,,,,,,
1250,Ijebu-Ode,Nigeria,6.82,3.92,409,1049,TEMA,5.62,0.0,453,,,,,,
1251,Ikorodu,Nigeria,6.61,3.51,1197,1049,TEMA,5.62,0.0,404,,,,,,
1252,Ikot Ekpene,Nigeria,5.18,7.71,468,1049,TEMA,5.62,0.0,856,,,,,,
1253,Ilesha,Nigeria,7.62,4.73,432,1049,TEMA,5.62,0.0,569,,,,,,
1254,Ilorin,Nigeria,8.5,4.55,1100,1049,TEMA,5.62,0.0,596,,,,,,
1255,Jos,Nigeria,9.92,8.9,1035,1049,TEMA,5.62,0.0,1092,,,,,,
1256,Kaduna,Nigeria,10.52,7.44,1260,1049,TEMA,5.62,0.0,985,,,,,,
1257,Kano,Nigeria,12.0,8.52,4645,1049,TEMA,5.62,0.0,1175,,,,,,
1258,Katsina,Nigeria,12.99,7.6,565,1049,TEMA,5.62,0.0,1170,,,,,,
1259,Lafia,Nigeria,8.48,8.52,403,1049,TEMA,5.62,0.0,993,,,,,,
1260,Lagos,Nigeria,6.45,3.4,17156,1049,TEMA,5.62,0.0,387,,,,,,
1261,Lokoja,Nigeria,7.8,6.74,931,1049,TEMA,5.62,0.0,784,,,,,,
1262,Maiduguri,Nigeria,11.85,13.16,899,1049,TEMA,5.62,0.0,1605,,,,,,
1263,Makurdi,Nigeria,7.74,8.51,490,1049,TEMA,5.62,0.0,970,,,,,,
1264,Minna,Nigeria,9.61,6.56,532,1049,TEMA,5.62,0.0,849,,,,,,
1265,Nnewi,Nigeria,6.02,6.91,1362,1049,TEMA,5.62,0.0,767,,,,,,
1266,Ogbomosho,Nigeria,8.13,4.24,683,1049,TEMA,5.62,0.0,546,,,,,,
1267,Okene,Nigeria,7.55,6.23,546,1049,TEMA,5.62,0.0,722,,,,,,
1268,Okpogho,Nigeria,6.44,7.28,551,1049,TEMA,5.62,0.0,812,,,,,,
1269,Ondo,Nigeria,7.1,4.83,510,1049,TEMA,5.62,0.0,560,,,,,,
1270,Onitsha,Nigeria,6.15,6.79,1767,1049,TEMA,5.62,0.0,754,,,,,,
1271,Oshogbo,Nigeria,7.77,4.57,822,1049,TEMA,5.62,0.0,559,,,,,,
1272,Owerri,Nigeria,5.48,7.03,1064,1049,TEMA,5.62,0.0,779,,,,,,
1273,Oyo,Nigeria,7.85,3.93,506,1049,TEMA,5.62,0.0,501,,,,,,
1274,Port Harcourt,Nigeria,4.78,7.01,3794,1049,TEMA,5.62,0.0,783,,,,,,
1275,Potiskum,Nigeria,11.71,11.07,565,1049,TEMA,5.62,0.0,1393,,,,,,
1276,Saki,Nigeria,8.67,3.38,472,1049,TEMA,5.62,0.0,505,,,,,,
1277,Sokoto,Nigeria,13.06,5.24,761,1049,TEMA,5.62,0.0,1008,,,,,,
