city_index,city_country,city_name,city_lat,city_lon,population_2025_1000s,gauge_id,gauge_name,gauge_lat,gauge_lon,distance_km,rsl_low,rsl_central,rsl_high,novlm_low,novlm_central,novlm_high
1,Afghanistan,Herat,34.35,62.2,753,204,KARACHI,24.81,66.97,1157,,,,,,
2,Afghanistan,Kabul,34.53,69.17,4877,204,KARACHI,24.81,66.97,1103,,,,,,
3,Afghanistan,Kandahar,31.61,65.71,577,204,KARACHI,24.81,66.97,767,,,,,,
4,Afghanistan,Mazar-e Sharif,36.71,67.11,682,204,KARACHI,24.81,66.97,1325,,,,,,
5,Albania,Tiranë (Tirana),41.33,19.82,536,1075,BAR,42.08,19.08,104,,,,,,
6,Algeria,Annaba,36.9,7.77,379,104,CAGLIARI,39.2,9.17,284,,,,,,
7,Algeria,Batna,35.56,6.17,358,104,CAGLIARI,39.2,9.17,484,,,,,,
8,Algeria,Blida,36.48,2.83,536,1892,PALMA_DE_MALLORCA,39.55,2.64,342,,,,,,
9,Algeria,El Djazaïr  (Algiers),36.75,3.04,3004,1892,PALMA_DE_MALLORCA,39.55,2.64,313,,,,,,
10,Algeria,El Djelfa,34.67,3.26,607,960,ALICANTE,38.34,-0.48,528,,,,,,
11,Algeria,Qacentina,36.35,6.61,427,104,CAGLIARI,39.2,9.17,389,,,,,,
12,Algeria,Sétif,36.19,5.41,345,1892,PALMA_DE_MALLORCA,39.55,2.64,446,,,,,,
13,Algeria,Wahran (Oran),35.69,-0.64,966,1455,ALMERIA,36.83,-2.48,208,,,,,,
14,Angola,Benguela,-12.58,13.4,878,914,WALVIS_BAY,-22.95,14.5,1161,,,,,,
15,Angola,Cabinda,-5.55,12.2,991,1049,TEMA,5.62,0.0,1840,,,,,,
16,Angola,Cuito,-12.38,16.93,704,914,WALVIS_BAY,-22.95,14.5,1204,,,,,,
17,Angola,Huambo,-12.78,15.74,777,914,WALVIS_BAY,-22.95,14.5,1140,,,,,,
18,Angola,Lobito,-12.36,13.54,506,914,WALVIS_BAY,-22.95,14.5,1183,,,,,,
19,Angola,Luanda,-8.84,13.23,10028,914,WALVIS_BAY,-22.95,14.5,1577,,,,,,
20,Angola,Lubango,-14.92,13.49,1048,914,WALVIS_BAY,-22.95,14.5,900,,,,,,
21,Angola,Malanje,-9.54,16.34,861,914,WALVIS_BAY,-22.95,14.5,1506,,,,,,
22,Angola,Uige,-7.11,15.44,687,914,WALVIS_BAY,-22.95,14.5,1766,,,,,,
23,Argentina,Bahia Blanca,-38.72,-62.27,327,223,QUEQUEN,-38.58,-58.7,311,,,,,,
24,Argentina,Buenos Aires,-34.61,-58.4,15752,157,BUENOS_AIRES,-34.6,-58.37,3,0.21,0.52,1.85,0.21,0.52,1.85
25,Argentina,Córdoba,-31.41,-64.18,1641,832,PALERMO,-34.57,-58.4,644,,,,,,
26,Argentina,Corrientes,-27.48,-58.83,433,433,COLONIA,-34.48,-57.85,785,,,,,,
27,Argentina,La Plata,-34.92,-57.95,933,433,COLONIA,-34.48,-57.85,50,0.2,0.51,1.85,0.21,0.52,1.86
28,Argentina,Mar Del Plata,-38.0,-57.56,698,857,MAR_DEL_PLATA,-38.03,-57.53,4,0.16,0.47,1.81,0.21,0.52,1.85
29,Argentina,Mendoza,-32.89,-68.83,1257,499,VALPARAISO,-33.03,-71.63,262,,,,,,
30,Argentina,Neuquén-Plottier-Cipolletti,-38.95,-68.06,439,2262,CORRAL_II,-39.88,-73.42,472,,,,,,
31,Argentina,Posadas,-27.37,-55.9,420,542,IMBITUBA,-28.23,-48.65,720,,,,,,
32,Argentina,Resistencia,-27.46,-58.98,456,433,COLONIA,-34.48,-57.85,789,,,,,,
33,Argentina,Rosario,-32.95,-60.64,1631,832,PALERMO,-34.57,-58.4,275,,,,,,
34,Argentina,Salta,-24.79,-65.41,738,510,ANTOFAGASTA_2,-23.65,-70.4,522,,,,,,
35,Argentina,San Juan,-31.54,-68.54,561,499,VALPARAISO,-33.03,-71.63,335,,,,,,
36,Argentina,San Miguel de Tucumán,-26.82,-65.22,1051,619,CALDERA,-27.07,-70.83,557,,,,,,
37,Argentina,San Salvador de Jujuy,-24.19,-65.3,384,510,ANTOFAGASTA_2,-23.65,-70.4,523,,,,,,
38,Argentina,Santa Fe,-31.63,-60.7,596,832,PALERMO,-34.57,-58.4,391,,,,,,
39,Argentina,Santiago Del Estero,-27.8,-64.26,464,619,CALDERA,-27.07,-70.83,654,,,,,,
40,Armenia,Yerevan,40.18,44.51,1100,51,BATUMI,41.63,41.7,286,,,,,,
41,Australia,Adelaide,-34.93,138.6,1393,448,PORT_ADELAIDE,-34.78,138.48,20,0.26,0.57,1.91,0.23,0.53,1.88
42,Australia,Brisbane,-27.47,153.03,2568,822,BRISBANE,-27.37,153.17,18,0.2,0.53,2.01,0.25,0.58,2.06
43,Australia,Canberra,-35.28,149.13,483,2312,JERVIS_BAY_II,-35.12,150.71,145,,,,,,
44,Australia,Central Coast,-33.42,151.4,347,549,CAMP_COVE,-33.83,151.28,47,0.18,0.53,1.98,0.24,0.59,2.04
45,Australia,Gold Coast-Tweed Head,-28.0,153.43,753,1704,GOLD_COAST_SEAWAY_2,-27.95,153.42,6,0.21,0.54,2.01,0.25,0.58,2.06
46,Australia,Melbourne,-37.81,144.96,5392,1033,STONY_POINT,-38.37,145.22,66,0.16,0.49,1.82,0.23,0.53,1.87
47,Australia,Newcastle-Maitland,-32.92,151.74,470,837,NEWCASTLE_V,-32.92,151.79,5,0.23,0.57,2.03,0.25,0.59,2.05
48,Australia,Perth,-31.95,115.85,2169,111,FREMANTLE,-32.06,115.74,16,0.23,0.58,2.01,0.21,0.56,1.99
49,Australia,Sunshine Coast,-26.66,153.1,376,1493,MOOLOOLABA_2,-26.68,153.13,4,0.2,0.53,2.01,0.25,0.58,2.06
50,Australia,Sydney,-33.87,151.21,5249,196,SYDNEY,-33.85,151.23,3,0.18,0.53,1.97,0.24,0.59,2.04
51,Australia,Wollongong,-34.42,150.89,319,831,PORT_KEMBLA,-34.47,150.91,5,0.16,0.52,1.96,0.24,0.59,2.04
52,Austria,Wien (Vienna),48.21,16.37,2005,154,TRIESTE,45.65,13.76,347,,,,,,
53,Azerbaijan,Baku,40.38,49.89,2496,51,BATUMI,41.63,41.7,702,,,,,,
54,Azerbaijan,Gäncä,40.68,46.36,360,51,BATUMI,41.63,41.7,405,,,,,,
55,Azerbaijan,Sumquayit,40.59,49.67,378,51,BATUMI,41.63,41.7,678,,,,,,
56,Bahrain,Al-Manamah (Manama),26.22,50.58,743,1887,MASIRAH,20.68,58.87,1046,,,,,,
57,Bangladesh,Barisal,22.7,90.37,565,1496,CHARCHANGA,22.22,91.05,88,0.21,0.66,2.13,0.19,0.52,1.97
58,Bangladesh,Bogra,24.85,89.37,981,1002,TRIBENI,22.98,88.4,230,,,,,,
59,Bangladesh,Chittagong,22.33,91.84,5653,1496,CHARCHANGA,22.22,91.05,82,0.21,0.66,2.13,0.19,0.52,1.97
60,Bangladesh,Comilla,23.46,91.2,691,1496,CHARCHANGA,22.22,91.05,139,,,,,,
61,Bangladesh,Dhaka,23.71,90.41,24653,1496,CHARCHANGA,22.22,91.05,178,,,,,,
62,Bangladesh,Khulna,22.81,89.56,980,1454,KHEPUPARA,21.83,89.83,112,,,,,,
63,Bangladesh,Mymensingh,24.75,90.4,509,1002,TRIBENI,22.98,88.4,283,,,,,,
64,Bangladesh,Rajshahi,24.37,88.6,1007,1002,TRIBENI,22.98,88.4,156,,,,,,
65,Bangladesh,Rangpur,25.75,89.25,457,1002,TRIBENI,22.98,88.4,320,,,,,,
66,Bangladesh,Rupganj,23.79,90.52,662,1496,CHARCHANGA,22.22,91.05,183,,,,,,
67,Bangladesh,Sylhet,24.9,91.87,1033,1496,CHARCHANGA,22.22,91.05,310,,,,,,
68,Belarus,Brest,52.1,23.69,371,289,PIONERSKY,54.95,20.22,392,,,,,,
69,Belarus,Gomel,52.43,30.98,576,37,DAUGAVGRIVA,57.05,24.03,680,,,,,,
70,Belarus,Grodno,53.69,23.83,402,289,PIONERSKY,54.95,20.22,273,,,,,,
71,Belarus,Minsk,53.9,27.57,2071,37,DAUGAVGRIVA,57.05,24.03,415,,,,,,
72,Belarus,Mogilev,53.91,30.34,395,37,DAUGAVGRIVA,57.05,24.03,529,,,,,,
73,Belarus,Vitebsk,55.19,30.2,384,37,DAUGAVGRIVA,57.05,24.03,435,,,,,,
74,Belgium,Antwerpen,51.22,4.4,1065,20,VLISSINGEN,51.44,3.6,61,0.14,0.58,1.84,0.14,0.57,1.84
75,Belgium,Bruxelles-Brussel,50.85,4.35,2142,20,VLISSINGEN,51.44,3.6,84,0.14,0.58,1.84,0.14,0.57,1.84
76,Belgium,Charleroi,50.41,4.44,419,20,VLISSINGEN,51.44,3.6,129,,,,,,
77,Belgium,Gent,51.05,3.72,479,20,VLISSINGEN,51.44,3.6,44,0.14,0.58,1.84,0.14,0.57,1.84
78,Belgium,Liège,50.63,5.57,689,20,VLISSINGEN,51.44,3.6,164,,,,,,
79,Benin,Abomey-Calavi,6.45,2.36,1375,1049,TEMA,5.62,0.0,277,,,,,,
80,Benin,Cotonou,6.37,2.42,758,1049,TEMA,5.62,0.0,280,,,,,,
81,Benin,Djougou,9.71,1.67,410,1049,TEMA,5.62,0.0,491,,,,,,
82,Benin,Parakou,9.34,2.63,442,1049,TEMA,5.62,0.0,505,,,,,,
83,Bolivia (Plurinational State of),Cochabamba,-17.39,-66.16,1460,618,ARICA,-18.47,-70.33,458,,,,,,
84,Bolivia (Plurinational State of),La Paz,-16.5,-68.15,1997,618,ARICA,-18.47,-70.33,319,,,,,,
85,Bolivia (Plurinational State of),Oruro,-17.98,-67.15,353,618,ARICA,-18.47,-70.33,341,,,,,,
86,Bolivia (Plurinational State of),Santa Cruz,-17.8,-63.17,1891,618,ARICA,-18.47,-70.33,761,,,,,,
87,Bosnia and Herzegovina,Sarajevo,43.85,18.36,348,1706,SUCURAJ,43.13,17.2,123,,,,,,
88,Brazil,Anápolis,-16.33,-48.95,406,1032,ILHA_FISCAL,-22.9,-43.17,950,,,,,,
89,Brazil,Aracaju,-10.91,-37.07,1082,578,SALVADOR,-12.97,-38.52,278,,,,,,
90,Brazil,Baixada Santista,-23.96,-46.33,1982,726,CANANEIA,-25.02,-47.93,201,,,,,,
91,Brazil,Bauru,-22.31,-49.06,391,726,CANANEIA,-25.02,-47.93,322,,,,,,
92,Brazil,Belém,-1.46,-48.48,2454,580,BELEM,-1.45,-48.5,2,0.21,0.57,2.0,0.29,0.62,2.05
93,Brazil,Belo Horizonte,-19.92,-43.94,6352,1032,ILHA_FISCAL,-22.9,-43.17,341,,,,,,
94,Brazil,Blumenau,-26.92,-49.07,368,542,IMBITUBA,-28.23,-48.65,152,,,,,,
95,Brazil,Boa Vista,2.82,-60.67,369,580,BELEM,-1.45,-48.5,1436,,,,,,
96,Brazil,Brasília,-15.78,-47.93,4991,1032,ILHA_FISCAL,-22.9,-43.17,937,,,,,,
97,Brazil,Campina Grande,-7.23,-35.88,414,556,RECIFE,-8.05,-34.87,144,,,,,,
98,Brazil,Campinas,-22.91,-47.07,3492,726,CANANEIA,-25.02,-47.93,251,,,,,,
99,Brazil,Campo Grande,-20.46,-54.62,943,726,CANANEIA,-25.02,-47.93,854,,,,,,
100,Brazil,Campos dos Goytacazes,-21.77,-41.32,466,1032,ILHA_FISCAL,-22.9,-43.17,229,,,,,,
101,Brazil,Caruaru,-8.28,-35.98,351,556,RECIFE,-8.05,-34.87,125,,,,,,
102,Brazil,Cascavel,-24.96,-53.46,331,726,CANANEIA,-25.02,-47.93,557,,,,,,
103,Brazil,Caxias Do Sul,-29.17,-51.18,509,542,IMBITUBA,-28.23,-48.65,268,,,,,,
104,Brazil,Cuiabá,-15.6,-56.1,606,726,CANANEIA,-25.02,-47.93,1351,,,,,,
105,Brazil,Curitiba,-25.43,-49.27,3889,726,CANANEIA,-25.02,-47.93,143,,,,,,
106,Brazil,Feira De Santana,-12.27,-38.97,637,578,SALVADOR,-12.97,-38.52,92,0.22,0.58,2.05,0.26,0.59,2.06
107,Brazil,Florianópolis,-27.6,-48.55,1324,542,IMBITUBA,-28.23,-48.65,71,0.23,0.59,2.02,0.24,0.56,1.99
108,Brazil,Fortaleza,-3.74,-38.54,4284,556,RECIFE,-8.05,-34.87,629,,,,,,
109,Brazil,Franca,-20.54,-47.4,367,726,CANANEIA,-25.02,-47.93,502,,,,,,
110,Brazil,Goiânia,-16.68,-49.25,2927,726,CANANEIA,-25.02,-47.93,939,,,,,,
111,Brazil,Grande São Luís,-2.54,-44.28,1548,580,BELEM,-1.45,-48.5,485,,,,,,
112,Brazil,Grande Vitória,-20.31,-40.31,2221,1032,ILHA_FISCAL,-22.9,-43.17,414,,,,,,
113,Brazil,João Pessoa,-7.12,-34.86,1448,556,RECIFE,-8.05,-34.87,104,,,,,,
114,Brazil,Joinville,-26.3,-48.85,1375,726,CANANEIA,-25.02,-47.93,170,,,,,,
115,Brazil,Juazeiro Do Norte,-7.21,-39.32,492,556,RECIFE,-8.05,-34.87,499,,,,,,
116,Brazil,Juiz De Fora,-21.76,-43.35,601,1032,ILHA_FISCAL,-22.9,-43.17,128,,,,,,
117,Brazil,Jundiaí,-23.19,-46.89,721,726,CANANEIA,-25.02,-47.93,230,,,,,,
118,Brazil,Londrina,-23.31,-51.16,942,726,CANANEIA,-25.02,-47.93,379,,,,,,
119,Brazil,Macapá,0.04,-51.07,526,580,BELEM,-1.45,-48.5,330,,,,,,
120,Brazil,Maceió,-9.67,-35.74,1388,556,RECIFE,-8.05,-34.87,203,,,,,,
121,Brazil,Manaus,-3.1,-60.02,2435,580,BELEM,-1.45,-48.5,1295,,,,,,
122,Brazil,Maringá,-23.43,-51.94,446,726,CANANEIA,-25.02,-47.93,444,,,,,,
123,Brazil,Montes Claros,-16.74,-43.86,418,1032,ILHA_FISCAL,-22.9,-43.17,690,,,,,,
124,Brazil,Natal,-5.8,-35.21,1575,556,RECIFE,-8.05,-34.87,254,,,,,,
125,Brazil,Pelotas,-31.77,-52.34,336,764,LA_PALOMA,-34.65,-54.15,362,,,,,,
126,Brazil,Petrolina,-9.4,-40.5,513,578,SALVADOR,-12.97,-38.52,453,,,,,,
127,Brazil,Piracicaba,-22.73,-47.65,419,726,CANANEIA,-25.02,-47.93,257,,,,,,
128,Brazil,Ponta Grossa,-25.1,-50.16,367,726,CANANEIA,-25.02,-47.93,225,,,,,,
129,Brazil,Pôrto Alegre,-30.03,-51.23,4269,542,IMBITUBA,-28.23,-48.65,321,,,,,,
130,Brazil,Pôrto Velho,-8.76,-63.9,555,458,MATARANI,-17.0,-72.12,1278,,,,,,
131,Brazil,Recife,-8.05,-34.88,4344,556,RECIFE,-8.05,-34.87,1,0.2,0.57,2.06,0.28,0.61,2.1
132,Brazil,Ribeirão  Preto,-21.18,-47.81,758,726,CANANEIA,-25.02,-47.93,428,,,,,,
133,Brazil,Rio Branco,-9.97,-67.81,393,458,MATARANI,-17.0,-72.12,910,,,,,,
134,Brazil,Rio de Janeiro,-22.9,-43.21,13923,1032,ILHA_FISCAL,-22.9,-43.17,4,0.22,0.57,2.03,0.25,0.58,2.03
135,Brazil,Salvador,-12.97,-38.51,4030,578,SALVADOR,-12.97,-38.52,1,0.22,0.58,2.05,0.26,0.59,2.06
136,Brazil,São José do Rio Preto,-20.82,-49.38,461,726,CANANEIA,-25.02,-47.93,491,,,,,,
137,Brazil,São José dos Campos,-23.18,-45.89,764,1032,ILHA_FISCAL,-22.9,-43.17,280,,,,,,
138,Brazil,São Paulo,-23.55,-46.64,22990,726,CANANEIA,-25.02,-47.93,210,,,,,,
139,Brazil,Sorocaba,-23.5,-47.46,829,726,CANANEIA,-25.02,-47.93,176,,,,,,
140,Brazil,Taubaté,-23.03,-45.56,328,1032,ILHA_FISCAL,-22.9,-43.17,245,,,,,,
141,Brazil,Teresina,-5.09,-42.8,1069,580,BELEM,-1.45,-48.5,752,,,,,,
142,Brazil,Uberaba,-19.75,-47.93,351,726,CANANEIA,-25.02,-47.93,587,,,,,,
143,Brazil,Uberlândia,-18.92,-48.28,725,726,CANANEIA,-25.02,-47.93,680,,,,,,
144,Brazil,Vale do Aço,-19.94,-43.94,542,1032,ILHA_FISCAL,-22.9,-43.17,339,,,,,,
145,Brazil,Vitória da Conquista,-14.87,-40.84,348,578,SALVADOR,-12.97,-38.52,328,,,,,,
146,Brazil,Volta Redonda,-22.52,-44.1,454,1032,ILHA_FISCAL,-22.9,-43.17,105,,,,,,
147,Bulgaria,Plovdiv,42.15,24.75,347,375,KAVALLA,40.93,24.41,139,,,,,,
148,Bulgaria,Sofia,42.7,23.32,1286,375,KAVALLA,40.93,24.41,216,,,,,,
149,Bulgaria,Varna,43.22,27.92,334,318,VARNA,43.18,27.92,4,0.0,0.43,1.76,0.03,0.45,1.77
150,Burkina Faso,Bobo-Dioulasso,11.18,-4.3,1244,331,TAKORADI,4.88,-1.75,755,,,,,,
151,Burkina Faso,Ouagadougou,12.36,-1.54,3521,1049,TEMA,5.62,0.0,770,,,,,,
152,Burundi,Bujumbura,-3.38,29.36,1350,1600,ZANZIBAR,-6.15,39.18,1132,,,,,,
153,Cambodia,Phnum Pénh (Phnom Penh),11.56,104.92,2426,1495,VUNGTAU,10.33,107.07,272,,,,,,
154,Cameroon,Bafoussam,5.47,10.42,496,1049,TEMA,5.62,0.0,1154,,,,,,
155,Cameroon,Bamenda,5.95,10.16,636,1049,TEMA,5.62,0.0,1126,,,,,,
156,Cameroon,Douala,4.05,9.7,4346,1049,TEMA,5.62,0.0,1090,,,,,,
157,Cameroon,Garoua,9.3,13.4,391,1049,TEMA,5.62,0.0,1534,,,,,,
158,Cameroon,Loum,4.72,9.74,623,1049,TEMA,5.62,0.0,1084,,,,,,
159,Cameroon,Mbouda,5.63,10.26,629,1049,TEMA,5.62,0.0,1136,,,,,,
160,Cameroon,Yaoundé,3.87,11.52,4854,1049,TEMA,5.62,0.0,1292,,,,,,
161,Canada,Calgary,51.04,-114.06,1688,1245,NEW  WESTMINSTER,49.2,-122.92,664,,,,,,
162,Canada,Edmonton,53.54,-113.5,1589,1245,NEW  WESTMINSTER,49.2,-122.92,813,,,,,,
163,Canada,Halifax,44.65,-63.58,426,96,HALIFAX,44.67,-63.58,2,0.35,0.82,2.22,0.19,0.67,2.07
164,Canada,Hamilton,43.25,-79.85,793,148,BALTIMORE,39.27,-76.58,520,,,,,,
165,Canada,Kitchener-Cambrigde-Waterloo,43.43,-80.51,600,148,BALTIMORE,39.27,-76.58,567,,,,,,
166,Canada,London,42.98,-81.23,527,148,BALTIMORE,39.27,-76.58,568,,,,,,
167,Canada,Montréal,45.51,-73.59,4377,183,PORTLAND ,43.66,-70.25,335,,,,,,
168,Canada,Oshawa,43.9,-78.85,418,1637,BERGEN_POINT,40.64,-74.14,531,,,,,,
169,Canada,Ottawa-Gatineau,45.42,-75.7,1466,288,SEAVEY_ISLAND,43.08,-70.74,473,,,,,,
170,Canada,Québec,46.81,-71.21,858,1597,RIMOUSKI,48.48,-68.52,274,,,,,,
171,Canada,Saskatoon,52.12,-106.63,352,447,CHURCHILL,58.77,-94.18,1077,,,,,,
172,Canada,St. Catharines-Niagara,43.17,-79.25,430,148,BALTIMORE,39.27,-76.58,488,,,,,,
173,Canada,Toronto,43.7,-79.42,6491,148,BALTIMORE,39.27,-76.58,547,,,,,,
174,Canada,Vancouver,49.25,-123.12,2708,175,VANCOUVER,49.28,-123.12,3,0.05,0.33,1.7,0.15,0.43,1.8
175,Canada,Victoria,48.43,-123.37,405,166,VICTORIA,48.42,-123.37,1,0.09,0.38,1.76,0.18,0.47,1.85
176,Canada,Windsor,42.28,-83.01,347,360,WASHINGTON_DC,38.87,-77.02,633,,,,,,
177,Canada,Winnipeg,49.9,-97.13,857,447,CHURCHILL,58.77,-94.18,1006,,,,,,
178,Central African Republic,Bangui,4.36,18.55,1016,1049,TEMA,5.62,0.0,2062,,,,,,
179,Chad,N'Djaména,12.11,15.04,1723,1049,TEMA,5.62,0.0,1804,,,,,,
180,Chile,Antofagasta,-23.65,-70.4,466,510,ANTOFAGASTA_2,-23.65,-70.4,0,0.05,0.36,1.75,0.25,0.55,1.94
181,Chile,Concepción,-36.83,-73.05,929,571,TALCAHUANO,-36.68,-73.1,17,0.12,0.41,1.7,0.23,0.5,1.79
182,Chile,La Serena-Coquimbo,-29.9,-71.25,525,619,CALDERA,-27.07,-70.83,318,,,,,,
183,Chile,Santiago,-33.46,-70.65,6999,499,VALPARAISO,-33.03,-71.63,103,,,,,,
184,Chile,Temuco,-38.73,-72.6,359,2262,CORRAL_II,-39.88,-73.42,146,,,,,,
185,Chile,Valparaíso,-33.04,-71.63,1024,499,VALPARAISO,-33.03,-71.63,1,0.03,0.33,1.65,0.24,0.52,1.85
186,China,Akesu,41.17,80.26,478,1002,TRIBENI,22.98,88.4,2163,,,,,,
187,China,Ankang,32.69,109.03,766,1405,LIANYUNGANG,34.75,119.45,991,,,,,,
188,China,Anlu,31.26,113.68,395,1405,LIANYUNGANG,34.75,119.45,664,,,,,,
189,China,Anning,24.92,102.48,357,841,HONDAU,20.67,106.8,648,,,,,,
190,China,Anqing,30.54,117.05,812,979,LUSI,32.13,121.62,469,,,,,,
191,China,Anqiu,36.43,119.19,848,1404,SHIJIUSUO,35.38,119.55,122,,,,,,
192,China,Anshan,41.12,122.99,1738,1513,LAOHUTAN,38.87,121.68,275,,,,,,
193,China,Anshun,26.24,105.93,686,1408,BEIHAI,21.48,109.08,620,,,,,,
194,China,Anyang,36.09,114.35,1739,1403,TANGGU,39.0,117.72,439,,,,,,
195,China,Baicheng,45.62,122.84,361,614,QINHUANGDAO,39.9,119.6,689,,,,,,
196,China,Baishan,41.94,126.42,983,1007,WONSAN,39.17,127.45,320,,,,,,
197,China,Baiyin,36.55,104.18,436,1403,TANGGU,39.0,117.72,1221,,,,,,
198,China,Baoding,38.85,115.49,2190,1403,TANGGU,39.0,117.72,194,,,,,,
199,China,Baoji,34.37,107.2,1317,1403,TANGGU,39.0,117.72,1070,,,,,,
200,China,Baotou,40.65,109.82,2426,1403,TANGGU,39.0,117.72,700,,,,,,
201,China,Bayannaoer,40.75,107.41,492,1403,TANGGU,39.0,117.72,902,,,,,,
202,China,Bazhong,31.87,106.73,1268,1408,BEIHAI,21.48,109.08,1179,,,,,,
203,China,Beihai,21.48,109.12,515,1408,BEIHAI,21.48,109.08,4,0.07,0.54,2.03,0.24,0.58,2.04
204,China,Beijing,39.91,116.4,22596,1403,TANGGU,39.0,117.72,152,,,,,,
205,China,Bengbu,32.94,117.36,975,1405,LIANYUNGANG,34.75,119.45,279,,,,,,
206,China,Benxi,41.29,123.76,1258,723,DALIAN,38.87,121.68,323,,,,,,
207,China,Bijie,27.31,105.28,747,1408,BEIHAI,21.48,109.08,754,,,,,,
208,China,Binzhou,37.38,118.01,1264,1403,TANGGU,39.0,117.72,182,,,,,,
209,China,Botou,38.07,116.57,463,1403,TANGGU,39.0,117.72,144,,,,,,
210,China,Bozhou,33.87,115.78,877,1405,LIANYUNGANG,34.75,119.45,352,,,,,,
211,China,Cangzhou,38.32,116.87,605,1403,TANGGU,39.0,117.72,106,,,,,,
212,China,Cenxi,22.92,110.99,681,933,ZHAPO,21.58,111.82,172,,,,,,
213,China,Changchun,43.88,125.29,4891,1007,WONSAN,39.17,127.45,554,,,,,,
214,China,Changde,29.05,111.68,938,1366,TSIM_BEI_TSUI,22.49,114.01,766,,,,,,
215,China,Changge,34.22,113.77,597,1405,LIANYUNGANG,34.75,119.45,524,,,,,,
216,China,Changji,44.01,87.3,441,1002,TRIBENI,22.98,88.4,2343,,,,,,
217,China,Changning,26.41,112.4,600,1366,TSIM_BEI_TSUI,22.49,114.01,466,,,,,,
218,China,Changsha,28.23,112.94,5128,1366,TSIM_BEI_TSUI,22.49,114.01,648,,,,,,
219,China,Changshu,31.65,120.75,1124,979,LUSI,32.13,121.62,98,0.43,0.81,2.35,0.24,0.58,2.12
220,China,Changyi,36.85,119.39,581,1404,SHIJIUSUO,35.38,119.55,165,,,,,,
221,China,Changzhi,36.19,113.12,949,1403,TANGGU,39.0,117.72,512,,,,,,
222,China,"Changzhou, Jiangsu",31.79,119.96,4180,979,LUSI,32.13,121.62,161,,,,,,
223,China,Chaohu,31.6,117.87,532,979,LUSI,32.13,121.62,360,,,,,,
224,China,Chaoyang,41.58,120.45,582,614,QINHUANGDAO,39.9,119.6,200,,,,,,
225,China,Chaozhou,23.67,116.64,1545,1406,SHANWEI,22.75,115.35,167,,,,,,
226,China,Chengde,40.97,117.93,1052,614,QINHUANGDAO,39.9,119.6,185,,,,,,
227,China,Chengdu,30.67,104.07,9999,1408,BEIHAI,21.48,109.08,1138,,,,,,
228,China,Chenzhou,25.8,113.03,1151,1366,TSIM_BEI_TSUI,22.49,114.01,382,,,,,,
229,China,Chifeng,42.26,118.92,1305,614,QINHUANGDAO,39.9,119.6,269,,,,,,
230,China,Chizhou,30.66,117.48,544,979,LUSI,32.13,121.62,426,,,,,,
231,China,Chongqing,29.56,106.55,18171,1408,BEIHAI,21.48,109.08,935,,,,,,
232,China,Chuxiong,25.04,101.54,586,841,HONDAU,20.67,106.8,727,,,,,,
233,China,Chuzhou,32.3,118.32,590,1405,LIANYUNGANG,34.75,119.45,292,,,,,,
234,China,Cixi,30.18,121.25,1886,979,LUSI,32.13,121.62,220,,,,,,
235,China,Dali,25.59,100.22,590,841,HONDAU,20.67,106.8,868,,,,,,
236,China,Dalian,38.91,121.6,6347,1513,LAOHUTAN,38.87,121.68,8,0.19,0.55,2.06,0.22,0.56,2.08
237,China,Dandong,40.12,124.37,947,723,DALIAN,38.87,121.68,270,,,,,,
238,China,Danyang,32.0,119.57,829,979,LUSI,32.13,121.62,193,,,,,,
239,China,Danzhou,19.52,109.58,476,1428,HAIKOU,20.02,110.28,93,0.21,0.69,2.21,0.23,0.58,2.06
240,China,Daqing,46.58,125.0,2085,1007,WONSAN,39.17,127.45,849,,,,,,
241,China,Dashiqiao,40.64,122.5,403,1513,LAOHUTAN,38.87,121.68,209,,,,,,
242,China,Datong,40.08,113.29,1951,1403,TANGGU,39.0,117.72,399,,,,,,
243,China,Daye,30.1,114.97,647,934,KANMEN,28.08,121.28,653,,,,,,
244,China,Dazhou,31.22,107.5,785,1408,BEIHAI,21.48,109.08,1095,,,,,,
245,China,Dengfeng,34.46,113.03,669,1405,LIANYUNGANG,34.75,119.45,589,,,,,,
246,China,Dengzhou,32.68,112.08,804,1405,LIANYUNGANG,34.75,119.45,720,,,,,,
247,China,Deyang,31.13,104.38,985,1408,BEIHAI,21.48,109.08,1172,,,,,,
248,China,Dezhou,37.45,116.3,1134,1403,TANGGU,39.0,117.72,212,,,,,,
249,China,Dingzhou,38.51,115.0,360,1403,TANGGU,39.0,117.72,243,,,,,,
250,China,Donggang,39.88,124.15,413,723,DALIAN,38.87,121.68,240,,,,,,
251,China,Dongguan,23.02,113.74,7773,1366,TSIM_BEI_TSUI,22.49,114.01,65,0.08,0.48,1.97,0.24,0.59,2.07
252,China,Dongtai,32.85,120.31,773,979,LUSI,32.13,121.62,147,,,,,,
253,China,Dongyang,29.28,120.23,627,934,KANMEN,28.08,121.28,168,,,,,,
254,China,Dongying,37.45,118.58,1440,1403,TANGGU,39.0,117.72,188,,,,,,
255,China,Dujiangyan,31.0,103.63,420,1408,BEIHAI,21.48,109.08,1191,,,,,,
256,China,Emeishan,29.6,103.49,443,841,HONDAU,20.67,106.8,1049,,,,,,
257,China,Enping,22.19,112.3,457,933,ZHAPO,21.58,111.82,84,0.23,0.61,2.09,0.24,0.59,2.06
258,China,Enshi,30.29,109.48,724,1366,TSIM_BEI_TSUI,22.49,114.01,979,,,,,,
259,China,Erduosi (Ordoss),39.59,109.77,812,1403,TANGGU,39.0,117.72,688,,,,,,
260,China,Ezhou,30.4,114.88,716,1405,LIANYUNGANG,34.75,119.45,646,,,,,,
261,China,Fangchenggang,21.77,108.35,491,1408,BEIHAI,21.48,109.08,82,0.07,0.54,2.03,0.24,0.58,2.04
262,China,Feicheng,36.19,116.77,601,1404,SHIJIUSUO,35.38,119.55,267,,,,,,
263,China,Fengcheng,28.18,115.78,490,727,XIAMEN,24.45,118.07,474,,,,,,
264,China,Foshan,23.02,113.12,7817,269,MACAU,22.2,113.55,102,,,,,,
265,China,Fuan,27.09,119.65,527,934,KANMEN,28.08,121.28,195,,,,,,
266,China,Fujin,47.25,132.04,387,1103,WAKKANAI,45.41,141.69,769,,,,,,
267,China,Fuqing,25.72,119.38,648,727,XIAMEN,24.45,118.07,194,,,,,,
268,China,"Fushun, Liaoning",41.88,123.95,1332,1513,LAOHUTAN,38.87,121.68,386,,,,,,
269,China,Fuxin,42.02,121.66,904,614,QINHUANGDAO,39.9,119.6,292,,,,,,
270,China,Fuyang,32.89,115.82,1170,1405,LIANYUNGANG,34.75,119.45,395,,,,,,
271,China,"Fuzhou, Fujian",26.08,119.3,4072,727,XIAMEN,24.45,118.07,219,,,,,,
272,China,"Fuzhou, Jiangxi",27.98,116.36,1160,727,XIAMEN,24.45,118.07,429,,,,,,
273,China,Ganzhou,25.85,114.93,1551,1406,SHANWEI,22.75,115.35,348,,,,,,
274,China,Gaoan,28.43,115.37,542,727,XIAMEN,24.45,118.07,518,,,,,,
275,China,Gaomi,36.38,119.75,842,1404,SHIJIUSUO,35.38,119.55,113,,,,,,
276,China,Gaoping,35.8,112.92,454,1403,TANGGU,39.0,117.72,554,,,,,,
277,China,Gaoyou,32.78,119.45,592,979,LUSI,32.13,121.62,217,,,,,,
278,China,Gaozhou,21.92,110.85,640,933,ZHAPO,21.58,111.82,107,,,,,,
279,China,Gongyi,34.76,112.97,586,1405,LIANYUNGANG,34.75,119.45,592,,,,,,
280,China,Gongzhuling,43.5,124.82,400,1007,WONSAN,39.17,127.45,530,,,,,,
281,China,Guang'an,30.46,106.64,568,1408,BEIHAI,21.48,109.08,1029,,,,,,
282,China,Guangyuan,32.44,105.82,620,1408,BEIHAI,21.48,109.08,1262,,,,,,
283,China,"Guangzhou, Guangdong",23.13,113.26,14879,1366,TSIM_BEI_TSUI,22.49,114.01,105,,,,,,
284,China,Guigang,23.1,109.61,1011,1408,BEIHAI,21.48,109.08,188,,,,,,
285,China,Guilin,25.28,110.29,1239,1408,BEIHAI,21.48,109.08,441,,,,,,
286,China,Guiping,23.39,110.07,1087,1408,BEIHAI,21.48,109.08,236,,,,,,
287,China,Guiyang,26.58,106.72,3737,1408,BEIHAI,21.48,109.08,617,,,,,,
288,China,Haerbin,45.76,126.65,7067,1007,WONSAN,39.17,127.45,736,,,,,,
289,China,Haicheng,40.86,122.74,848,723,DALIAN,38.87,121.68,239,,,,,,
290,China,Haikou,20.03,110.33,2095,1428,HAIKOU,20.02,110.28,5,0.21,0.69,2.21,0.23,0.58,2.06
291,China,Hailin,44.58,129.39,353,1007,WONSAN,39.17,127.45,623,,,,,,
292,China,Haimen,31.9,121.17,715,979,LUSI,32.13,121.62,50,0.43,0.81,2.35,0.24,0.58,2.12
293,China,Haining,30.53,120.69,596,979,LUSI,32.13,121.62,199,,,,,,
294,China,Haiyang,36.78,121.17,372,731,YANTAI,37.53,121.38,85,0.06,0.46,1.98,0.22,0.56,2.08
295,China,Hami,42.83,93.52,446,1403,TANGGU,39.0,117.72,2072,,,,,,
296,China,Hanchuan,30.65,113.83,839,1405,LIANYUNGANG,34.75,119.45,696,,,,,,
297,China,Handan,36.6,114.47,3159,1403,TANGGU,39.0,117.72,391,,,,,,
298,China,Hangzhou,30.29,120.16,8591,979,LUSI,32.13,121.62,247,,,,,,
299,China,Hanzhong,33.07,107.03,668,1405,LIANYUNGANG,34.75,119.45,1162,,,,,,
300,China,Hebi,35.75,114.3,619,1403,TANGGU,39.0,117.72,472,,,,,,
301,China,Hechi,24.7,108.08,476,1408,BEIHAI,21.48,109.08,373,,,,,,
302,China,Hefei,31.86,117.28,4830,1405,LIANYUNGANG,34.75,119.45,379,,,,,,
303,China,Hegang,47.34,130.29,678,1103,WAKKANAI,45.41,141.69,900,,,,,,
304,China,Hejian,38.44,116.09,541,1403,TANGGU,39.0,117.72,154,,,,,,
305,China,Hengshui,37.74,115.68,1009,1403,TANGGU,39.0,117.72,227,,,,,,
306,China,Hengyang,26.88,112.63,1739,1366,TSIM_BEI_TSUI,22.49,114.01,509,,,,,,
307,China,Heshan,22.77,112.96,448,269,MACAU,22.2,113.55,88,0.12,0.5,1.99,0.24,0.59,2.07
308,China,Heyuan,23.75,114.7,570,1406,SHANWEI,22.75,115.35,130,,,,,,
309,China,Heze,35.25,115.46,851,1405,LIANYUNGANG,34.75,119.45,368,,,,,,
310,China,Hezhou,24.42,111.55,749,933,ZHAPO,21.58,111.82,317,,,,,,
311,China,Hohhot,40.81,111.65,2501,1403,TANGGU,39.0,117.72,556,,,,,,
312,China,Huai'an,33.61,119.01,3152,1405,LIANYUNGANG,34.75,119.45,133,,,,,,
313,China,Huaibei,33.95,116.79,1291,1405,LIANYUNGANG,34.75,119.45,260,,,,,,
314,China,Huaihua,27.55,109.96,893,1408,BEIHAI,21.48,109.08,681,,,,,,
315,China,Huainan,32.63,117.0,1564,1405,LIANYUNGANG,34.75,119.45,328,,,,,,
316,China,Huangshan,29.71,118.32,455,934,KANMEN,28.08,121.28,341,,,,,,
317,China,Huangshi,30.21,115.09,909,934,KANMEN,28.08,121.28,647,,,,,,
318,China,Huazhou,21.66,110.64,403,933,ZHAPO,21.58,111.82,123,,,,,,
319,China,Huixian,35.47,113.8,408,1405,LIANYUNGANG,34.75,119.45,520,,,,,,
320,China,Huizhou,23.08,114.4,2891,1034,TAI_PO_KAU,22.44,114.18,75,0.28,0.66,2.15,0.24,0.59,2.07
321,China,Huludao,40.75,120.84,851,614,QINHUANGDAO,39.9,119.6,141,,,,,,
322,China,Huzhou,30.87,120.09,1114,979,LUSI,32.13,121.62,202,,,,,,
323,China,Jiamusi,46.8,130.33,774,1007,WONSAN,39.17,127.45,881,,,,,,
324,China,"Ji'an, Jiangxi",27.12,114.98,491,727,XIAMEN,24.45,118.07,429,,,,,,
325,China,Jiangmen,22.58,113.08,1827,269,MACAU,22.2,113.55,64,0.12,0.5,1.99,0.24,0.59,2.07
326,China,Jiangyin,31.92,120.28,983,979,LUSI,32.13,121.62,129,,,,,,
327,China,Jianyang,30.39,104.54,551,1408,BEIHAI,21.48,109.08,1091,,,,,,
328,China,Jiaozhou,36.28,120.0,627,1404,SHIJIUSUO,35.38,119.55,109,,,,,,
329,China,Jiaozuo,35.24,113.23,820,1405,LIANYUNGANG,34.75,119.45,569,,,,,,
330,China,Jiaxing,30.77,120.75,1511,979,LUSI,32.13,121.62,173,,,,,,
331,China,Jiayuguan,39.81,98.28,397,1403,TANGGU,39.0,117.72,1672,,,,,,
332,China,Jieyang,23.55,116.37,1355,1406,SHANWEI,22.75,115.35,138,,,,,,
333,China,Jilin,43.85,126.56,1719,1007,WONSAN,39.17,127.45,526,,,,,,
334,China,"Ji'nan, Shandong",36.68,117.0,6066,1403,TANGGU,39.0,117.72,266,,,,,,
335,China,Jincheng,35.49,112.85,863,1403,TANGGU,39.0,117.72,582,,,,,,
336,China,Jingdezhen,29.29,117.21,424,934,KANMEN,28.08,121.28,420,,,,,,
337,China,Jingjiang,32.01,120.26,673,979,LUSI,32.13,121.62,129,,,,,,
338,China,Jingmen,31.04,112.2,540,1405,LIANYUNGANG,34.75,119.45,793,,,,,,
339,China,"Jingzhou, Hubei",30.33,112.25,1126,1405,LIANYUNGANG,34.75,119.45,836,,,,,,
340,China,Jinhua,29.08,119.65,1330,934,KANMEN,28.08,121.28,195,,,,,,
341,China,"Jining, Shandong",35.41,116.58,1622,1404,SHIJIUSUO,35.38,119.55,269,,,,,,
342,China,Jinjiang,24.81,118.58,554,727,XIAMEN,24.45,118.07,65,0.2,0.59,2.09,0.24,0.59,2.09
343,China,Jinzhong,37.69,112.73,680,1403,TANGGU,39.0,117.72,459,,,,,,
344,China,Jinzhou,41.11,121.14,1261,614,QINHUANGDAO,39.9,119.6,187,,,,,,
345,China,Jiujiang,29.7,116.0,1024,934,KANMEN,28.08,121.28,545,,,,,,
346,China,Jiuquan,39.74,98.5,446,1403,TANGGU,39.0,117.72,1653,,,,,,
347,China,"Jixi, Heilongjiang",45.3,130.97,1025,1007,WONSAN,39.17,127.45,741,,,,,,
348,China,Jiyuan,35.09,112.58,458,1405,LIANYUNGANG,34.75,119.45,628,,,,,,
349,China,Jurong,31.95,119.16,503,979,LUSI,32.13,121.62,233,,,,,,
350,China,Kaifeng,34.79,114.35,1467,1405,LIANYUNGANG,34.75,119.45,466,,,,,,
351,China,Kaili,26.58,107.97,387,1408,BEIHAI,21.48,109.08,579,,,,,,
352,China,Kaiping,22.37,112.7,426,269,MACAU,22.2,113.55,89,0.12,0.5,1.99,0.24,0.59,2.07
353,China,Kelamayi,45.59,84.87,513,1002,TRIBENI,22.98,88.4,2538,,,,,,
354,China,Kuerle,41.76,86.15,934,1002,TRIBENI,22.98,88.4,2102,,,,,,
355,China,Kunming,25.04,102.72,4956,841,HONDAU,20.67,106.8,642,,,,,,
356,China,Kunshan ,31.39,120.96,874,979,LUSI,32.13,121.62,103,,,,,,
357,China,Laibin,23.74,109.23,452,1408,BEIHAI,21.48,109.08,252,,,,,,
358,China,Laiwu,36.21,117.67,1031,1404,SHIJIUSUO,35.38,119.55,193,,,,,,
359,China,Laixi,36.87,120.52,585,731,YANTAI,37.53,121.38,106,,,,,,
360,China,Laiyang,36.98,120.71,413,731,YANTAI,37.53,121.38,85,0.06,0.46,1.98,0.22,0.56,2.08
361,China,Laizhou,37.18,119.94,416,731,YANTAI,37.53,121.38,133,,,,,,
362,China,Langfang,39.51,116.69,846,1403,TANGGU,39.0,117.72,105,,,,,,
363,China,Lanzhou,36.06,103.79,3431,1403,TANGGU,39.0,117.72,1271,,,,,,
364,China,Leiyang,26.42,112.85,1044,1366,TSIM_BEI_TSUI,22.49,114.01,453,,,,,,
365,China,Lengshuijiang,27.69,111.44,397,1366,TSIM_BEI_TSUI,22.49,114.01,634,,,,,,
366,China,Leping,28.97,117.13,384,934,KANMEN,28.08,121.28,418,,,,,,
367,China,Leshan,29.58,103.76,1143,841,HONDAU,20.67,106.8,1038,,,,,,
368,China,Lianyungang,34.6,119.18,2081,1405,LIANYUNGANG,34.75,119.45,30,0.13,0.6,2.13,0.22,0.56,2.07
369,China,Liaocheng,36.46,115.98,846,1403,TANGGU,39.0,117.72,322,,,,,,
370,China,Liaoyang,41.27,123.17,932,723,DALIAN,38.87,121.68,296,,,,,,
371,China,Liaoyuan,42.9,125.14,390,1007,WONSAN,39.17,127.45,459,,,,,,
372,China,Liling,27.67,113.5,1000,1406,SHANWEI,22.75,115.35,578,,,,,,
373,China,Linfen,36.09,111.52,1003,1403,TANGGU,39.0,117.72,636,,,,,,
374,China,Linhai,28.85,121.14,814,934,KANMEN,28.08,121.28,87,0.26,0.62,2.17,0.25,0.59,2.13
375,China,Linqing,36.85,115.71,413,1403,TANGGU,39.0,117.72,298,,,,,,
376,China,"Linyi, Shandong",35.05,118.33,2161,1405,LIANYUNGANG,34.75,119.45,107,,,,,,
377,China,Linzhou,36.07,113.82,455,1403,TANGGU,39.0,117.72,474,,,,,,
378,China,"Lishui, Zhejiang",28.46,119.92,487,934,KANMEN,28.08,121.28,140,,,,,,
379,China,Liuan,31.75,116.5,1471,1405,LIANYUNGANG,34.75,119.45,432,,,,,,
380,China,Liupanshui,26.59,104.84,1310,841,HONDAU,20.67,106.8,689,,,,,,
381,China,Liuyang,28.15,113.63,1476,727,XIAMEN,24.45,118.07,605,,,,,,
382,China,Liuzhou,24.3,109.38,2448,1408,BEIHAI,21.48,109.08,316,,,,,,
383,China,Liyang,31.42,119.48,503,979,LUSI,32.13,121.62,217,,,,,,
384,China,Longchang,29.34,105.29,462,1408,BEIHAI,21.48,109.08,954,,,,,,
385,China,Longhai,24.45,117.81,736,727,XIAMEN,24.45,118.07,26,0.2,0.59,2.09,0.24,0.59,2.09
386,China,Longkou,37.64,120.52,589,731,YANTAI,37.53,121.38,77,0.06,0.46,1.98,0.22,0.56,2.08
387,China,Longyan,25.11,117.02,753,727,XIAMEN,24.45,118.07,129,,,,,,
388,China,Loudi,27.73,111.99,747,1366,TSIM_BEI_TSUI,22.49,114.01,618,,,,,,
389,China,Luoding,22.77,111.57,408,933,ZHAPO,21.58,111.82,135,,,,,,
390,China,Luohe,33.57,114.02,1279,1405,LIANYUNGANG,34.75,119.45,517,,,,,,
391,China,Luoyang,34.62,112.46,2726,1405,LIANYUNGANG,34.75,119.45,640,,,,,,
392,China,Luzhou,28.88,105.44,884,1408,BEIHAI,21.48,109.08,901,,,,,,
393,China,Lvliang,37.52,111.13,540,1403,TANGGU,39.0,117.72,599,,,,,,
394,China,Ma'anshan,31.71,118.5,1166,979,LUSI,32.13,121.62,298,,,,,,
395,China,Macheng,31.18,115.03,384,1405,LIANYUNGANG,34.75,119.45,573,,,,,,
396,China,Manzhouli,49.59,117.45,382,614,QINHUANGDAO,39.9,119.6,1092,,,,,,
397,China,Maoming,21.66,110.92,1362,933,ZHAPO,21.58,111.82,93,0.23,0.61,2.09,0.24,0.59,2.06
398,China,Meishan,30.08,103.85,837,841,HONDAU,20.67,106.8,1088,,,,,,
399,China,Meizhou,24.3,116.12,429,1406,SHANWEI,22.75,115.35,190,,,,,,
400,China,"Mianyang, Sichuan",31.48,104.74,1401,1408,BEIHAI,21.48,109.08,1194,,,,,,
401,China,Miluo,28.81,113.07,751,727,XIAMEN,24.45,118.07,695,,,,,,
402,China,Mudanjiang,44.58,129.6,1009,1007,WONSAN,39.17,127.45,628,,,,,,
403,China,Nanchang,28.68,115.88,4104,727,XIAMEN,24.45,118.07,519,,,,,,
404,China,Nanchong,30.8,106.08,1445,1408,BEIHAI,21.48,109.08,1079,,,,,,
405,China,"Nanjing, Jiangsu",32.05,118.79,10175,979,LUSI,32.13,121.62,267,,,,,,
406,China,Nankang,25.67,114.76,489,1406,SHANWEI,22.75,115.35,330,,,,,,
407,China,Nanning,22.82,108.32,4384,1408,BEIHAI,21.48,109.08,168,,,,,,
408,China,Nanping,26.64,118.17,539,727,XIAMEN,24.45,118.07,244,,,,,,
409,China,Nantong,31.99,120.87,2614,979,LUSI,32.13,121.62,73,0.43,0.81,2.35,0.24,0.58,2.12
410,China,"Nanyang, Henan",33.0,112.53,1275,1405,LIANYUNGANG,34.75,119.45,669,,,,,,
411,China,Neijiang,29.58,105.06,692,1408,BEIHAI,21.48,109.08,988,,,,,,
412,China,Ningbo,29.88,121.55,4770,934,KANMEN,28.08,121.28,202,,,,,,
413,China,Ningde,26.66,119.52,377,934,KANMEN,28.08,121.28,235,,,,,,
414,China,Ningguo,30.62,118.98,406,979,LUSI,32.13,121.62,302,,,,,,
415,China,Panjin,41.12,122.07,1164,614,QINHUANGDAO,39.9,119.6,249,,,,,,
416,China,Panzhihua,26.59,101.71,762,841,HONDAU,20.67,106.8,838,,,,,,
417,China,"Pingdingshan, Henan",33.74,113.3,1313,1405,LIANYUNGANG,34.75,119.45,576,,,,,,
418,China,Pingdu,36.78,119.96,580,731,YANTAI,37.53,121.38,151,,,,,,
419,China,Pinghu,30.7,121.01,519,979,LUSI,32.13,121.62,169,,,,,,
420,China,Pingliang,35.54,106.69,447,1403,TANGGU,39.0,117.72,1050,,,,,,
421,China,"Pingxiang, Jiangxi",27.63,113.85,1042,727,XIAMEN,24.45,118.07,551,,,,,,
422,China,Pizhou,34.31,117.95,1282,1405,LIANYUNGANG,34.75,119.45,146,,,,,,
423,China,Puning,23.3,116.16,1309,1406,SHANWEI,22.75,115.35,103,,,,,,
424,China,Putian,25.44,119.01,2315,727,XIAMEN,24.45,118.07,145,,,,,,
425,China,Puyang,35.77,115.04,730,1404,SHIJIUSUO,35.38,119.55,410,,,,,,
426,China,Qianjiang,30.42,112.89,558,1405,LIANYUNGANG,34.75,119.45,781,,,,,,
427,China,Qidong,31.81,121.66,415,979,LUSI,32.13,121.62,35,0.43,0.81,2.35,0.24,0.58,2.12
428,China,Qingdao,36.1,120.37,6218,1404,SHIJIUSUO,35.38,119.55,109,,,,,,
429,China,Qingyuan,23.71,113.03,791,1366,TSIM_BEI_TSUI,22.49,114.01,169,,,,,,
430,China,Qingzhou,36.68,118.48,591,1404,SHIJIUSUO,35.38,119.55,174,,,,,,
431,China,Qinhuangdao,39.93,119.59,1763,614,QINHUANGDAO,39.9,119.6,4,0.07,0.47,1.96,0.19,0.54,2.03
432,China,Qinzhou,21.97,108.62,726,1408,BEIHAI,21.48,109.08,72,0.07,0.54,2.03,0.24,0.58,2.04
433,China,Qiqihaer,47.34,123.97,1689,614,QINHUANGDAO,39.9,119.6,900,,,,,,
434,China,Qitaihe,45.77,130.98,628,1007,WONSAN,39.17,127.45,789,,,,,,
435,China,Quanzhou,24.9,118.6,1967,727,XIAMEN,24.45,118.07,73,0.2,0.59,2.09,0.24,0.59,2.09
436,China,Qufu,35.6,116.99,402,1404,SHIJIUSUO,35.38,119.55,233,,,,,,
437,China,Qujing,25.49,103.8,1092,841,HONDAU,20.67,106.8,618,,,,,,
438,China,Quzhou,28.96,118.87,930,934,KANMEN,28.08,121.28,255,,,,,,
439,China,Renqiu,38.7,116.09,746,1403,TANGGU,39.0,117.72,145,,,,,,
440,China,Rizhao,35.4,119.51,1459,1404,SHIJIUSUO,35.38,119.55,4,-0.01,0.46,1.99,0.21,0.56,2.06
441,China,Rongcheng,37.15,122.44,439,731,YANTAI,37.53,121.38,102,,,,,,
442,China,Rugao,32.4,120.56,351,979,LUSI,32.13,121.62,104,,,,,,
443,China,Ruian,27.78,120.68,1345,934,KANMEN,28.08,121.28,68,0.26,0.62,2.17,0.25,0.59,2.13
444,China,Rushan,36.92,121.53,355,731,YANTAI,37.53,121.38,70,0.06,0.46,1.98,0.22,0.56,2.08
445,China,Sanhe,39.98,117.07,697,1403,TANGGU,39.0,117.72,123,,,,,,
446,China,Sanmenxia,34.77,111.2,642,1403,TANGGU,39.0,117.72,747,,,,,,
447,China,Sanming,26.26,117.62,402,727,XIAMEN,24.45,118.07,207,,,,,,
448,China,Sanya,18.27,109.5,713,1428,HAIKOU,20.02,110.28,211,,,,,,
449,China,Shanghai,31.22,121.46,30482,979,LUSI,32.13,121.62,102,,,,,,
450,China,Shangqiu,34.42,115.65,935,1405,LIANYUNGANG,34.75,119.45,350,,,,,,
451,China,Shangrao,28.46,117.95,1154,934,KANMEN,28.08,121.28,329,,,,,,
452,China,Shangyu,30.03,120.87,574,934,KANMEN,28.08,121.28,221,,,,,,
453,China,Shantou,23.37,116.71,4738,1406,SHANWEI,22.75,115.35,156,,,,,,
454,China,Shanwei,22.78,115.36,467,1406,SHANWEI,22.75,115.35,3,0.11,0.59,2.11,0.24,0.59,2.08
455,China,Shaoguan,24.8,113.58,805,1366,TSIM_BEI_TSUI,22.49,114.01,261,,,,,,
456,China,Shaoxing,30.01,120.57,2951,934,KANMEN,28.08,121.28,226,,,,,,
457,China,Shaoyang,27.24,111.47,791,1366,TSIM_BEI_TSUI,22.49,114.01,588,,,,,,
458,China,Shengzhou,29.59,120.82,436,934,KANMEN,28.08,121.28,174,,,,,,
459,China,Shenmu,38.83,110.48,387,1403,TANGGU,39.0,117.72,627,,,,,,
460,China,Shenyang,41.79,123.43,7974,1513,LAOHUTAN,38.87,121.68,358,,,,,,
461,China,Shenzhen,22.54,114.06,13545,1366,TSIM_BEI_TSUI,22.49,114.01,8,0.08,0.48,1.97,0.24,0.59,2.07
462,China,Shihezi,44.31,86.03,349,1002,TRIBENI,22.98,88.4,2384,,,,,,
463,China,Shijiazhuang,38.04,114.51,4535,1403,TANGGU,39.0,117.72,299,,,,,,
464,China,Shishi,24.74,118.63,649,727,XIAMEN,24.45,118.07,65,0.2,0.59,2.09,0.24,0.59,2.09
465,China,Shiyan,32.64,110.78,1418,1405,LIANYUNGANG,34.75,119.45,836,,,,,,
466,China,Shizuishan,39.23,106.77,574,1403,TANGGU,39.0,117.72,946,,,,,,
467,China,Shouguang,36.88,118.75,589,1404,SHIJIUSUO,35.38,119.55,182,,,,,,
468,China,Shuangyashan,46.64,131.15,532,1103,WAKKANAI,45.41,141.69,825,,,,,,
469,China,Shuozhou,39.32,112.42,655,1403,TANGGU,39.0,117.72,459,,,,,,
470,China,Sihui,23.35,112.7,710,269,MACAU,22.2,113.55,155,,,,,,
471,China,Siping,43.16,124.37,648,1007,WONSAN,39.17,127.45,514,,,,,,
472,China,Songyuan,27.62,119.06,551,934,KANMEN,28.08,121.28,224,,,,,,
473,China,Songzi,30.17,111.78,366,1405,LIANYUNGANG,34.75,119.45,882,,,,,,
474,China,Suihua,46.64,126.98,459,1007,WONSAN,39.17,127.45,832,,,,,,
475,China,"Suining, Sichuan",30.52,105.56,781,1408,BEIHAI,21.48,109.08,1066,,,,,,
476,China,Suizhou,31.71,113.36,481,1405,LIANYUNGANG,34.75,119.45,660,,,,,,
477,China,Suqian,33.97,118.29,1780,1405,LIANYUNGANG,34.75,119.45,137,,,,,,
478,China,"Suzhou, Anhui",33.64,116.97,1385,1405,LIANYUNGANG,34.75,119.45,259,,,,,,
479,China,"Suzhou, Jiangsu",31.3,120.59,8593,979,LUSI,32.13,121.62,135,,,,,,
480,China,"Taian, Shandong",36.19,117.12,1467,1404,SHIJIUSUO,35.38,119.55,237,,,,,,
481,China,Taicang,31.45,121.12,765,979,LUSI,32.13,121.62,89,0.43,0.81,2.35,0.24,0.58,2.12
482,China,Taishan,22.25,112.79,593,269,MACAU,22.2,113.55,78,0.12,0.5,1.99,0.24,0.59,2.07
483,China,Taixing,32.17,120.01,848,979,LUSI,32.13,121.62,151,,,,,,
484,China,"Taiyuan, Shanxi",37.86,112.55,4305,1403,TANGGU,39.0,117.72,468,,,,,,
485,China,"Taizhou, Jiangsu",32.49,119.9,1507,979,LUSI,32.13,121.62,167,,,,,,
486,China,"Taizhou, Zhejiang",28.64,121.42,2199,934,KANMEN,28.08,121.28,63,0.26,0.62,2.17,0.25,0.59,2.13
487,China,"Tangshan, Hebei",39.63,118.18,4024,1403,TANGGU,39.0,117.72,80,0.02,0.5,2.01,0.15,0.5,1.99
488,China,Tengzhou,35.08,117.16,1395,1405,LIANYUNGANG,34.75,119.45,212,,,,,,
489,China,Tianjin,39.11,117.19,14704,1403,TANGGU,39.0,117.72,48,0.02,0.5,2.01,0.15,0.5,1.99
490,China,Tianmen,30.65,113.16,1001,1405,LIANYUNGANG,34.75,119.45,745,,,,,,
491,China,Tianshui,34.58,105.72,878,1403,TANGGU,39.0,117.72,1176,,,,,,
492,China,Tieling,42.29,123.84,439,1513,LAOHUTAN,38.87,121.68,423,,,,,,
493,China,Tongcheng,31.05,116.96,494,979,LUSI,32.13,121.62,458,,,,,,
494,China,Tongchuan,34.9,108.95,597,1403,TANGGU,39.0,117.72,903,,,,,,
495,China,Tonghua,41.72,125.93,629,1007,WONSAN,39.17,127.45,312,,,,,,
496,China,Tongliao,43.61,122.27,788,614,QINHUANGDAO,39.9,119.6,469,,,,,,
497,China,Tongling,30.94,117.81,786,979,LUSI,32.13,121.62,385,,,,,,
498,China,Tongxiang,30.63,120.55,745,979,LUSI,32.13,121.62,195,,,,,,
499,China,Ürümqi (Wulumqi),43.83,87.6,5132,1002,TRIBENI,22.98,88.4,2322,,,,,,
500,China,Wafangdian ,39.63,121.99,494,1513,LAOHUTAN,38.87,121.68,88,0.19,0.55,2.06,0.22,0.56,2.08
501,China,Wanning,18.8,110.38,435,1428,HAIKOU,20.02,110.28,137,,,,,,
502,China,Weifang,36.71,119.1,3064,1404,SHIJIUSUO,35.38,119.55,153,,,,,,
503,China,Weihai,37.5,122.11,1499,731,YANTAI,37.53,121.38,65,0.06,0.46,1.98,0.22,0.56,2.08
504,China,Weinan,34.5,109.51,610,1403,TANGGU,39.0,117.72,886,,,,,,
505,China,Wenchang,19.61,110.75,409,1428,HAIKOU,20.02,110.28,67,0.21,0.69,2.21,0.23,0.58,2.06
506,China,Wenling,28.38,121.38,1185,934,KANMEN,28.08,121.28,34,0.26,0.62,2.17,0.25,0.59,2.13
507,China,Wenzhou,28.0,120.67,4093,934,KANMEN,28.08,121.28,61,0.26,0.62,2.17,0.25,0.59,2.13
508,China,Wuchuan ,21.43,110.78,369,933,ZHAPO,21.58,111.82,109,,,,,,
509,China,Wuhai,39.66,106.81,701,1403,TANGGU,39.0,117.72,942,,,,,,
510,China,Wuhan,30.58,114.27,8986,1405,LIANYUNGANG,34.75,119.45,671,,,,,,
511,China,"Wuhu, Anhui",31.33,118.38,2257,979,LUSI,32.13,121.62,319,,,,,,
512,China,Wulanhaote,46.07,122.07,369,614,QINHUANGDAO,39.9,119.6,716,,,,,,
513,China,Wuwei,37.93,102.63,440,1403,TANGGU,39.0,117.72,1319,,,,,,
514,China,"Wuxi, Jiangsu",31.54,120.3,3559,979,LUSI,32.13,121.62,141,,,,,,
515,China,Wuzhou,23.48,111.27,784,933,ZHAPO,21.58,111.82,219,,,,,,
516,China,Xiamen,24.48,118.08,4078,727,XIAMEN,24.45,118.07,4,0.2,0.59,2.09,0.24,0.59,2.09
517,China,"Xi'an, Shaanxi",34.29,108.94,9222,1403,TANGGU,39.0,117.72,943,,,,,,
518,China,"Xiangtan, Hunan",27.83,112.93,1274,1366,TSIM_BEI_TSUI,22.49,114.01,604,,,,,,
519,China,Xiangyang,32.01,112.14,1802,1405,LIANYUNGANG,34.75,119.45,744,,,,,,
520,China,Xianning,29.84,114.33,369,934,KANMEN,28.08,121.28,704,,,,,,
521,China,Xiantao,30.37,113.45,625,1405,LIANYUNGANG,34.75,119.45,744,,,,,,
522,China,"Xianyang, Shaanxi",34.34,108.7,766,1403,TANGGU,39.0,117.72,957,,,,,,
523,China,Xiaogan,30.93,113.92,888,1405,LIANYUNGANG,34.75,119.45,670,,,,,,
524,China,Xinghua,32.94,119.84,902,979,LUSI,32.13,121.62,190,,,,,,
525,China,Xingning,24.15,115.73,597,1406,SHANWEI,22.75,115.35,160,,,,,,
526,China,Xingping,34.3,108.49,470,1403,TANGGU,39.0,117.72,976,,,,,,
527,China,Xingtai,37.06,114.49,921,1403,TANGGU,39.0,117.72,356,,,,,,
528,China,Xingyang,34.79,113.38,461,1405,LIANYUNGANG,34.75,119.45,555,,,,,,
529,China,"Xingyi, Guizhou",25.09,104.9,396,841,HONDAU,20.67,106.8,530,,,,,,
530,China,Xining,36.62,101.77,1741,1403,TANGGU,39.0,117.72,1426,,,,,,
531,China,Xinmi,34.54,113.39,685,1405,LIANYUNGANG,34.75,119.45,556,,,,,,
532,China,Xintai,35.9,117.75,1073,1404,SHIJIUSUO,35.38,119.55,173,,,,,,
533,China,Xinxiang,35.3,113.9,1181,1405,LIANYUNGANG,34.75,119.45,509,,,,,,
534,China,Xinyang,32.13,114.07,890,1405,LIANYUNGANG,34.75,119.45,578,,,,,,
535,China,Xinyi,34.37,118.34,640,1405,LIANYUNGANG,34.75,119.45,110,,,,,,
536,China,Xinyi,22.36,110.94,441,933,ZHAPO,21.58,111.82,126,,,,,,
537,China,Xinyu,27.8,114.93,1004,727,XIAMEN,24.45,118.07,487,,,,,,
538,China,Xinzheng,34.4,113.74,500,1405,LIANYUNGANG,34.75,119.45,525,,,,,,
539,China,Xinzhou,38.42,112.73,424,1403,TANGGU,39.0,117.72,438,,,,,,
540,China,Xiongan,38.98,116.08,1289,1403,TANGGU,39.0,117.72,142,,,,,,
541,China,Xuancheng,30.95,118.75,543,979,LUSI,32.13,121.62,302,,,,,,
542,China,Xuanwei,26.23,104.1,394,841,HONDAU,20.67,106.8,677,,,,,,
543,China,Xuchang,34.02,113.82,1117,1405,LIANYUNGANG,34.75,119.45,524,,,,,,
544,China,Xuzhou,34.26,117.19,2376,1405,LIANYUNGANG,34.75,119.45,215,,,,,,
545,China,Yaan,29.99,102.99,412,841,HONDAU,20.67,106.8,1105,,,,,,
546,China,Yan'an,36.6,109.48,814,1403,TANGGU,39.0,117.72,772,,,,,,
547,China,"Yancheng, Jiangsu",33.36,120.16,2073,1405,LIANYUNGANG,34.75,119.45,168,,,,,,
548,China,Yangchun,22.17,111.79,324,933,ZHAPO,21.58,111.82,66,0.23,0.61,2.09,0.24,0.59,2.06
549,China,Yangjiang,21.86,111.96,996,933,ZHAPO,21.58,111.82,34,0.23,0.61,2.09,0.24,0.59,2.06
550,China,Yangquan,37.86,113.58,887,1403,TANGGU,39.0,117.72,383,,,,,,
551,China,Yangzhou,32.39,119.42,2217,979,LUSI,32.13,121.62,209,,,,,,
552,China,Yanji,42.91,129.51,793,1007,WONSAN,39.17,127.45,450,,,,,,
553,China,Yanshi,34.73,112.78,613,1405,LIANYUNGANG,34.75,119.45,610,,,,,,
554,China,Yantai,37.47,121.44,2898,731,YANTAI,37.53,121.38,9,0.06,0.46,1.98,0.22,0.56,2.08
555,China,Yibin,28.77,104.62,897,1408,BEIHAI,21.48,109.08,927,,,,,,
556,China,Yichang,30.71,111.28,1800,1405,LIANYUNGANG,34.75,119.45,886,,,,,,
557,China,"Yichun, Heilongjiang",47.72,128.83,600,1007,WONSAN,39.17,127.45,959,,,,,,
558,China,"Yichun, Jiangxi",27.81,114.39,1159,727,XIAMEN,24.45,118.07,524,,,,,,
559,China,Yinchuan,38.47,106.27,1796,1403,TANGGU,39.0,117.72,995,,,,,,
560,China,Yingde,24.2,113.41,478,1366,TSIM_BEI_TSUI,22.49,114.01,200,,,,,,
561,China,Yingkou,40.66,122.23,1385,1513,LAOHUTAN,38.87,121.68,205,,,,,,
562,China,Yining,43.92,81.32,389,1002,TRIBENI,22.98,88.4,2420,,,,,,
563,China,Yiwu,29.32,120.08,1564,934,KANMEN,28.08,121.28,181,,,,,,
564,China,Yixing,31.36,119.78,479,979,LUSI,32.13,121.62,194,,,,,,
565,China,"Yiyang, Hunan",28.57,112.35,638,1366,TSIM_BEI_TSUI,22.49,114.01,697,,,,,,
566,China,Yongcheng,33.93,116.44,548,1405,LIANYUNGANG,34.75,119.45,291,,,,,,
567,China,Yongkang,28.9,120.03,603,934,KANMEN,28.08,121.28,153,,,,,,
568,China,Yongzhou,26.44,111.61,904,1366,TSIM_BEI_TSUI,22.49,114.01,502,,,,,,
569,China,Yuanjiang,28.84,112.36,380,1366,TSIM_BEI_TSUI,22.49,114.01,726,,,,,,
570,China,Yueqing,28.12,120.96,1230,934,KANMEN,28.08,121.28,32,0.26,0.62,2.17,0.25,0.59,2.13
571,China,Yueyang,29.37,113.12,1080,727,XIAMEN,24.45,118.07,736,,,,,,
572,China,Yuhuan,28.14,121.23,517,934,KANMEN,28.08,121.28,8,0.26,0.62,2.17,0.25,0.59,2.13
573,China,"Yulin, Guangxi",22.63,110.15,661,1408,BEIHAI,21.48,109.08,170,,,,,,
574,China,"Yulin, Shaanxi",38.28,109.73,754,1403,TANGGU,39.0,117.72,699,,,,,,
575,China,Yuncheng,35.02,110.99,797,1403,TANGGU,39.0,117.72,744,,,,,,
576,China,Yunfu,22.93,112.04,395,933,ZHAPO,21.58,111.82,152,,,,,,
577,China,Yushu,44.82,126.55,398,1007,WONSAN,39.17,127.45,634,,,,,,
578,China,Yuxi,24.36,102.54,796,841,HONDAU,20.67,106.8,600,,,,,,
579,China,Yuyao,30.04,121.15,759,934,KANMEN,28.08,121.28,219,,,,,,
580,China,Zaoyang,32.13,112.75,627,1405,LIANYUNGANG,34.75,119.45,687,,,,,,
581,China,Zaozhuang,34.86,117.55,1168,1405,LIANYUNGANG,34.75,119.45,174,,,,,,
582,China,Zhangjiagang,31.86,120.54,775,979,LUSI,32.13,121.62,106,,,,,,
583,China,Zhangjiakou,40.81,114.88,1598,1403,TANGGU,39.0,117.72,315,,,,,,
584,China,Zhangshu,28.07,115.55,385,727,XIAMEN,24.45,118.07,475,,,,,,
585,China,Zhangye,38.93,100.45,475,1403,TANGGU,39.0,117.72,1492,,,,,,
586,China,Zhangzhou,24.51,117.66,1002,727,XIAMEN,24.45,118.07,43,0.2,0.59,2.09,0.24,0.59,2.09
587,China,Zhanjiang,21.27,110.36,1425,1408,BEIHAI,21.48,109.08,135,,,,,,
588,China,Zhaodong,46.07,125.99,647,1007,WONSAN,39.17,127.45,777,,,,,,
589,China,Zhaoqing,23.05,112.46,1150,269,MACAU,22.2,113.55,147,,,,,,
590,China,Zhaotong,27.34,103.72,382,841,HONDAU,20.67,106.8,805,,,,,,
591,China,Zhaoyuan,37.36,120.4,385,731,YANTAI,37.53,121.38,89,0.06,0.46,1.98,0.22,0.56,2.08
592,China,Zhengzhou,34.76,113.65,6156,1405,LIANYUNGANG,34.75,119.45,531,,,,,,
593,China,"Zhenjiang, Jiangsu",32.2,119.45,1299,979,LUSI,32.13,121.62,205,,,,,,
594,China,Zhongshan,22.52,113.38,3094,269,MACAU,22.2,113.55,39,0.12,0.5,1.99,0.24,0.59,2.07
595,China,Zhongxiang,31.17,112.58,530,1405,LIANYUNGANG,34.75,119.45,755,,,,,,
596,China,Zhoukou,33.62,114.65,746,1405,LIANYUNGANG,34.75,119.45,460,,,,,,
597,China,Zhoushan,29.99,122.21,710,934,KANMEN,28.08,121.28,231,,,,,,
598,China,Zhuanghe,39.71,122.97,547,723,DALIAN,38.87,121.68,145,,,,,,
599,China,Zhucheng,35.99,119.4,1045,1404,SHIJIUSUO,35.38,119.55,70,-0.01,0.46,1.99,0.21,0.56,2.06
600,China,Zhuhai,22.28,113.57,1969,269,MACAU,22.2,113.55,9,0.12,0.5,1.99,0.24,0.59,2.07
601,China,Zhuji,29.71,120.24,869,934,KANMEN,28.08,121.28,208,,,,,,
602,China,Zhumadian,32.98,114.03,851,1405,LIANYUNGANG,34.75,119.45,538,,,,,,
603,China,Zhuozhou,39.48,115.98,404,1403,TANGGU,39.0,117.72,160,,,,,,
604,China,Zhuzhou,27.83,113.15,1299,1366,TSIM_BEI_TSUI,22.49,114.01,601,,,,,,
605,China,Zibo,36.79,118.06,2876,1404,SHIJIUSUO,35.38,119.55,206,,,,,,
606,China,Zigong,29.34,104.78,792,1408,BEIHAI,21.48,109.08,976,,,,,,
607,China,Zixing,25.98,113.23,388,1366,TSIM_BEI_TSUI,22.49,114.01,396,,,,,,
608,China,Ziyang,30.13,104.63,565,1408,BEIHAI,21.48,109.08,1060,,,,,,
609,China,Zunyi,27.71,106.94,1434,1408,BEIHAI,21.48,109.08,727,,,,,,
610,"China, Hong Kong SAR",Hong Kong,22.28,114.19,7769,1674,QUARRY_BAY,22.29,114.21,2,0.13,0.56,2.06,0.24,0.59,2.08
611,"China, Macao SAR",Macao,22.2,113.55,701,269,MACAU,22.2,113.55,0,0.12,0.5,1.99,0.24,0.59,2.07
612,"China, Taiwan Province of China",Gaoxiong,22.63,120.32,1566,1356,KAOHSIUNG_II,22.53,120.32,11,0.05,0.56,2.12,0.24,0.61,2.14
613,"China, Taiwan Province of China",Jilong,25.13,121.74,371,545,KEELUNG_II,25.13,121.73,1,0.16,0.57,2.14,0.25,0.61,2.16
614,"China, Taiwan Province of China",Taibei,25.05,121.55,2779,545,KEELUNG_II,25.13,121.73,21,0.16,0.57,2.14,0.25,0.61,2.16
615,"China, Taiwan Province of China",Tainan,23.13,120.26,881,1356,KAOHSIUNG_II,22.53,120.32,67,0.05,0.56,2.12,0.24,0.61,2.14
616,"China, Taiwan Province of China",Taizhong,24.14,120.67,1393,545,KEELUNG_II,25.13,121.73,153,,,,,,
617,"China, Taiwan Province of China",Taoyuan,24.99,121.3,2357,545,KEELUNG_II,25.13,121.73,46,0.16,0.57,2.14,0.25,0.61,2.16
618,"China, Taiwan Province of China",Xinbei,25.01,121.46,4564,545,KEELUNG_II,25.13,121.73,30,0.16,0.57,2.14,0.25,0.61,2.16
619,"China, Taiwan Province of China",Xinzhu,24.8,120.97,467,545,KEELUNG_II,25.13,121.73,85,0.16,0.57,2.14,0.25,0.61,2.16
620,Colombia,Armenia,4.53,-75.68,428,456,BUENAVENTURA,3.9,-77.1,173,,,,,,
621,Colombia,Barranquilla,10.96,-74.8,2396,572,CARTAGENA,10.4,-75.55,104,,,,,,
622,Colombia,Bogotá,4.61,-74.08,11796,456,BUENAVENTURA,3.9,-77.1,344,,,,,,
623,Colombia,Bucaramanga,7.13,-73.12,1411,572,CARTAGENA,10.4,-75.55,452,,,,,,
624,Colombia,Buenaventura,3.89,-77.07,488,456,BUENAVENTURA,3.9,-77.1,4,0.17,0.51,1.97,0.24,0.56,2.02
625,Colombia,Cali,3.44,-76.52,2917,456,BUENAVENTURA,3.9,-77.1,82,0.17,0.51,1.97,0.24,0.56,2.02
626,Colombia,Cartagena,10.4,-75.51,1106,572,CARTAGENA,10.4,-75.55,4,0.45,0.82,2.31,0.29,0.64,2.13
627,Colombia,Cúcuta,7.89,-72.51,982,572,CARTAGENA,10.4,-75.55,435,,,,,,
628,Colombia,Ibagué,4.44,-75.23,610,456,BUENAVENTURA,3.9,-77.1,216,,,,,,
629,Colombia,Manizales,5.07,-75.52,461,456,BUENAVENTURA,3.9,-77.1,219,,,,,,
630,Colombia,Medellín,6.25,-75.56,4173,456,BUENAVENTURA,3.9,-77.1,312,,,,,,
631,Colombia,Monteria,8.75,-75.88,457,572,CARTAGENA,10.4,-75.55,187,,,,,,
632,Colombia,Neiva,2.93,-75.28,369,456,BUENAVENTURA,3.9,-77.1,229,,,,,,
633,Colombia,Pasto,1.21,-77.28,403,639,TUMACO,1.83,-78.73,175,,,,,,
634,Colombia,Pereira,4.81,-75.7,590,456,BUENAVENTURA,3.9,-77.1,186,,,,,,
635,Colombia,Santa Marta,11.24,-74.2,557,572,CARTAGENA,10.4,-75.55,175,,,,,,
636,Colombia,Valledupar,10.46,-73.25,592,572,CARTAGENA,10.4,-75.55,252,,,,,,
637,Colombia,Villavicencio,4.14,-73.63,585,456,BUENAVENTURA,3.9,-77.1,387,,,,,,
638,Congo,Brazzaville,-4.27,15.28,2813,1049,TEMA,5.62,0.0,2024,,,,,,
639,Congo,Pointe-Noire,-4.78,11.86,1424,1049,TEMA,5.62,0.0,1755,,,,,,
640,Costa Rica,Alajuela,10.02,-84.22,435,464,PUNTARENAS,9.97,-84.83,67,0.27,0.62,2.13,0.25,0.58,2.09
641,Costa Rica,Heredia,10.0,-84.12,359,464,PUNTARENAS,9.97,-84.83,78,0.27,0.62,2.13,0.25,0.58,2.09
642,Costa Rica,San José,9.93,-84.08,1503,464,PUNTARENAS,9.97,-84.83,82,0.27,0.62,2.13,0.25,0.58,2.09
643,Côte d'Ivoire,Abidjan,5.35,-4.03,6057,331,TAKORADI,4.88,-1.75,258,,,,,,
644,Côte d'Ivoire,Bouake,7.69,-5.03,636,331,TAKORADI,4.88,-1.75,479,,,,,,
645,Croatia,Zagreb,45.81,15.98,684,353,BAKAR,45.3,14.53,127,,,,,,
646,Cuba,Camaguey,21.38,-77.92,314,1910,CABO_CRUZ,19.83,-77.73,174,,,,,,
647,Cuba,La Habana (Havana),23.12,-82.38,2156,1162,SIBONEY,23.1,-82.47,10,0.38,0.72,2.2,0.28,0.61,2.09
648,Cuba,Santiago de Cuba,20.02,-75.82,443,418,GUANTANAMO_BAY,19.91,-75.15,71,0.28,0.65,2.14,0.26,0.6,2.09
649,Czechia,Brno,49.2,16.61,381,154,TRIESTE,45.65,13.76,449,,,,,,
650,Czechia,Praha (Prague),50.09,14.42,1332,2,SWINOUJSCIE,53.92,14.23,427,,,,,,
651,Dem. People's Republic of Korea,Chongjin,41.8,129.78,662,1007,WONSAN,39.17,127.45,352,,,,,,
652,Dem. People's Republic of Korea,Hamhung,39.92,127.54,546,1007,WONSAN,39.17,127.45,84,0.18,0.59,2.13,0.25,0.57,2.1
653,Dem. People's Republic of Korea,P'yongyang,39.03,125.75,3209,1007,WONSAN,39.17,127.45,147,,,,,,
654,Dem. People's Republic of Korea,Sinuiju,40.1,124.4,333,1513,LAOHUTAN,38.87,121.68,271,,,,,,
655,Dem. People's Republic of Korea,Wonsan,39.15,127.44,366,1007,WONSAN,39.17,127.45,2,0.18,0.59,2.13,0.25,0.57,2.1
656,Democratic Republic of the Congo,Bukavu,-2.51,28.86,1369,2183,MOMBASA_II,-4.07,39.65,1212,,,,,,
657,Democratic Republic of the Congo,Bunia,1.57,30.25,900,2183,MOMBASA_II,-4.07,39.65,1220,,,,,,
658,Democratic Republic of the Congo,Goma,-1.68,29.22,820,2183,MOMBASA_II,-4.07,39.65,1189,,,,,,
659,Democratic Republic of the Congo,Kabinda,-6.14,24.48,640,1600,ZANZIBAR,-6.15,39.18,1627,,,,,,
660,Democratic Republic of the Congo,Kananga,-5.9,22.42,1816,1600,ZANZIBAR,-6.15,39.18,1856,,,,,,
661,Democratic Republic of the Congo,Kikwit,-5.04,18.82,615,914,WALVIS_BAY,-22.95,14.5,2047,,,,,,
662,Democratic Republic of the Congo,Kinshasa,-4.33,15.31,17778,1049,TEMA,5.62,0.0,2031,,,,,,
663,Democratic Republic of the Congo,Kisangani,0.52,25.2,1547,2183,MOMBASA_II,-4.07,39.65,1686,,,,,,
664,Democratic Republic of the Congo,Kolwezi,-10.71,25.47,555,1600,ZANZIBAR,-6.15,39.18,1593,,,,,,
665,Democratic Republic of the Congo,Likasi,-10.98,26.73,676,1600,ZANZIBAR,-6.15,39.18,1471,,,,,,
666,Democratic Republic of the Congo,Lubumbashi,-11.66,27.48,3061,1600,ZANZIBAR,-6.15,39.18,1425,,,,,,
667,Democratic Republic of the Congo,Matadi,-5.82,13.47,466,914,WALVIS_BAY,-22.95,14.5,1910,,,,,,
668,Democratic Republic of the Congo,Mbandaka,0.05,18.26,535,1049,TEMA,5.62,0.0,2122,,,,,,
669,Democratic Republic of the Congo,Mbuji-Mayi,-6.15,23.6,3158,1600,ZANZIBAR,-6.15,39.18,1724,,,,,,
670,Democratic Republic of the Congo,Tshikapa,-6.42,20.8,1186,914,WALVIS_BAY,-22.95,14.5,1961,,,,,,
671,Democratic Republic of the Congo,Uvira,-3.4,29.14,761,1600,ZANZIBAR,-6.15,39.18,1155,,,,,,
672,Denmark,København (Copenhagen),55.68,12.57,1401,82,KOBENHAVN,55.7,12.6,3,0.1,0.52,1.76,0.17,0.59,1.83
673,Djibouti,Djibouti,11.59,43.14,616,44,ADEN,12.79,44.97,239,,,,,,
674,Dominican Republic,Santiago,19.46,-70.7,707,759,MAGUEYES_ISLAND,17.97,-67.05,419,,,,,,
675,Dominican Republic,Santo Domingo,18.49,-69.9,3648,759,MAGUEYES_ISLAND,17.97,-67.05,307,,,,,,
676,Ecuador,Cuenca,-2.88,-78.98,461,555,LA_LIBERTAD,-2.2,-80.92,228,,,,,,
677,Ecuador,Guayaquil,-2.17,-79.9,3245,544,LA_LIBERTAD_II,-2.2,-80.92,114,,,,,,
678,Ecuador,Quito,-0.23,-78.52,2017,639,TUMACO,1.83,-78.73,230,,,,,,
679,Ecuador,Santo Domingo,-0.25,-79.17,396,639,TUMACO,1.83,-78.73,237,,,,,,
680,Egypt,Al-Fayyum,29.31,30.84,449,503,ALEXANDRIA,31.22,29.92,230,,,,,,
681,Egypt,Al-Iskandariyah (Alexandria),31.19,29.9,5807,503,ALEXANDRIA,31.22,29.92,3,0.24,0.62,1.98,0.2,0.56,1.93
682,Egypt,Al-Ismailiyah,30.6,32.27,383,253,PORT_SAID,31.25,32.3,72,0.18,0.57,1.94,0.19,0.56,1.92
683,Egypt,Al-Mahallah al-Kubra,30.97,31.16,556,253,PORT_SAID,31.25,32.3,112,,,,,,
684,Egypt,Al-Mansurah,31.04,31.38,607,253,PORT_SAID,31.25,32.3,91,0.18,0.57,1.94,0.19,0.56,1.92
685,Egypt,Al-Qahirah (Cairo),30.04,31.24,23074,253,PORT_SAID,31.25,32.3,169,,,,,,
686,Egypt,As-Suways,29.97,32.55,698,253,PORT_SAID,31.25,32.3,145,,,,,,
687,Egypt,Aswan,24.09,32.91,379,253,PORT_SAID,31.25,32.3,799,,,,,,
688,Egypt,Asyut,27.18,31.18,497,253,PORT_SAID,31.25,32.3,466,,,,,,
689,Egypt,Az-Zaqazig,30.59,31.5,386,253,PORT_SAID,31.25,32.3,106,,,,,,
690,Egypt,Bur Sa'id,31.26,32.28,808,253,PORT_SAID,31.25,32.3,2,0.18,0.57,1.94,0.19,0.56,1.92
691,Egypt,Kafr-ad-Dawwar,31.13,30.13,375,503,ALEXANDRIA,31.22,29.92,22,0.24,0.62,1.98,0.2,0.56,1.93
692,Egypt,Tanta,30.79,31.0,541,503,ALEXANDRIA,31.22,29.92,114,,,,,,
693,El Salvador,San Salvador,13.69,-89.19,1132,1011,ACAJUTLA,13.57,-89.83,71,0.25,0.6,2.1,0.24,0.57,2.08
694,Equatorial Guinea,Bata,1.86,9.77,513,1049,TEMA,5.62,0.0,1162,,,,,,
695,Eritrea,Asmara,15.33,38.93,1152,44,ADEN,12.79,44.97,711,,,,,,
696,Estonia,Tallinn,59.44,24.75,458,14,HELSINKI,60.15,24.96,80,-0.22,0.24,1.46,0.14,0.59,1.81
697,Ethiopia,Addis Ababa,9.02,38.75,5957,44,ADEN,12.79,44.97,799,,,,,,
698,Ethiopia,Dire Dawa,9.59,41.87,507,44,ADEN,12.79,44.97,491,,,,,,
699,Ethiopia,Gondar,12.6,37.47,450,44,ADEN,12.79,44.97,815,,,,,,
700,Ethiopia,Mekele,13.5,39.48,637,44,ADEN,12.79,44.97,601,,,,,,
701,Ethiopia,Nazret,8.54,39.27,468,44,ADEN,12.79,44.97,782,,,,,,
702,Finland,Helsinki,60.17,24.94,1355,14,HELSINKI,60.15,24.96,2,-0.22,0.24,1.46,0.14,0.59,1.81
703,Finland,Tampere,61.5,23.79,351,172,MANTYLUOTO,61.59,21.46,124,,,,,,
704,France,Avignon,43.95,4.81,484,61,MARSEILLE,43.28,5.35,86,0.17,0.53,1.8,0.18,0.54,1.82
705,France,Béthune,50.53,2.63,365,468,DUNKERQUE,51.05,2.37,60,0.15,0.58,1.85,0.14,0.58,1.84
706,France,Bordeaux,44.84,-0.58,1018,1915,PORT_BLOC,45.57,-1.06,89,0.16,0.53,1.81,0.18,0.55,1.83
707,France,Douai-Lens,50.37,3.08,507,489,NIEUWPOORT,51.15,2.73,90,0.18,0.61,1.88,0.14,0.57,1.84
708,France,Grenoble,45.17,5.72,544,1468,NICE,43.7,7.29,206,,,,,,
709,France,Lille,50.63,3.06,1092,489,NIEUWPOORT,51.15,2.73,62,0.18,0.61,1.88,0.14,0.57,1.84
710,France,Lyon,45.75,4.85,1787,958,SETE,43.4,3.7,277,,,,,,
711,France,Marseille-Aix-en-Provence,43.53,5.44,1645,61,MARSEILLE,43.28,5.35,29,0.17,0.53,1.8,0.18,0.54,1.82
712,France,Montpellier,43.61,3.88,487,958,SETE,43.4,3.7,27,0.18,0.56,1.84,0.18,0.54,1.81
713,France,Nantes,47.22,-1.55,711,457,ST. NAZAIRE,47.27,-2.2,49,0.15,0.52,1.79,0.18,0.55,1.82
714,France,Nice-Cannes,43.66,7.15,956,1468,NICE,43.7,7.29,12,0.11,0.48,1.75,0.18,0.54,1.81
715,France,Paris,48.85,2.35,11347,474,DIEPPE,49.93,1.08,151,,,,,,
716,France,Rennes,48.11,-1.67,371,454,ST. MALO,48.64,-2.03,64,0.13,0.53,1.8,0.16,0.55,1.82
717,France,Rouen,49.44,1.1,479,474,DIEPPE,49.93,1.08,54,0.25,0.68,1.95,0.14,0.57,1.83
718,France,Saint-Étienne,45.43,4.4,382,958,SETE,43.4,3.7,233,,,,,,
719,France,Strasbourg,48.58,7.74,490,20,VLISSINGEN,51.44,3.6,435,,,,,,
720,France,Toulon,43.12,5.93,593,980,TOULON,43.11,5.91,2,0.12,0.5,1.77,0.18,0.55,1.82
721,France,Toulouse,43.6,1.44,1080,1469,PORT_VENDRES,42.52,3.11,181,,,,,,
722,France,Tours,47.38,0.68,370,466,LA_ROCHELLE-LA_PALLICE,46.16,-1.22,199,,,,,,
723,France,Valenciennes,50.35,3.53,344,489,NIEUWPOORT,51.15,2.73,106,,,,,,
724,Gabon,Libreville,0.39,9.45,899,1049,TEMA,5.62,0.0,1201,,,,,,
725,Gambia,Banjul,13.45,-16.68,510,1816,DAKAR_2,14.68,-17.42,158,,,,,,
726,Georgia,Tbilisi,41.69,44.83,1087,51,BATUMI,41.63,41.7,261,,,,,,
727,Germany,Berlin,52.52,13.41,3580,2,SWINOUJSCIE,53.92,14.23,165,,,,,,
728,Germany,Bielefeld,52.03,8.53,335,24,DELFZIJL,53.33,6.93,180,,,,,,
729,Germany,Bochum,51.48,7.22,382,24,DELFZIJL,53.33,6.93,206,,,,,,
730,Germany,Bonn,50.73,7.1,320,9,MAASSLUIS,51.92,4.25,238,,,,,,
731,Germany,Bremen,53.08,8.81,569,7,CUXHAVEN_2,53.87,8.72,89,0.2,0.64,1.89,0.13,0.57,1.82
732,Germany,Dortmund,51.52,7.45,590,24,DELFZIJL,53.33,6.93,205,,,,,,
733,Germany,Dresden,51.05,13.74,594,2,SWINOUJSCIE,53.92,14.23,321,,,,,,
734,Germany,Duesseldorf,51.22,6.78,643,9,MAASSLUIS,51.92,4.25,191,,,,,,
735,Germany,Duisburg,51.43,6.75,529,9,MAASSLUIS,51.92,4.25,181,,,,,,
736,Germany,Essen,51.45,7.01,581,9,MAASSLUIS,51.92,4.25,197,,,,,,
737,Germany,Frankfurt am Main,50.12,8.68,804,9,MAASSLUIS,51.92,4.25,370,,,,,,
738,Germany,Hamburg,53.55,10.0,1788,13,TRAVEMUNDE,53.96,10.87,73,0.19,0.63,1.88,0.16,0.61,1.86
739,Germany,Hannover,52.37,9.73,539,7,CUXHAVEN_2,53.87,8.72,180,,,,,,
740,Germany,Karlsruhe,49.0,8.39,324,20,VLISSINGEN,51.44,3.6,435,,,,,,
741,Germany,Köln (Cologne),50.93,6.95,1153,9,MAASSLUIS,51.92,4.25,217,,,,,,
742,Germany,Leipzig,51.34,12.37,609,8,WISMAR_2,53.9,11.46,292,,,,,,
743,Germany,Mannheim,49.49,8.46,348,9,MAASSLUIS,51.92,4.25,402,,,,,,
744,Germany,Muenster (Westfalen),51.96,7.63,342,24,DELFZIJL,53.33,6.93,159,,,,,,
745,Germany,München (Munich),48.14,11.57,1591,168,VENEZIA,45.43,12.33,307,,,,,,
746,Germany,Nurenberg,49.45,11.08,512,168,VENEZIA,45.43,12.33,457,,,,,,
747,Germany,Stuttgart,48.78,9.18,637,168,VENEZIA,45.43,12.33,443,,,,,,
748,Germany,Wuppertal,51.27,7.18,348,9,MAASSLUIS,51.92,4.25,215,,,,,,
749,Ghana,Accra,5.56,-0.2,2788,1049,TEMA,5.62,0.0,23,0.23,0.6,2.05,0.28,0.61,2.06
750,Ghana,Kumasi,6.69,-1.62,4036,331,TAKORADI,4.88,-1.75,202,,,,,,
751,Ghana,Sekondi Takoradi,4.93,-1.71,1160,331,TAKORADI,4.88,-1.75,7,0.32,0.67,2.13,0.28,0.61,2.07
752,Ghana,Tamale,9.4,-0.84,784,1049,TEMA,5.62,0.0,431,,,,,,
753,Greece,Athínai (Athens),37.95,23.75,3155,374,PIRAIEVS,37.94,23.63,11,-0.0,0.37,1.68,0.17,0.54,1.84
754,Greece,Thessaloniki,40.64,22.94,815,373,THESSALONIKI,40.63,22.93,2,0.28,0.65,1.94,0.15,0.52,1.8
755,Guatemala,Ciudad de Guatemala (Guatemala City),14.61,-90.53,3230,1011,ACAJUTLA,13.57,-89.83,139,,,,,,
756,Guinea,Conakry,9.57,-13.65,2252,1816,DAKAR_2,14.68,-17.42,701,,,,,,
757,Guinea-Bissau,Bissau,11.86,-15.6,709,1816,DAKAR_2,14.68,-17.42,370,,,,,,
758,Haiti,Port-au-Prince,18.54,-72.33,3133,418,GUANTANAMO_BAY,19.91,-75.15,333,,,,,,
759,Honduras,San Pedro Sula,15.5,-88.03,1034,557,PUERTO_CORTES,15.83,-87.95,38,0.57,0.97,2.49,0.28,0.62,2.13
760,Honduras,Tegucigalpa,14.08,-87.21,1650,558,LA_UNION,13.33,-87.82,107,,,,,,
761,Hungary,Budapest,47.5,19.04,1782,353,BAKAR,45.3,14.53,424,,,,,,
762,India,Agartala,23.84,91.28,670,1496,CHARCHANGA,22.22,91.05,181,,,,,,
763,India,Agra,27.18,78.02,2478,420,BHAUNAGAR_I,21.8,72.3,833,,,,,,
764,India,Ahmadabad,23.03,72.62,9062,420,BHAUNAGAR_I,21.8,72.3,141,,,,,,
765,India,Ahmadnagar,19.08,74.73,432,43,MUMBAI,18.92,72.83,201,,,,,,
766,India,Aizawl,23.72,92.72,415,1496,CHARCHANGA,22.22,91.05,239,,,,,,
767,India,Ajmer,26.45,74.63,665,420,BHAUNAGAR_I,21.8,72.3,569,,,,,,
768,India,Akola,20.73,77.0,481,43,MUMBAI,18.92,72.83,481,,,,,,
769,India,Aligarh,27.88,78.08,1380,420,BHAUNAGAR_I,21.8,72.3,894,,,,,,
770,India,Allahabad,25.45,81.85,1524,1002,TRIBENI,22.98,88.4,719,,,,,,
771,India,Alwar,27.56,76.62,482,420,BHAUNAGAR_I,21.8,72.3,776,,,,,,
772,India,Amravati,20.93,77.75,825,43,MUMBAI,18.92,72.83,562,,,,,,
773,India,Amritsar,31.63,74.88,1511,596,KANDLA,23.02,70.22,1063,,,,,,
774,India,Anand,22.57,72.93,420,420,BHAUNAGAR_I,21.8,72.3,107,,,,,,
775,India,Anantapur,14.68,77.6,510,205,CHENNAI,13.1,80.3,341,,,,,,
776,India,Arrah,25.56,84.67,370,1002,TRIBENI,22.98,88.4,475,,,,,,
777,India,Asansol,23.68,86.98,1565,1002,TRIBENI,22.98,88.4,165,,,,,,
778,India,Aurangabad,19.88,75.34,1767,43,MUMBAI,18.92,72.83,285,,,,,,
779,India,Baharampur,24.1,88.25,465,1002,TRIBENI,22.98,88.4,126,,,,,,
780,India,Bangalore,12.97,77.59,14395,205,CHENNAI,13.1,80.3,294,,,,,,
781,India,Barddhaman,23.24,87.87,458,1002,TRIBENI,22.98,88.4,62,1.64,2.01,3.43,0.17,0.5,1.92
782,India,Bareilly,28.35,79.42,1413,420,BHAUNAGAR_I,21.8,72.3,1022,,,,,,
783,India,Bathinda,30.2,74.95,415,596,KANDLA,23.02,70.22,927,,,,,,
784,India,Begusarai,25.42,86.13,587,1002,TRIBENI,22.98,88.4,356,,,,,,
785,India,Belgaum,15.85,74.5,800,1249,MORMUGAO,15.42,73.8,90,0.13,0.51,2.01,0.21,0.53,2.04
786,India,Bellary,15.15,76.93,586,1249,MORMUGAO,15.42,73.8,338,,,,,,
787,India,Bhagalpur,25.25,87.0,525,1002,TRIBENI,22.98,88.4,290,,,,,,
788,India,Bhavnagar,21.77,72.15,767,420,BHAUNAGAR_I,21.8,72.3,16,0.27,0.71,2.19,0.12,0.44,1.89
789,India,Bhilwara,25.35,74.63,507,420,BHAUNAGAR_I,21.8,72.3,461,,,,,,
790,India,Bhiwandi,19.3,73.07,944,43,MUMBAI,18.92,72.83,49,0.14,0.46,1.94,0.2,0.51,1.99
791,India,Bhopal,23.27,77.4,2686,420,BHAUNAGAR_I,21.8,72.3,549,,,,,,
792,India,Bhubaneswar,20.23,85.83,1321,1161,PARADIP,20.27,86.7,91,0.1,0.47,1.93,0.18,0.52,1.97
793,India,Bihar Sharif,25.18,85.52,419,1002,TRIBENI,22.98,88.4,382,,,,,,
794,India,Bijapur,16.82,75.72,465,1249,MORMUGAO,15.42,73.8,258,,,,,,
795,India,Bikaner,28.02,73.3,854,596,KANDLA,23.02,70.22,636,,,,,,
796,India,Bilaspur,22.08,82.15,682,414,VISAKHAPATNAM,17.68,83.28,504,,,,,,
797,India,Bokaro Steel City,23.66,86.15,688,1002,TRIBENI,22.98,88.4,242,,,,,,
798,India,Brahmapur,19.32,84.78,446,1161,PARADIP,20.27,86.7,227,,,,,,
799,India,Chandigarh,30.73,76.79,1266,596,KANDLA,23.02,70.22,1078,,,,,,
800,India,Chandrapur,19.95,79.3,380,414,VISAKHAPATNAM,17.68,83.28,490,,,,,,
801,India,Chennai (Madras),13.05,80.25,12336,205,CHENNAI,13.1,80.3,8,0.11,0.45,1.97,0.21,0.54,2.06
802,India,Cherthala,9.68,76.34,931,438,COCHIN,9.97,76.27,33,0.23,0.58,2.11,0.24,0.57,2.1
803,India,Coimbatore,10.99,76.96,3159,438,COCHIN,9.97,76.27,137,,,,,,
804,India,Cuttack,20.46,85.88,805,1161,PARADIP,20.27,86.7,88,0.1,0.47,1.93,0.18,0.52,1.97
805,India,Darbhanga,26.17,85.9,383,1002,TRIBENI,22.98,88.4,436,,,,,,
806,India,Davanagere,14.46,75.92,563,1423,MANGALORE,12.92,74.8,210,,,,,,
807,India,Dehradun,30.32,78.03,1041,420,BHAUNAGAR_I,21.8,72.3,1107,,,,,,
808,India,Delhi,28.67,77.22,34666,420,BHAUNAGAR_I,21.8,72.3,910,,,,,,
809,India,Deoghar,24.49,86.7,429,1002,TRIBENI,22.98,88.4,241,,,,,,
810,India,Dewas,22.97,76.07,396,420,BHAUNAGAR_I,21.8,72.3,409,,,,,,
811,India,Dhanbad,23.8,86.45,1442,1002,TRIBENI,22.98,88.4,219,,,,,,
812,India,Dhule,20.9,74.78,441,420,BHAUNAGAR_I,21.8,72.3,276,,,,,,
813,India,Dhulian,24.67,87.95,477,1002,TRIBENI,22.98,88.4,194,,,,,,
814,India,Dindigul,10.37,77.98,439,1072,TUTICORIN,8.75,78.2,182,,,,,,
815,India,Durgapur,23.52,87.31,741,1002,TRIBENI,22.98,88.4,127,,,,,,
816,India,Durg-Bhilainagar,21.19,81.28,1315,414,VISAKHAPATNAM,17.68,83.28,443,,,,,,
817,India,English Bazar,25.0,88.15,490,1002,TRIBENI,22.98,88.4,226,,,,,,
818,India,Erode,11.34,77.73,706,438,COCHIN,9.97,76.27,221,,,,,,
819,India,Farrukhabad,27.39,79.58,380,420,BHAUNAGAR_I,21.8,72.3,964,,,,,,
820,India,Firozabad,27.15,78.42,942,420,BHAUNAGAR_I,21.8,72.3,859,,,,,,
821,India,Gandhidham,23.07,70.14,466,596,KANDLA,23.02,70.22,10,0.11,0.46,1.9,0.14,0.46,1.9
822,India,Gaya,24.78,85.0,624,1002,TRIBENI,22.98,88.4,400,,,,,,
823,India,Gorakhpur,26.76,83.37,817,1002,TRIBENI,22.98,88.4,659,,,,,,
824,India,Gulbarga,17.33,76.83,752,1249,MORMUGAO,15.42,73.8,388,,,,,,
825,India,Guntur,16.3,80.45,962,414,VISAKHAPATNAM,17.68,83.28,338,,,,,,
826,India,Guwahati (Gauhati),26.17,91.75,1224,1496,CHARCHANGA,22.22,91.05,446,,,,,,
827,India,Gwalior,26.22,78.18,1544,420,BHAUNAGAR_I,21.8,72.3,774,,,,,,
828,India,Habra,22.83,88.63,382,1002,TRIBENI,22.98,88.4,28,1.64,2.01,3.43,0.17,0.5,1.92
829,India,Haldwani-cum-kathgodam,29.22,79.52,382,420,BHAUNAGAR_I,21.8,72.3,1098,,,,,,
830,India,Hapur,28.72,77.78,357,420,BHAUNAGAR_I,21.8,72.3,947,,,,,,
831,India,Hardwar,29.97,78.17,489,420,BHAUNAGAR_I,21.8,72.3,1082,,,,,,
832,India,Hisar,29.17,75.72,387,596,KANDLA,23.02,70.22,877,,,,,,
833,India,Hosur,12.72,77.82,646,205,CHENNAI,13.1,80.3,273,,,,,,
834,India,Hubli-Dharwad,15.46,75.01,1231,1249,MORMUGAO,15.42,73.8,130,,,,,,
835,India,Hyderabad,17.38,78.47,11338,414,VISAKHAPATNAM,17.68,83.28,511,,,,,,
836,India,Ichalkaranji,16.7,74.47,399,1249,MORMUGAO,15.42,73.8,159,,,,,,
837,India,Imphal,24.82,93.95,662,1496,CHARCHANGA,22.22,91.05,414,,,,,,
838,India,Indore,22.72,75.83,3483,420,BHAUNAGAR_I,21.8,72.3,378,,,,,,
839,India,Jabalpur,23.17,79.95,1582,414,VISAKHAPATNAM,17.68,83.28,703,,,,,,
840,India,Jaipur,26.92,75.82,4411,420,BHAUNAGAR_I,21.8,72.3,672,,,,,,
841,India,Jalandhar,31.33,75.58,1168,596,KANDLA,23.02,70.22,1066,,,,,,
842,India,Jalgaon,21.01,75.56,629,420,BHAUNAGAR_I,21.8,72.3,350,,,,,,
843,India,Jalna,19.83,75.88,376,43,MUMBAI,18.92,72.83,336,,,,,,
844,India,Jammu,32.73,74.86,752,204,KARACHI,24.81,66.97,1169,,,,,,
845,India,Jamnagar,22.47,70.07,691,596,KANDLA,23.02,70.22,64,0.11,0.46,1.9,0.14,0.46,1.9
846,India,Jamshedpur,22.8,86.18,1768,1369,GANGRA,21.95,88.02,211,,,,,,
847,India,Jhansi,25.43,78.58,707,420,BHAUNAGAR_I,21.8,72.3,758,,,,,,
848,India,Jodhpur,26.24,73.02,1664,596,KANDLA,23.02,70.22,457,,,,,,
849,India,Junagadh,21.52,70.47,444,596,KANDLA,23.02,70.22,169,,,,,,
850,India,Kadapa,14.47,78.82,500,205,CHENNAI,13.1,80.3,221,,,,,,
851,India,Kakinada,16.93,82.22,564,414,VISAKHAPATNAM,17.68,83.28,140,,,,,,
852,India,Kanhangad,12.31,75.11,399,696,MANGALORE,12.85,74.83,67,-0.0,0.44,1.97,0.23,0.55,2.06
853,India,Kannur,11.87,75.37,2465,696,MANGALORE,12.85,74.83,124,,,,,,
854,India,Kanpur,26.47,80.35,3345,1002,TRIBENI,22.98,88.4,901,,,,,,
855,India,Karimnagar,18.43,79.15,451,414,VISAKHAPATNAM,17.68,83.28,445,,,,,,
856,India,Karnal,29.68,76.98,459,420,BHAUNAGAR_I,21.8,72.3,995,,,,,,
857,India,Karur,10.96,78.08,406,438,COCHIN,9.97,76.27,227,,,,,,
858,India,Kayamkulam,9.17,76.5,839,438,COCHIN,9.97,76.27,93,0.23,0.58,2.11,0.24,0.57,2.1
859,India,Khammam,17.25,80.15,383,414,VISAKHAPATNAM,17.68,83.28,336,,,,,,
860,India,Kharagpur,22.33,87.32,352,1369,GANGRA,21.95,88.02,84,0.14,0.54,1.98,0.18,0.51,1.94
861,India,Kochi (Cochin),9.93,76.26,3605,438,COCHIN,9.97,76.27,5,0.23,0.58,2.11,0.24,0.57,2.1
862,India,Kolhapur,16.7,74.23,669,1249,MORMUGAO,15.42,73.8,149,,,,,,
863,India,Kolkata (Calcutta),22.53,88.36,15845,48,KIDDERPORE,22.53,88.33,3,-0.33,0.04,1.47,0.17,0.5,1.93
864,India,Kollam,8.88,76.59,2252,438,COCHIN,9.97,76.27,126,,,,,,
865,India,Korba,22.35,82.68,456,1161,PARADIP,20.27,86.7,477,,,,,,
866,India,Kota,25.17,75.86,1599,420,BHAUNAGAR_I,21.8,72.3,522,,,,,,
867,India,Kottayam,9.58,76.52,885,438,COCHIN,9.97,76.27,51,0.23,0.58,2.11,0.24,0.57,2.1
868,India,Kozhikode (Calicut),11.26,75.78,4387,438,COCHIN,9.97,76.27,153,,,,,,
869,India,Kurnool,15.83,78.04,765,205,CHENNAI,13.1,80.3,389,,,,,,
870,India,Latur,18.4,76.58,537,43,MUMBAI,18.92,72.83,400,,,,,,
871,India,Lucknow,26.85,80.92,4133,1002,TRIBENI,22.98,88.4,869,,,,,,
872,India,Ludhiana,30.9,75.85,2029,596,KANDLA,23.02,70.22,1039,,,,,,
873,India,Madurai,9.93,78.12,1912,1072,TUTICORIN,8.75,78.2,132,,,,,,
874,India,Malappuram,11.07,76.07,4344,438,COCHIN,9.97,76.27,124,,,,,,
875,India,Malegaon,20.55,74.53,800,43,MUMBAI,18.92,72.83,255,,,,,,
876,India,Mangalore,12.92,74.86,779,1423,MANGALORE,12.92,74.8,6,0.11,0.52,2.03,0.23,0.55,2.06
877,India,Mathura,27.5,77.68,665,420,BHAUNAGAR_I,21.8,72.3,836,,,,,,
878,India,Maunath Bhanjan,25.95,83.56,403,1002,TRIBENI,22.98,88.4,591,,,,,,
879,India,Meerut,28.97,77.72,1875,420,BHAUNAGAR_I,21.8,72.3,966,,,,,,
880,India,Moradabad,28.83,78.78,1370,420,BHAUNAGAR_I,21.8,72.3,1019,,,,,,
881,India,Morvi,22.82,70.83,399,596,KANDLA,23.02,70.22,67,0.11,0.46,1.9,0.14,0.46,1.9
882,India,Mumbai (Bombay),19.07,72.88,22089,43,MUMBAI,18.92,72.83,18,0.14,0.46,1.94,0.2,0.51,1.99
883,India,Muzaffarnagar,29.47,77.68,837,420,BHAUNAGAR_I,21.8,72.3,1010,,,,,,
884,India,Muzaffarpur,26.12,85.4,567,1002,TRIBENI,22.98,88.4,463,,,,,,
885,India,Mysore,12.3,76.64,1346,696,MANGALORE,12.85,74.83,206,,,,,,
886,India,Nagpur,21.15,79.1,3170,414,VISAKHAPATNAM,17.68,83.28,585,,,,,,
887,India,Nanded Waghala,19.16,77.31,773,43,MUMBAI,18.92,72.83,473,,,,,,
888,India,Nashik,19.98,73.8,2351,43,MUMBAI,18.92,72.83,156,,,,,,
889,India,Navsari,20.95,72.93,375,420,BHAUNAGAR_I,21.8,72.3,115,,,,,,
890,India,Nellore,14.45,79.98,859,205,CHENNAI,13.1,80.3,154,,,,,,
891,India,Nizamabad,18.67,78.1,357,43,MUMBAI,18.92,72.83,556,,,,,,
892,India,Ottappalam,10.77,76.38,465,438,COCHIN,9.97,76.27,90,0.23,0.58,2.11,0.24,0.57,2.1
893,India,Palakkad,10.77,76.65,412,438,COCHIN,9.97,76.27,99,0.23,0.58,2.11,0.24,0.57,2.1
894,India,Panipat,29.39,76.97,611,420,BHAUNAGAR_I,21.8,72.3,966,,,,,,
895,India,Parbhani,19.27,76.78,394,43,MUMBAI,18.92,72.83,418,,,,,,
896,India,Patiala,30.33,76.4,685,596,KANDLA,23.02,70.22,1019,,,,,,
897,India,Patna,25.6,85.12,2690,1002,TRIBENI,22.98,88.4,443,,,,,,
898,India,Puducherry,11.93,79.83,941,205,CHENNAI,13.1,80.3,140,,,,,,
899,India,Pune (Poona),18.52,73.86,7526,43,MUMBAI,18.92,72.83,118,,,,,,
900,India,Purnia,25.78,87.47,566,1002,TRIBENI,22.98,88.4,326,,,,,,
901,India,Raipur,21.23,81.63,1923,414,VISAKHAPATNAM,17.68,83.28,432,,,,,,
902,India,Rajahmundry,17.0,81.79,593,414,VISAKHAPATNAM,17.68,83.28,175,,,,,,
903,India,Rajkot,22.3,70.78,2150,596,KANDLA,23.02,70.22,99,0.11,0.46,1.9,0.14,0.46,1.9
904,India,Rampur,28.81,79.03,474,420,BHAUNAGAR_I,21.8,72.3,1032,,,,,,
905,India,Ranchi,23.35,85.33,1622,1002,TRIBENI,22.98,88.4,317,,,,,,
906,India,Raniganj,23.62,87.13,508,1002,TRIBENI,22.98,88.4,148,,,,,,
907,India,Ranipet,12.93,79.33,407,205,CHENNAI,13.1,80.3,107,,,,,,
908,India,Ratlam,23.32,75.07,346,420,BHAUNAGAR_I,21.8,72.3,331,,,,,,
909,India,Raurkela,22.22,84.86,677,1161,PARADIP,20.27,86.7,289,,,,,,
910,India,Rohtak,28.9,76.57,522,420,BHAUNAGAR_I,21.8,72.3,899,,,,,,
911,India,Roorkee,29.87,77.88,416,420,BHAUNAGAR_I,21.8,72.3,1058,,,,,,
912,India,Sagar,23.84,78.74,482,420,BHAUNAGAR_I,21.8,72.3,698,,,,,,
913,India,Saharanpur,29.97,77.55,1242,420,BHAUNAGAR_I,21.8,72.3,1050,,,,,,
914,India,Salem,11.65,78.17,1221,438,COCHIN,9.97,76.27,279,,,,,,
915,India,Sangli,16.85,74.56,636,1249,MORMUGAO,15.42,73.8,179,,,,,,
916,India,Santipur,23.25,88.43,412,1002,TRIBENI,22.98,88.4,30,1.64,2.01,3.43,0.17,0.5,1.92
917,India,Satna,24.58,80.83,381,1161,PARADIP,20.27,86.7,771,,,,,,
918,India,Shahjahanpur,27.88,79.92,401,1002,TRIBENI,22.98,88.4,1012,,,,,,
919,India,Shillong,25.57,91.88,520,1496,CHARCHANGA,22.22,91.05,382,,,,,,
920,India,Shimoga,13.93,75.57,411,1423,MANGALORE,12.92,74.8,140,,,,,,
921,India,Siliguri,26.72,88.42,1191,1002,TRIBENI,22.98,88.4,416,,,,,,
922,India,Solapur,17.68,75.92,1108,1249,MORMUGAO,15.42,73.8,338,,,,,,
923,India,Srinagar,34.08,74.8,1778,204,KARACHI,24.81,66.97,1280,,,,,,
924,India,Surat,21.17,72.83,8582,420,BHAUNAGAR_I,21.8,72.3,90,0.27,0.71,2.19,0.12,0.44,1.89
925,India,Thanjavur,10.8,79.15,369,1072,TUTICORIN,8.75,78.2,251,,,,,,
926,India,Thiruvananthapuram,8.51,76.96,3073,1072,TUTICORIN,8.75,78.2,139,,,,,,
927,India,Thoothukkudi (Tuticorin),8.81,78.14,644,1072,TUTICORIN,8.75,78.2,10,0.07,0.46,2.0,0.24,0.57,2.11
928,India,Thrissur,10.52,76.22,3720,438,COCHIN,9.97,76.27,61,0.23,0.58,2.11,0.24,0.57,2.1
929,India,Tiruchirappalli,10.8,78.69,1270,1072,TUTICORIN,8.75,78.2,235,,,,,,
930,India,Tirunelveli,8.73,77.7,616,1072,TUTICORIN,8.75,78.2,55,0.07,0.46,2.0,0.24,0.57,2.11
931,India,Tirupati,13.65,79.42,797,205,CHENNAI,13.1,80.3,114,,,,,,
932,India,Tiruppur,11.12,77.35,1784,438,COCHIN,9.97,76.27,174,,,,,,
933,India,Tumkur,13.34,77.1,399,696,MANGALORE,12.85,74.83,252,,,,,,
934,India,Udaipur,24.57,73.69,630,420,BHAUNAGAR_I,21.8,72.3,339,,,,,,
935,India,Ujjain,23.18,75.77,668,420,BHAUNAGAR_I,21.8,72.3,388,,,,,,
936,India,Vadodara,22.3,73.2,2425,420,BHAUNAGAR_I,21.8,72.3,108,,,,,,
937,India,Varanasi (Benares),25.32,82.98,1826,1002,TRIBENI,22.98,88.4,609,,,,,,
938,India,Vellore,12.93,79.13,626,205,CHENNAI,13.1,80.3,128,,,,,,
939,India,Vijayawada,16.52,80.62,2351,414,VISAKHAPATNAM,17.68,83.28,312,,,,,,
940,India,Visakhapatnam,17.68,83.21,2440,414,VISAKHAPATNAM,17.68,83.28,7,0.08,0.43,1.91,0.18,0.51,1.99
941,India,Warangal,18.0,79.58,1080,414,VISAKHAPATNAM,17.68,83.28,393,,,,,,
942,India,Yamunanagar,30.1,77.28,496,420,BHAUNAGAR_I,21.8,72.3,1050,,,,,,
943,Indonesia,Ambon,-3.7,128.18,604,935,DARWIN,-12.47,130.85,1020,,,,,,
944,Indonesia,Balikpapan,-1.27,116.83,754,1734,TAWAU,4.23,117.88,623,,,,,,
945,Indonesia,Bandar Lampung,-5.43,105.26,1210,1351,RAFFLES_LIGHT_HOUSE,1.17,103.75,753,,,,,,
946,Indonesia,Bandung,-6.92,107.61,2758,1351,RAFFLES_LIGHT_HOUSE,1.17,103.75,997,,,,,,
947,Indonesia,Banjarmasin,-3.32,114.59,800,1833,BINTULU,3.26,113.06,752,,,,,,
948,Indonesia,Batam,1.12,104.03,1859,1746,TANJONG_PAGAR,1.27,103.85,26,0.12,0.54,2.09,0.25,0.59,2.12
949,Indonesia,Bekasi,-6.24,106.98,3926,1351,RAFFLES_LIGHT_HOUSE,1.17,103.75,899,,,,,,
950,Indonesia,Bengkulu,-3.8,102.27,451,1351,RAFFLES_LIGHT_HOUSE,1.17,103.75,577,,,,,,
951,Indonesia,Bogor,-6.61,106.8,1281,1351,RAFFLES_LIGHT_HOUSE,1.17,103.75,930,,,,,,
952,Indonesia,Cirebon,-6.71,108.56,342,1351,RAFFLES_LIGHT_HOUSE,1.17,103.75,1027,,,,,,
953,Indonesia,Denpasar,-8.65,115.22,1097,1159,BROOME,-18.0,122.22,1287,,,,,,
954,Indonesia,Depok,-6.4,106.79,3218,1351,RAFFLES_LIGHT_HOUSE,1.17,103.75,908,,,,,,
955,Indonesia,Jakarta,-6.21,106.84,11634,1351,RAFFLES_LIGHT_HOUSE,1.17,103.75,891,,,,,,
956,Indonesia,Jambi,-1.6,103.62,685,1351,RAFFLES_LIGHT_HOUSE,1.17,103.75,309,,,,,,
957,Indonesia,Jayapura,-2.68,140.8,347,1860,LOMBRUM,-2.04,147.37,734,,,,,,
958,Indonesia,Makassar (Ujung Pandang),-5.14,119.42,1737,1734,TAWAU,4.23,117.88,1058,,,,,,
959,Indonesia,Malang,-7.98,112.63,949,1833,BINTULU,3.26,113.06,1252,,,,,,
960,Indonesia,Manado,1.49,124.85,474,537,DAVAO,7.08,125.63,629,,,,,,
961,Indonesia,Mataram,-8.58,116.12,562,1159,BROOME,-18.0,122.22,1239,,,,,,
962,Indonesia,Medan,3.58,98.67,2522,1594,LUMUT,4.24,100.61,228,,,,,,
963,Indonesia,Padang,-0.95,100.35,1073,1593,TANJUNG_KELING,2.21,102.15,404,,,,,,
964,Indonesia,Palembang,-2.92,104.75,1888,1351,RAFFLES_LIGHT_HOUSE,1.17,103.75,468,,,,,,
965,Indonesia,Pekalongan,-6.89,109.67,338,1351,RAFFLES_LIGHT_HOUSE,1.17,103.75,1112,,,,,,
966,Indonesia,Pekan Baru,0.53,101.45,1365,1593,TANJUNG_KELING,2.21,102.15,202,,,,,,
967,Indonesia,Pontianak,-0.03,109.33,735,1833,BINTULU,3.26,113.06,553,,,,,,
968,Indonesia,Samarinda,-0.49,117.14,1155,1734,TAWAU,4.23,117.88,532,,,,,,
969,Indonesia,Semarang,-6.99,110.42,2052,1351,RAFFLES_LIGHT_HOUSE,1.17,103.75,1172,,,,,,
970,Indonesia,Sukabumi,-6.92,106.93,369,1351,RAFFLES_LIGHT_HOUSE,1.17,103.75,967,,,,,,
971,Indonesia,Surabaya,-7.29,112.74,3138,1833,BINTULU,3.26,113.06,1175,,,,,,
972,Indonesia,Surakarta,-7.56,110.83,561,1833,BINTULU,3.26,113.06,1229,,,,,,
973,Indonesia,Tangerang,-6.2,106.65,2627,1351,RAFFLES_LIGHT_HOUSE,1.17,103.75,882,,,,,,
974,Indonesia,Tasikmalaya,-7.35,108.22,1298,1351,RAFFLES_LIGHT_HOUSE,1.17,103.75,1070,,,,,,
975,Indonesia,Yogyakarta,-7.78,110.36,476,1351,RAFFLES_LIGHT_HOUSE,1.17,103.75,1238,,,,,,
976,Iran (Islamic Republic of),Ahvaz,31.32,48.67,1325,51,BATUMI,41.63,41.7,1305,,,,,,
977,Iran (Islamic Republic of),Arak,34.09,49.69,590,51,BATUMI,41.63,41.7,1093,,,,,,
978,Iran (Islamic Republic of),Ardabil,38.25,48.29,614,51,BATUMI,41.63,41.7,677,,,,,,
979,Iran (Islamic Republic of),Bandar Abbas,27.19,56.28,691,1887,MASIRAH,20.68,58.87,771,,,,,,
980,Iran (Islamic Republic of),Esfahan,32.66,51.68,2328,51,BATUMI,41.63,41.7,1333,,,,,,
981,Iran (Islamic Republic of),Eslamshahr,35.56,51.24,553,51,BATUMI,41.63,41.7,1069,,,,,,
982,Iran (Islamic Republic of),Gorgan,36.84,54.44,392,51,BATUMI,41.63,41.7,1220,,,,,,
983,Iran (Islamic Republic of),Hamadan,34.8,48.51,612,51,BATUMI,41.63,41.7,965,,,,,,
984,Iran (Islamic Republic of),Karaj,35.84,51.01,1615,51,BATUMI,41.63,41.7,1033,,,,,,
985,Iran (Islamic Republic of),Kashan,33.98,51.44,357,51,BATUMI,41.63,41.7,1206,,,,,,
986,Iran (Islamic Republic of),Kerman,30.28,57.08,559,1887,MASIRAH,20.68,58.87,1084,,,,,,
987,Iran (Islamic Republic of),Kermanshah,34.31,47.06,1117,51,BATUMI,41.63,41.7,940,,,,,,
988,Iran (Islamic Republic of),Khorramabad,33.49,48.36,421,51,BATUMI,41.63,41.7,1079,,,,,,
989,Iran (Islamic Republic of),Mashhad,36.3,59.61,3461,204,KARACHI,24.81,66.97,1459,,,,,,
990,Iran (Islamic Republic of),Orumiyeh,37.55,45.08,860,51,BATUMI,41.63,41.7,538,,,,,,
991,Iran (Islamic Republic of),Qazvin,36.27,50.0,445,51,BATUMI,41.63,41.7,934,,,,,,
992,Iran (Islamic Republic of),Qods,35.71,51.11,357,51,BATUMI,41.63,41.7,1049,,,,,,
993,Iran (Islamic Republic of),Qom,34.64,50.88,1392,51,BATUMI,41.63,41.7,1117,,,,,,
994,Iran (Islamic Republic of),Rasht,37.28,49.58,758,51,BATUMI,41.63,41.7,832,,,,,,
995,Iran (Islamic Republic of),Sanandaj,35.31,46.99,483,51,BATUMI,41.63,41.7,840,,,,,,
996,Iran (Islamic Republic of),Sari,36.56,53.06,338,51,BATUMI,41.63,41.7,1131,,,,,,
997,Iran (Islamic Republic of),Shahriyar,35.66,51.06,420,51,BATUMI,41.63,41.7,1050,,,,,,
998,Iran (Islamic Republic of),Shiraz,29.6,52.54,1764,1887,MASIRAH,20.68,58.87,1180,,,,,,
999,Iran (Islamic Republic of),Tabriz,38.08,46.29,1696,51,BATUMI,41.63,41.7,557,,,,,,
1000,Iran (Islamic Republic of),Tehran,35.69,51.42,9730,51,BATUMI,41.63,41.7,1071,,,,,,
1001,Iran (Islamic Republic of),Yazd,31.9,54.37,609,1887,MASIRAH,20.68,58.87,1327,,,,,,
1002,Iran (Islamic Republic of),Zahedan,29.5,60.86,644,204,KARACHI,24.81,66.97,799,,,,,,
1003,Iran (Islamic Republic of),Zanjan,36.67,48.48,510,51,BATUMI,41.63,41.7,804,,,,,,
1004,Iraq,Al-Basrah (Basra),30.5,47.81,1525,1797,HADERA,32.47,34.86,1248,,,,,,
1005,Iraq,Al-Mawsil (Mosul),36.34,43.12,1904,51,BATUMI,41.63,41.7,602,,,,,,
1006,Iraq,Amara,31.83,47.15,778,1797,HADERA,32.47,34.86,1160,,,,,,
1007,Iraq,Baaqoobah,33.75,44.64,377,51,BATUMI,41.63,41.7,914,,,,,,
1008,Iraq,Baghdad,33.34,44.4,8141,1797,HADERA,32.47,34.86,897,,,,,,
1009,Iraq,Diwaniyah,31.99,44.93,611,1797,HADERA,32.47,34.86,949,,,,,,
1010,Iraq,Faloojah,33.36,43.79,386,1797,HADERA,32.47,34.86,840,,,,,,
1011,Iraq,Hillah,32.48,44.43,673,1797,HADERA,32.47,34.86,899,,,,,,
1012,Iraq,Irbil (Erbil),36.19,44.01,941,51,BATUMI,41.63,41.7,637,,,,,,
1013,Iraq,Karbala,32.6,44.02,618,1797,HADERA,32.47,34.86,860,,,,,,
1014,Iraq,Kirkuk,35.47,44.39,1128,51,BATUMI,41.63,41.7,725,,,,,,
1015,Iraq,Kut,32.5,45.83,525,1797,HADERA,32.47,34.86,1030,,,,,,
1016,Iraq,Najaf,32.0,44.33,1018,1797,HADERA,32.47,34.86,893,,,,,,
1017,Iraq,Nasiriyah,31.03,46.27,711,1797,HADERA,32.47,34.86,1091,,,,,,
1018,Iraq,Ramadi,33.42,43.3,504,1797,HADERA,32.47,34.86,795,,,,,,
1019,Iraq,Samarra,34.2,43.87,347,51,BATUMI,41.63,41.7,849,,,,,,
1020,Iraq,Sulaimaniya,35.56,45.44,847,51,BATUMI,41.63,41.7,750,,,,,,
1021,Ireland,Dublin,53.33,-6.25,1299,432,DUBLIN,53.35,-6.22,3,0.1,0.52,1.74,0.12,0.54,1.76
1022,Israel,Be'er Sheva,31.25,34.79,676,1797,HADERA,32.47,34.86,136,,,,,,
1023,Israel,Hefa (Haifa),32.81,34.99,1200,1797,HADERA,32.47,34.86,40,0.17,0.57,1.94,0.19,0.55,1.91
1024,Israel,Jerusalem,31.77,35.22,997,1797,HADERA,32.47,34.86,85,0.17,0.57,1.94,0.19,0.55,1.91
1025,Israel,Tel Aviv-Yafo (Tel Aviv-Jaffa),32.08,34.78,4569,1797,HADERA,32.47,34.86,44,0.17,0.57,1.94,0.19,0.55,1.91
1026,Italy,Bari,41.12,16.85,626,760,DUBROVNIK,42.66,18.06,199,,,,,,
1027,Italy,Barletta,41.31,16.29,343,129,NAPOLI,40.87,14.27,177,,,,,,
1028,Italy,Bergamo,45.7,9.67,923,59,GENOVA,44.4,8.9,157,,,,,,
1029,Italy,Bologna,44.49,11.34,819,39,VENEZIA,45.42,12.33,129,,,,,,
1030,Italy,Brescia,45.52,10.23,496,59,GENOVA,44.4,8.9,163,,,,,,
1031,Italy,Busto Arsizio,45.61,8.85,669,59,GENOVA,44.4,8.9,135,,,,,,
1032,Italy,Cagliari,39.21,9.13,479,104,CAGLIARI,39.2,9.17,3,0.19,0.57,1.89,0.21,0.57,1.88
1033,Italy,Caserta,41.08,14.33,433,129,NAPOLI,40.87,14.27,24,0.15,0.51,1.81,0.19,0.55,1.84
1034,Italy,Catania,37.5,15.09,589,107,PALERMO,38.13,13.33,170,,,,,,
1035,Italy,Como,45.81,9.09,493,59,GENOVA,44.4,8.9,158,,,,,,
1036,Italy,Firenze (Florence),43.77,11.25,714,106,CIVITAVECCHIA,42.05,11.82,197,,,,,,
1037,Italy,Genova (Genoa),44.41,8.93,674,59,GENOVA,44.4,8.9,3,0.15,0.51,1.77,0.17,0.53,1.78
1038,Italy,Latina,41.47,12.9,467,106,CIVITAVECCHIA,42.05,11.82,111,,,,,,
1039,Italy,Lecco,45.85,9.39,314,59,GENOVA,44.4,8.9,166,,,,,,
1040,Italy,Milano (Milan),45.55,9.18,3167,59,GENOVA,44.4,8.9,130,,,,,,
1041,Italy,Modena,44.65,10.93,364,39,VENEZIA,45.42,12.33,140,,,,,,
1042,Italy,Napoli (Naples),40.85,14.26,2182,105,NAPOLI,40.84,14.26,1,0.15,0.51,1.81,0.19,0.55,1.84
1043,Italy,Nola,40.92,14.53,330,129,NAPOLI,40.87,14.27,23,0.15,0.51,1.81,0.19,0.55,1.84
1044,Italy,Padova,45.42,11.88,700,39,VENEZIA,45.42,12.33,35,0.23,0.59,1.83,0.15,0.5,1.75
1045,Italy,Palermo,38.12,13.36,851,107,PALERMO,38.13,13.33,3,0.13,0.51,1.84,0.21,0.57,1.89
1046,Italy,Parma,44.8,10.33,336,59,GENOVA,44.4,8.9,122,,,,,,
1047,Italy,Pescara,42.46,14.21,385,129,NAPOLI,40.87,14.27,177,,,,,,
1048,Italy,Reggio Emilia,44.7,10.63,380,59,GENOVA,44.4,8.9,141,,,,,,
1049,Italy,Roma (Rome),41.89,12.48,4347,106,CIVITAVECCHIA,42.05,11.82,57,0.11,0.48,1.78,0.19,0.55,1.84
1050,Italy,Salerno,40.68,14.77,423,105,NAPOLI,40.84,14.26,46,0.15,0.51,1.81,0.19,0.55,1.84
1051,Italy,Seregno,45.65,9.2,639,59,GENOVA,44.4,8.9,141,,,,,,
1052,Italy,Taranto,40.46,17.26,462,1075,BAR,42.08,19.08,236,,,,,,
1053,Italy,Torino (Turin),45.07,7.68,1810,59,GENOVA,44.4,8.9,122,,,,,,
1054,Italy,Treviso,45.67,12.24,386,168,VENEZIA,45.43,12.33,27,0.23,0.59,1.84,0.15,0.5,1.75
1055,Italy,Venezia,45.44,12.34,643,168,VENEZIA,45.43,12.33,1,0.23,0.59,1.84,0.15,0.5,1.75
1056,Italy,Verona,45.43,11.0,644,168,VENEZIA,45.43,12.33,104,,,,,,
1057,Italy,Vicenza,45.56,11.54,334,168,VENEZIA,45.43,12.33,63,0.23,0.59,1.84,0.15,0.5,1.75
1058,Jamaica,Kingston,18.0,-76.79,604,1910,CABO_CRUZ,19.83,-77.73,227,,,,,,
1059,Japan,Akita,39.72,140.12,296,1264,OGA,39.94,139.71,43,0.04,0.39,1.99,0.27,0.61,2.21
1060,Japan,Asahikawa,43.77,142.37,320,772,MONBETU_I,44.35,143.37,103,,,,,,
1061,Japan,Chukyo M.M.A. (Nagoya),35.18,136.91,9535,1488,NAGOYA_II,35.09,136.88,10,-0.09,0.28,1.87,0.26,0.62,2.22
1062,Japan,Fukuyama,34.48,133.37,460,812,UNO,34.49,133.95,54,0.52,0.88,2.46,0.27,0.62,2.2
1063,Japan,Hiroshima,34.39,132.46,2058,1028,HIROSIMA,34.35,132.46,5,0.45,0.81,2.38,0.27,0.62,2.19
1064,Japan,Iwaki,37.05,140.88,354,635,ONAHAMA,36.94,140.89,12,-0.04,0.35,2.01,0.23,0.62,2.27
1065,Japan,Kagoshima,31.57,130.55,579,1265,AKUNE,32.02,130.19,60,0.14,0.52,2.1,0.26,0.63,2.22
1066,Japan,Kanazawa,36.56,136.64,461,1190,MIKUNI,36.25,136.15,56,0.42,0.78,2.36,0.27,0.62,2.2
1067,Japan,Kinki M.M.A. (Osaka),34.68,135.55,18922,1099,OSAKA,34.66,135.43,11,0.54,0.9,2.49,0.27,0.62,2.21
1068,Japan,Kitakyushu-Fukuoka M.M.A.,33.61,130.42,5466,1094,HAKATA,33.62,130.41,2,0.23,0.59,2.15,0.26,0.61,2.19
1069,Japan,Kochi,33.56,133.53,320,1567,KOCHI_III,33.5,133.57,8,0.1,0.49,2.08,0.25,0.62,2.21
1070,Japan,Koriyama,37.4,140.38,324,635,ONAHAMA,36.94,140.89,68,-0.04,0.35,2.01,0.23,0.62,2.27
1071,Japan,Kumamoto,32.79,130.74,735,810,MISUMI,32.62,130.45,33,0.32,0.69,2.27,0.26,0.62,2.2
1072,Japan,Kurashiki,34.58,133.77,470,812,UNO,34.49,133.95,20,0.52,0.88,2.46,0.27,0.62,2.2
1073,Japan,Kurume,33.32,130.52,302,1094,HAKATA,33.62,130.41,35,0.23,0.59,2.15,0.26,0.61,2.19
1074,Japan,Maebashi,36.38,139.07,323,1545,TOKYO_III,35.65,139.77,103,,,,,,
1075,Japan,Matsuyama,33.83,132.76,502,1062,MATSUYAMA_II,33.86,132.71,6,0.04,0.41,1.99,0.26,0.62,2.2
1076,Japan,Miyazaki,31.92,131.43,395,814,ABURATSU,31.58,131.41,37,0.24,0.63,2.22,0.25,0.64,2.23
1077,Japan,Nagano,36.65,138.18,364,753,KASHIWAZAKI,37.36,138.51,84,0.18,0.52,2.12,0.28,0.61,2.21
1078,Japan,Nagasaki,32.75,129.88,397,1100,NAGASAKI,32.73,129.87,2,0.26,0.62,2.2,0.26,0.62,2.2
1079,Japan,Naha,26.21,127.69,318,1151,NAHA,26.21,127.67,2,0.24,0.66,2.25,0.24,0.64,2.24
1080,Japan,Niigata,37.91,139.03,794,1093,AWA_SIMA,38.47,139.25,65,0.47,0.81,2.41,0.27,0.61,2.21
1081,Japan,Oita,33.24,131.61,474,1293,OITA_II,33.27,131.69,8,0.17,0.54,2.11,0.26,0.62,2.2
1082,Japan,Okayama,34.65,133.91,719,812,UNO,34.49,133.95,18,0.52,0.88,2.46,0.27,0.62,2.2
1083,Japan,Sapporo,43.06,141.35,2654,159,OSHORO_I,43.22,140.87,42,0.15,0.5,2.07,0.26,0.57,2.14
1084,Japan,Sendai,38.26,140.9,2338,1345,SOMA,37.83,140.96,48,0.6,1.01,2.66,0.22,0.61,2.26
1085,Japan,Shizuoka-Hamamatsu M.M.A.,34.98,138.38,2930,1438,YAIZU,34.87,138.33,13,0.53,0.92,2.53,0.25,0.63,2.24
1086,Japan,Takamatsu,34.33,134.06,415,1789,TAKAMATSU_II,34.35,134.06,2,0.23,0.6,2.19,0.26,0.62,2.2
1087,Japan,Takasaki,36.33,139.02,364,1545,TOKYO_III,35.65,139.77,102,,,,,,
1088,Japan,Tokyo,35.69,139.69,37036,1545,TOKYO_III,35.65,139.77,8,0.06,0.45,2.07,0.25,0.62,2.25
1089,Japan,Toyama,36.69,137.22,406,1389,TOYAMA,36.76,137.22,8,0.34,0.69,2.28,0.27,0.61,2.2
1090,Japan,Toyohashi,34.77,137.38,365,1089,MAISAKA,34.68,137.61,23,-0.01,0.36,1.97,0.25,0.62,2.24
1091,Japan,Utsunomiya,36.57,139.88,518,635,ONAHAMA,36.94,140.89,99,-0.04,0.35,2.01,0.23,0.62,2.27
1092,Jordan,Al-Quwaysimah,31.92,35.95,431,1797,HADERA,32.47,34.86,120,,,,,,
1093,Jordan,Amman,31.96,35.95,2273,1797,HADERA,32.47,34.86,117,,,,,,
1094,Jordan,Ar-Rusayfah,32.02,36.04,533,1797,HADERA,32.47,34.86,122,,,,,,
1095,Jordan,Irbid,32.56,35.85,567,1797,HADERA,32.47,34.86,93,0.17,0.57,1.94,0.19,0.55,1.91
1096,Jordan,Tila al-Ali,31.99,35.86,368,1797,HADERA,32.47,34.86,108,,,,,,
1097,Jordan,Zarqa,32.07,36.09,759,1797,HADERA,32.47,34.86,124,,,,,,
1098,Kazakhstan,Aktyubinsk,50.29,57.16,453,41,POTI,42.17,41.68,1491,,,,,,
1099,Kazakhstan,Almaty,43.25,76.91,2042,204,KARACHI,24.81,66.97,2244,,,,,,
1100,Kazakhstan,Astana,51.18,71.45,1353,1128,ANTIPAIUTA,69.08,76.85,2013,,,,,,
1101,Kazakhstan,Karaganda,49.8,73.1,515,1128,ANTIPAIUTA,69.08,76.85,2156,,,,,,
1102,Kazakhstan,Pavlodar,52.3,76.95,339,1128,ANTIPAIUTA,69.08,76.85,1868,,,,,,
1103,Kazakhstan,Semipalatinsk,50.43,80.27,326,1128,ANTIPAIUTA,69.08,76.85,2084,,,,,,
1104,Kazakhstan,Shimkent,42.3,69.6,1204,204,KARACHI,24.81,66.97,1962,,,,,,
1105,Kazakhstan,Taraz,42.9,71.37,377,204,KARACHI,24.81,66.97,2054,,,,,,
1106,Kazakhstan,Ust-Kamenogorsk,49.96,82.61,333,1128,ANTIPAIUTA,69.08,76.85,2150,,,,,,
1107,Kenya,Eldoret,0.52,35.27,484,2198,LAMU_B,-2.27,40.9,699,,,,,,
1108,Kenya,Kisumu,-0.1,34.76,422,2183,MOMBASA_II,-4.07,39.65,700,,,,,,
1109,Kenya,Mombasa,-4.05,39.66,1553,2183,MOMBASA_II,-4.07,39.65,2,0.23,0.6,2.07,0.27,0.6,2.07
1110,Kenya,Nairobi,-1.28,36.82,5767,2183,MOMBASA_II,-4.07,39.65,442,,,,,,
1111,Kenya,Nakuru,-0.28,36.07,453,2183,MOMBASA_II,-4.07,39.65,580,,,,,,
1112,Kenya,Ruiru,-1.15,36.95,485,2183,MOMBASA_II,-4.07,39.65,442,,,,,,
1113,Kuwait,Al Kuwayt (Kuwait City),29.37,47.98,3405,1797,HADERA,32.47,34.86,1298,,,,,,
1114,Kyrgyzstan,Bishkek,42.87,74.59,1151,204,KARACHI,24.81,66.97,2128,,,,,,
1115,Lao People's Democratic Republic,Vientiane,17.97,102.6,756,1003,HONNGU,18.8,105.77,347,,,,,,
1116,Latvia,Riga,56.95,24.11,616,37,DAUGAVGRIVA,57.05,24.03,12,0.09,0.54,1.79,0.16,0.61,1.85
1117,Lebanon,Bayrut (Beirut),33.9,35.48,2379,1797,HADERA,32.47,34.86,169,,,,,,
1118,Liberia,Monrovia,6.3,-10.8,1795,331,TAKORADI,4.88,-1.75,1015,,,,,,
1119,Libya,Banghazi,32.12,20.07,882,1232,SOUDHAS,35.49,24.08,528,,,,,,
1120,Libya,Misratah,32.38,15.09,1035,1735,MARSAXLOKK  ,35.82,14.53,387,,,,,,
1121,Libya,Tarabulus (Tripoli),32.88,13.19,1203,1735,MARSAXLOKK  ,35.82,14.53,350,,,,,,
1122,Lithuania,Vilnius,54.69,25.28,542,37,DAUGAVGRIVA,57.05,24.03,274,,,,,,
1123,Madagascar,Antananarivo,-18.91,47.54,4229,1501,POINTE_DES_GALETS,-20.93,55.29,842,,,,,,
1124,Madagascar,Antsirabe,-19.87,47.03,446,1501,POINTE_DES_GALETS,-20.93,55.29,869,,,,,,
1125,Madagascar,Toamasina,-18.17,49.38,554,1501,POINTE_DES_GALETS,-20.93,55.29,692,,,,,,
1126,Malawi,Blantyre-Limbe,-15.78,35.01,1114,1600,ZANZIBAR,-6.15,39.18,1165,,,,,,
1127,Malawi,Lilongwe,-13.97,33.79,1393,1600,ZANZIBAR,-6.15,39.18,1052,,,,,,
1128,Malaysia,Alor Star,6.12,100.37,382,1676,PULAU_LANGKAWI,6.43,99.76,76,0.06,0.48,2.02,0.22,0.58,2.1
1129,Malaysia,Ipoh,4.58,101.08,888,1594,LUMUT,4.24,100.61,65,0.03,0.45,1.98,0.23,0.58,2.1
1130,Malaysia,Johor Bahru,1.47,103.76,1128,248,JOHOR_BAHRU,1.46,103.79,4,0.12,0.55,2.1,0.25,0.59,2.12
1131,Malaysia,Kota Bharu,6.13,102.25,375,1703,GETING,6.23,102.11,19,0.05,0.49,2.02,0.24,0.59,2.11
1132,Malaysia,Kota Kinabalu,5.98,116.12,613,1733,KOTA_KINABALU,5.98,116.07,5,0.19,0.56,2.1,0.24,0.6,2.13
1133,Malaysia,Kuala Lumpur,3.14,101.69,9000,1591,PELABUHAN_KELANG,3.05,101.36,38,0.06,0.48,2.01,0.24,0.58,2.09
1134,Malaysia,Kuala Terengganu,5.33,103.14,419,1592,CENDERING,5.26,103.19,10,0.12,0.55,2.1,0.24,0.59,2.11
1135,Malaysia,Kuantan,3.81,103.33,559,1589,TANJUNG_GELANG,3.98,103.43,22,0.13,0.54,2.08,0.25,0.59,2.11
1136,Malaysia,Kuching,1.55,110.33,663,1833,BINTULU,3.26,113.06,358,,,,,,
1137,Malaysia,Sandakan,5.84,118.12,403,1834,SANDAKAN,5.81,118.07,6,0.16,0.54,2.08,0.22,0.6,2.14
1138,Malaysia,Seremban,2.73,101.94,523,1593,TANJUNG_KELING,2.21,102.15,62,0.04,0.45,1.99,0.25,0.59,2.11
1139,Mali,Bamako,12.65,-8.0,3180,1816,DAKAR_2,14.68,-17.42,1044,,,,,,
1140,Mali,Sikasso,11.31,-5.67,488,331,TAKORADI,4.88,-1.75,836,,,,,,
1141,Mauritania,Nouakchott,18.09,-15.98,1613,1816,DAKAR_2,14.68,-17.42,409,,,,,,
1142,Mexico,Acapulco de Juárez,16.86,-99.89,1047,686,ACAPULCO,16.83,-99.92,5,0.7,1.03,2.54,0.25,0.57,2.08
1143,Mexico,Aguascalientes,21.88,-102.3,1197,737,MANZANILLO,19.05,-104.33,380,,,,,,
1144,Mexico,Cancún,21.17,-86.85,1065,1297,CABO_DE_SAN_ANTONIO,21.9,-84.9,217,,,,,,
1145,Mexico,Celaya,20.52,-100.82,727,918,TUXPAN,21.0,-97.33,367,,,,,,
1146,Mexico,Chihuahua,28.63,-106.08,1154,693,GUAYMAS,27.92,-110.9,479,,,,,,
1147,Mexico,Ciudad de México (Mexico City),19.43,-99.14,22752,918,TUXPAN,21.0,-97.33,258,,,,,,
1148,Mexico,Ciudad Juárez,31.73,-106.48,1626,693,GUAYMAS,27.92,-110.9,602,,,,,,
1149,Mexico,Ciudad Obregón,27.48,-109.93,408,693,GUAYMAS,27.92,-110.9,107,,,,,,
1150,Mexico,Ciudad Victoria,23.73,-99.13,392,1020,CIUDAD_MADERO,22.25,-97.8,214,,,,,,
1151,Mexico,Coatzacoalcos,18.15,-94.42,423,692,COATZACOALCOS,18.15,-94.42,0,0.28,0.64,2.17,0.27,0.61,2.13
1152,Mexico,Colima,19.23,-103.72,447,737,MANZANILLO,19.05,-104.33,68,0.46,0.78,2.3,0.26,0.56,2.07
1153,Mexico,Córdoba,18.88,-96.93,375,768,ALVARADO,18.77,-95.77,123,,,,,,
1154,Mexico,Cuautla Morelos,18.8,-98.95,559,686,ACAPULCO,16.83,-99.92,242,,,,,,
1155,Mexico,Cuernavaca,18.92,-99.25,1156,686,ACAPULCO,16.83,-99.92,243,,,,,,
1156,Mexico,Culiacán,24.8,-107.39,918,712,MAZATLAN,23.2,-106.42,204,,,,,,
1157,Mexico,Durango,24.03,-104.67,687,712,MAZATLAN,23.2,-106.42,201,,,,,,
1158,Mexico,Ensenada,31.87,-116.62,363,795,ENSENADA,31.85,-116.63,2,0.19,0.49,1.99,0.22,0.51,2.01
1159,Mexico,Guadalajara,20.67,-103.33,5579,737,MANZANILLO,19.05,-104.33,208,,,,,,
1160,Mexico,Hermosillo,29.08,-110.97,944,693,GUAYMAS,27.92,-110.9,130,,,,,,
1161,Mexico,Irapuato,20.68,-101.35,490,737,MANZANILLO,19.05,-104.33,361,,,,,,
1162,Mexico,La Laguna,25.55,-103.43,1867,712,MAZATLAN,23.2,-106.42,400,,,,,,
1163,Mexico,León de los Aldamas,21.12,-101.68,1950,737,MANZANILLO,19.05,-104.33,361,,,,,,
1164,Mexico,Los Mochis,25.77,-108.97,342,695,LA_PAZ,24.17,-110.35,226,,,,,,
1165,Mexico,Matamoros,25.53,-103.25,604,712,MAZATLAN,23.2,-106.42,413,,,,,,
1166,Mexico,Mazatlán,23.24,-106.41,492,712,MAZATLAN,23.2,-106.42,5,0.3,0.63,2.12,0.24,0.54,2.03
1167,Mexico,Mérida,20.97,-89.62,1258,690,PROGRESO,21.3,-89.67,38,0.45,0.81,2.33,0.28,0.61,2.12
1168,Mexico,Mexicali,32.65,-115.47,1215,795,ENSENADA,31.85,-116.63,141,,,,,,
1169,Mexico,Minatitlán,18.0,-94.56,428,692,COATZACOALCOS,18.15,-94.42,22,0.28,0.64,2.17,0.27,0.61,2.13
1170,Mexico,Monclova,26.9,-101.42,386,1038,PORT_MANSFIELD,26.55,-97.42,399,,,,,,
1171,Mexico,Monterrey,25.67,-100.32,5272,1038,PORT_MANSFIELD,26.55,-97.42,306,,,,,,
1172,Mexico,Morelia,19.7,-101.18,1016,737,MANZANILLO,19.05,-104.33,338,,,,,,
1173,Mexico,Nuevo Laredo,27.48,-99.52,481,1903,CORPUS_CHRISTI,27.58,-97.22,227,,,,,,
1174,Mexico,Oaxaca de Juárez,17.05,-96.72,757,689,SALINA_CRUZ,16.17,-95.2,189,,,,,,
1175,Mexico,Orizaba,18.85,-97.1,505,768,ALVARADO,18.77,-95.77,140,,,,,,
1176,Mexico,Pachuca de Soto,20.12,-98.73,693,918,TUXPAN,21.0,-97.33,176,,,,,,
1177,Mexico,Poza Rica de Hidalgo,20.53,-97.46,598,918,TUXPAN,21.0,-97.33,54,0.39,0.76,2.29,0.26,0.6,2.12
1178,Mexico,Puebla,19.04,-98.2,3443,918,TUXPAN,21.0,-97.33,236,,,,,,
1179,Mexico,Puerto Vallarta,20.62,-105.23,578,737,MANZANILLO,19.05,-104.33,199,,,,,,
1180,Mexico,Querétaro,20.6,-100.38,1459,918,TUXPAN,21.0,-97.33,321,,,,,,
1181,Mexico,Reynosa,26.08,-98.28,983,1038,PORT_MANSFIELD,26.55,-97.42,101,,,,,,
1182,Mexico,Saltillo,25.42,-101.0,1066,1038,PORT_MANSFIELD,26.55,-97.42,380,,,,,,
1183,Mexico,San Luis Potosí,22.15,-100.98,1311,1020,CIUDAD_MADERO,22.25,-97.8,328,,,,,,
1184,Mexico,Tampico,22.22,-97.85,1078,1020,CIUDAD_MADERO,22.25,-97.8,6,0.42,0.81,2.33,0.26,0.6,2.11
1185,Mexico,Tehuacán,18.45,-97.38,367,768,ALVARADO,18.77,-95.77,174,,,,,,
1186,Mexico,Tepic,21.5,-104.9,601,712,MAZATLAN,23.2,-106.42,246,,,,,,
1187,Mexico,Tijuana,32.53,-117.02,2333,158,SAN_DIEGO,32.71,-117.17,24,0.25,0.55,2.04,0.21,0.5,2.0
1188,Mexico,Tlaxcala,19.31,-98.24,646,918,TUXPAN,21.0,-97.33,210,,,,,,
1189,Mexico,Toluca de Lerdo,19.28,-99.66,2720,686,ACAPULCO,16.83,-99.92,275,,,,,,
1190,Mexico,Tuxtla Gutierrez,16.75,-93.12,928,692,COATZACOALCOS,18.15,-94.42,208,,,,,,
1191,Mexico,Uruapán,19.42,-102.06,362,737,MANZANILLO,19.05,-104.33,242,,,,,,
1192,Mexico,Veracruz,19.2,-96.13,981,768,ALVARADO,18.77,-95.77,61,0.23,0.6,2.14,0.27,0.61,2.13
1193,Mexico,Villahermosa,17.98,-92.92,972,796,CIUDAD_DEL_CARMEN,18.63,-91.85,134,,,,,,
1194,Mexico,Xalapa,19.54,-96.91,835,768,ALVARADO,18.77,-95.77,148,,,,,,
1195,Mexico,Zacatecas,22.78,-102.57,399,712,MAZATLAN,23.2,-106.42,397,,,,,,
1196,Mongolia,Ulaanbaatar,47.91,106.88,1725,1403,TANGGU,39.0,117.72,1320,,,,,,
1197,Morocco,Agadir,30.42,-9.59,1017,593,ARRECIFE,28.97,-13.53,414,,,,,,
1198,Morocco,Dar-el-Beida (Casablanca),33.59,-7.62,4012,488,TARIFA,36.01,-5.6,326,,,,,,
1199,Morocco,Fès,34.04,-5.0,1337,498,CEUTA,35.89,-5.32,208,,,,,,
1200,Morocco,Kénitra,34.26,-6.58,527,488,TARIFA,36.01,-5.6,214,,,,,,
1201,Morocco,Marrakech,31.63,-8.01,1085,498,CEUTA,35.89,-5.32,535,,,,,,
1202,Morocco,Meknès,33.89,-5.55,595,498,CEUTA,35.89,-5.32,223,,,,,,
1203,Morocco,Oujda,34.68,-1.91,618,1455,ALMERIA,36.83,-2.48,245,,,,,,
1204,Morocco,Rabat,34.01,-6.83,2021,488,TARIFA,36.01,-5.6,249,,,,,,
1205,Morocco,Safi,32.3,-9.24,346,488,TARIFA,36.01,-5.6,532,,,,,,
1206,Morocco,Tanger,35.78,-5.81,1381,488,TARIFA,36.01,-5.6,32,0.18,0.53,1.86,0.24,0.58,1.91
1207,Morocco,Tétouan,35.57,-5.37,461,498,CEUTA,35.89,-5.32,36,0.13,0.48,1.81,0.24,0.58,1.91
1208,Mozambique,Beira,-19.84,34.84,667,284,DURBAN,-29.87,31.05,1180,,,,,,
1209,Mozambique,Chimoio,-19.12,33.48,529,284,DURBAN,-29.87,31.05,1222,,,,,,
1210,Mozambique,Maputo,-25.97,32.59,1230,284,DURBAN,-29.87,31.05,460,,,,,,
1211,Mozambique,Matola,-25.96,32.46,1985,284,DURBAN,-29.87,31.05,457,,,,,,
1212,Mozambique,Nampula,-15.12,39.27,1057,1600,ZANZIBAR,-6.15,39.18,998,,,,,,
1213,Mozambique,Quelimane,-17.88,36.89,536,1600,ZANZIBAR,-6.15,39.18,1329,,,,,,
1214,Mozambique,Tete,-16.16,33.59,490,1600,ZANZIBAR,-6.15,39.18,1270,,,,,,
1215,Myanmar,Mandalay,21.97,96.08,1594,1476,COX'S_BAZAAR,21.45,91.83,444,,,,,,
1216,Myanmar,Nay Pyi Taw,19.74,96.13,788,210,RANGOON,16.77,96.17,331,,,,,,
1217,Myanmar,Yangon,16.81,96.16,5813,210,RANGOON,16.77,96.17,4,0.33,0.71,2.18,0.21,0.54,2.01
1218,Namibia,Windhoek,-22.56,17.08,511,914,WALVIS_BAY,-22.95,14.5,269,,,,,,
1219,Nepal,Kathmandu,27.7,85.32,1673,1002,TRIBENI,22.98,88.4,610,,,,,,
1220,Nepal,Pokhara,28.23,83.98,511,1002,TRIBENI,22.98,88.4,734,,,,,,
1221,Netherlands,Amsterdam,52.37,4.89,1189,32,IJMUIDEN,52.46,4.55,25,0.15,0.59,1.86,0.13,0.57,1.84
1222,Netherlands,Eindhoven,51.44,5.48,373,9,MAASSLUIS,51.92,4.25,100,0.16,0.6,1.86,0.13,0.57,1.84
1223,Netherlands,Rotterdam,51.92,4.48,1026,9,MAASSLUIS,51.92,4.25,16,0.16,0.6,1.86,0.13,0.57,1.84
1224,Netherlands,s-Gravenhage (The Hague),52.08,4.3,725,22,HOEK_VAN_HOLLAND,51.98,4.12,16,0.21,0.65,1.92,0.13,0.57,1.84
1225,Netherlands,Utrecht,52.09,5.12,576,32,IJMUIDEN,52.46,4.55,57,0.15,0.59,1.86,0.13,0.57,1.84
1226,New Zealand,Auckland,-36.87,174.77,1711,150,AUCKLAND_II,-36.84,174.77,3,0.21,0.57,2.03,0.22,0.58,2.04
1227,New Zealand,Christchurch,-43.53,172.63,410,247,PORT_LYTTELTON,-43.61,172.72,11,0.26,0.62,2.0,0.23,0.58,1.96
1228,New Zealand,Wellington,-41.29,174.78,428,500,WELLINGTON_II,-41.28,174.78,1,0.28,0.63,2.05,0.23,0.57,1.99
1229,Nicaragua,Managua,12.13,-86.25,1121,558,LA_UNION,13.33,-87.82,216,,,,,,
1230,Niger,Niamey,13.51,2.11,1561,1049,TEMA,5.62,0.0,909,,,,,,
1231,Niger,Zinder,13.81,8.99,632,1049,TEMA,5.62,0.0,1342,,,,,,
1232,Nigeria,Aba,5.11,7.37,1275,1049,TEMA,5.62,0.0,818,,,,,,
1233,Nigeria,Abakaliki,6.32,8.12,723,1049,TEMA,5.62,0.0,902,,,,,,
1234,Nigeria,Abeokuta,7.15,3.35,608,1049,TEMA,5.62,0.0,408,,,,,,
1235,Nigeria,Abuja,9.06,7.49,4210,1049,TEMA,5.62,0.0,911,,,,,,
1236,Nigeria,Ado-Ekiti,7.62,5.22,578,1049,TEMA,5.62,0.0,619,,,,,,
1237,Nigeria,Akure,7.25,5.19,803,1049,TEMA,5.62,0.0,602,,,,,,
1238,Nigeria,Bauchi,10.31,9.84,724,1049,TEMA,5.62,0.0,1204,,,,,,
1239,Nigeria,Benin City,6.34,5.63,2045,1049,TEMA,5.62,0.0,628,,,,,,
1240,Nigeria,Birnin Kebbi,12.45,4.2,446,1049,TEMA,5.62,0.0,890,,,,,,
1241,Nigeria,Calabar,4.95,8.32,713,1049,TEMA,5.62,0.0,925,,,,,,
1242,Nigeria,Effon Alaiye,7.65,4.92,457,1049,TEMA,5.62,0.0,589,,,,,,
1243,Nigeria,Enugu,6.44,7.49,907,1049,TEMA,5.62,0.0,835,,,,,,
1244,Nigeria,Gboko,7.33,9.0,524,1049,TEMA,5.62,0.0,1014,,,,,,
1245,Nigeria,Gombe,10.29,11.17,620,1049,TEMA,5.62,0.0,1336,,,,,,
1246,Nigeria,Gwagwalada,8.94,7.09,566,1049,TEMA,5.62,0.0,866,,,,,,
1247,Nigeria,Ibadan,7.39,3.9,4144,1049,TEMA,5.62,0.0,474,,,,,,
1248,Nigeria,Ife,7.48,4.56,438,1049,TEMA,5.62,0.0,545,,,,,,
1249,Nigeria,Igbidu,6.07,8.12,528,1049,TEMA,5.62,0.0,900,,,,,,
1250,Nigeria,Ijebu-Ode,6.82,3.92,409,1049,TEMA,5.62,0.0,453,,,,,,
1251,Nigeria,Ikorodu,6.61,3.51,1197,1049,TEMA,5.62,0.0,404,,,,,,
1252,Nigeria,Ikot Ekpene,5.18,7.71,468,1049,TEMA,5.62,0.0,856,,,,,,
1253,Nigeria,Ilesha,7.62,4.73,432,1049,TEMA,5.62,0.0,569,,,,,,
1254,Nigeria,Ilorin,8.5,4.55,1100,1049,TEMA,5.62,0.0,596,,,,,,
1255,Nigeria,Jos,9.92,8.9,1035,1049,TEMA,5.62,0.0,1092,,,,,,
1256,Nigeria,Kaduna,10.52,7.44,1260,1049,TEMA,5.62,0.0,985,,,,,,
1257,Nigeria,Kano,12.0,8.52,4645,1049,TEMA,5.62,0.0,1175,,,,,,
1258,Nigeria,Katsina,12.99,7.6,565,1049,TEMA,5.62,0.0,1170,,,,,,
1259,Nigeria,Lafia,8.48,8.52,403,1049,TEMA,5.62,0.0,993,,,,,,
1260,Nigeria,Lagos,6.45,3.4,17156,1049,TEMA,5.62,0.0,387,,,,,,
1261,Nigeria,Lokoja,7.8,6.74,931,1049,TEMA,5.62,0.0,784,,,,,,
1262,Nigeria,Maiduguri,11.85,13.16,899,1049,TEMA,5.62,0.0,1605,,,,,,
1263,Nigeria,Makurdi,7.74,8.51,490,1049,TEMA,5.62,0.0,970,,,,,,
1264,Nigeria,Minna,9.61,6.56,532,1049,TEMA,5.62,0.0,849,,,,,,
1265,Nigeria,Nnewi,6.02,6.91,1362,1049,TEMA,5.62,0.0,767,,,,,,
1266,Nigeria,Ogbomosho,8.13,4.24,683,1049,TEMA,5.62,0.0,546,,,,,,
1267,Nigeria,Okene,7.55,6.23,546,1049,TEMA,5.62,0.0,722,,,,,,
1268,Nigeria,Okpogho,6.44,7.28,551,1049,TEMA,5.62,0.0,812,,,,,,
1269,Nigeria,Ondo,7.1,4.83,510,1049,TEMA,5.62,0.0,560,,,,,,
1270,Nigeria,Onitsha,6.15,6.79,1767,1049,TEMA,5.62,0.0,754,,,,,,
1271,Nigeria,Oshogbo,7.77,4.57,822,1049,TEMA,5.62,0.0,559,,,,,,
1272,Nigeria,Owerri,5.48,7.03,1064,1049,TEMA,5.62,0.0,779,,,,,,
1273,Nigeria,Oyo,7.85,3.93,506,1049,TEMA,5.62,0.0,501,,,,,,
1274,Nigeria,Port Harcourt,4.78,7.01,3794,1049,TEMA,5.62,0.0,783,,,,,,
1275,Nigeria,Potiskum,11.71,11.07,565,1049,TEMA,5.62,0.0,1393,,,,,,
1276,Nigeria,Saki,8.67,3.38,472,1049,TEMA,5.62,0.0,505,,,,,,
1277,Nigeria,Sokoto,13.06,5.24,761,1049,TEMA,5.62,0.0,1008,,,,,,
