city_index,city_name,city_country,city_lat,city_lon,population_2025_1000s,coast_distance_km,location,gauge_id,gauge_name,gauge_distance_km,lat,lon,low-end,low,central,high,high-end
24,Buenos Aires,Argentina,-34.61,-58.4,15752,3,157,157,BUENOS_AIRES,3,-34.6,-58.37,0.21,0.3,0.52,0.9,1.85
27,La Plata,Argentina,-34.92,-57.95,933,9,433,433,COLONIA,50,-34.48,-57.85,0.2,0.29,0.51,0.89,1.85
28,Mar Del Plata,Argentina,-38.0,-57.56,698,2,857,857,MAR_DEL_PLATA,4,-38.03,-57.53,0.16,0.25,0.47,0.85,1.81
41,Adelaide,Australia,-34.93,138.6,1393,9,448,448,PORT_ADELAIDE,20,-34.78,138.48,0.26,0.35,0.57,0.92,1.91
42,Brisbane,Australia,-27.47,153.03,2568,7,822,822,BRISBANE,18,-27.37,153.17,0.2,0.3,0.53,0.96,2.01
44,Central Coast,Australia,-33.42,151.4,347,3,549,549,CAMP_COVE,47,-33.83,151.28,0.18,0.28,0.53,0.97,1.98
45,Gold Coast-Tweed Head,Australia,-28.0,153.43,753,1,1704,1704,GOLD_COAST_SEAWAY_2,6,-27.95,153.42,0.21,0.3,0.54,0.97,2.01
46,Melbourne,Australia,-37.81,144.96,5392,4,1033,1033,STONY_POINT,66,-38.37,145.22,0.16,0.26,0.49,0.85,1.82
47,Newcastle-Maitland,Australia,-32.92,151.74,470,2,837,837,NEWCASTLE_V,5,-32.92,151.79,0.23,0.32,0.57,1.02,2.03
48,Perth,Australia,-31.95,115.85,2169,2,111,111,FREMANTLE,16,-32.06,115.74,0.23,0.34,0.58,0.96,2.01
49,Sunshine Coast,Australia,-26.66,153.1,376,1,1493,1493,MOOLOOLABA_2,4,-26.68,153.13,0.2,0.29,0.53,0.96,2.01
50,Sydney,Australia,-33.87,151.21,5249,1,196,196,SYDNEY,3,-33.85,151.23,0.18,0.27,0.53,0.97,1.97
51,Wollongong,Australia,-34.42,150.89,319,1,831,831,PORT_KEMBLA,5,-34.47,150.91,0.16,0.26,0.52,0.95,1.96
57,Barisal,Bangladesh,22.7,90.37,565,20,1496,1496,CHARCHANGA,88,22.22,91.05,0.21,0.37,0.66,1.12,2.13
59,Chittagong,Bangladesh,22.33,91.84,5653,6,1496,1496,CHARCHANGA,82,22.22,91.05,0.21,0.37,0.66,1.12,2.13
74,Antwerpen,Belgium,51.22,4.4,1065,18,20,20,VLISSINGEN,61,51.44,3.6,0.14,0.29,0.58,1.01,1.84
75,Bruxelles-Brussel,Belgium,50.85,4.35,2142,57,20,20,VLISSINGEN,84,51.44,3.6,0.14,0.29,0.58,1.01,1.84
77,Gent,Belgium,51.05,3.72,479,32,20,20,VLISSINGEN,44,51.44,3.6,0.14,0.29,0.58,1.01,1.84
92,Belém,Brazil,-1.46,-48.48,2454,1,580,580,BELEM,2,-1.45,-48.5,0.21,0.31,0.57,0.96,2.0
106,Feira De Santana,Brazil,-12.27,-38.97,637,46,578,578,SALVADOR,92,-12.97,-38.52,0.22,0.32,0.58,0.98,2.05
107,Florianópolis,Brazil,-27.6,-48.55,1324,1,542,542,IMBITUBA,71,-28.23,-48.65,0.23,0.33,0.59,0.99,2.02
131,Recife,Brazil,-8.05,-34.88,4344,1,556,556,RECIFE,1,-8.05,-34.87,0.2,0.31,0.57,0.96,2.06
134,Rio de Janeiro,Brazil,-22.9,-43.21,13923,1,1032,1032,ILHA_FISCAL,4,-22.9,-43.17,0.22,0.32,0.57,0.97,2.03
135,Salvador,Brazil,-12.97,-38.51,4030,2,578,578,SALVADOR,1,-12.97,-38.52,0.22,0.32,0.58,0.98,2.05
149,Varna,Bulgaria,43.22,27.92,334,3,318,318,VARNA,4,43.18,27.92,0.0,0.16,0.43,0.9,1.76
163,Halifax,Canada,44.65,-63.58,426,0,96,96,HALIFAX,2,44.67,-63.58,0.35,0.5,0.82,1.29,2.22
174,Vancouver,Canada,49.25,-123.12,2708,3,175,175,VANCOUVER,3,49.28,-123.12,0.05,0.14,0.33,0.67,1.7
175,Victoria,Canada,48.43,-123.37,405,2,166,166,VICTORIA,1,48.42,-123.37,0.09,0.18,0.38,0.72,1.76
180,Antofagasta,Chile,-23.65,-70.4,466,2,510,510,ANTOFAGASTA_2,0,-23.65,-70.4,0.05,0.14,0.36,0.72,1.75
181,Concepción,Chile,-36.83,-73.05,929,4,571,571,TALCAHUANO,17,-36.68,-73.1,0.12,0.21,0.41,0.74,1.7
185,Valparaíso,Chile,-33.04,-71.63,1024,2,499,499,VALPARAISO,1,-33.03,-71.63,0.03,0.12,0.33,0.67,1.65
203,Beihai,China,21.48,109.12,515,2,1408,1408,BEIHAI,4,21.48,109.08,0.07,0.22,0.54,0.99,2.03
219,Changshu,China,31.65,120.75,1124,16,979,979,LUSI,98,32.13,121.62,0.43,0.54,0.81,1.27,2.35
236,Dalian,China,38.91,121.6,6347,2,1513,1513,LAOHUTAN,8,38.87,121.68,0.19,0.29,0.55,1.01,2.06
239,Danzhou,China,19.52,109.58,476,34,1428,1428,HAIKOU,93,20.02,110.28,0.21,0.37,0.69,1.14,2.21
251,Dongguan,China,23.02,113.74,7773,13,1366,1366,TSIM_BEI_TSUI,65,22.49,114.01,0.08,0.2,0.48,0.9,1.97
257,Enping,China,22.19,112.3,457,22,933,933,ZHAPO,84,21.58,111.82,0.23,0.34,0.61,1.01,2.09
261,Fangchenggang,China,21.77,108.35,491,6,1408,1408,BEIHAI,82,21.48,109.08,0.07,0.22,0.54,0.99,2.03
290,Haikou,China,20.03,110.33,2095,3,1428,1428,HAIKOU,5,20.02,110.28,0.21,0.37,0.69,1.14,2.21
292,Haimen,China,31.9,121.17,715,5,979,979,LUSI,50,32.13,121.62,0.43,0.54,0.81,1.27,2.35
294,Haiyang,China,36.78,121.17,372,8,731,731,YANTAI,85,37.53,121.38,0.06,0.19,0.46,0.94,1.98
307,Heshan,China,22.77,112.96,448,28,269,269,MACAU,88,22.2,113.55,0.12,0.23,0.5,0.91,1.99
320,Huizhou,China,23.08,114.4,2891,41,1034,1034,TAI_PO_KAU,75,22.44,114.18,0.28,0.39,0.66,1.07,2.15
325,Jiangmen,China,22.58,113.08,1827,12,269,269,MACAU,64,22.2,113.55,0.12,0.23,0.5,0.91,1.99
342,Jinjiang,China,24.81,118.58,554,4,727,727,XIAMEN,65,24.45,118.07,0.2,0.31,0.59,1.01,2.09
352,Kaiping,China,22.37,112.7,426,28,269,269,MACAU,89,22.2,113.55,0.12,0.23,0.5,0.91,1.99
360,Laiyang,China,36.98,120.71,413,38,731,731,YANTAI,85,37.53,121.38,0.06,0.19,0.46,0.94,1.98
368,Lianyungang,China,34.6,119.18,2081,10,1405,1405,LIANYUNGANG,30,34.75,119.45,0.13,0.29,0.6,1.1,2.13
374,Linhai,China,28.85,121.14,814,26,934,934,KANMEN,87,28.08,121.28,0.26,0.36,0.62,1.07,2.17
385,Longhai,China,24.45,117.81,736,1,727,727,XIAMEN,26,24.45,118.07,0.2,0.31,0.59,1.01,2.09
386,Longkou,China,37.64,120.52,589,12,731,731,YANTAI,77,37.53,121.38,0.06,0.19,0.46,0.94,1.98
397,Maoming,China,21.66,110.92,1362,18,933,933,ZHAPO,93,21.58,111.82,0.23,0.34,0.61,1.01,2.09
409,Nantong,China,31.99,120.87,2614,2,979,979,LUSI,73,32.13,121.62,0.43,0.54,0.81,1.27,2.35
427,Qidong,China,31.81,121.66,415,9,979,979,LUSI,35,32.13,121.62,0.43,0.54,0.81,1.27,2.35
431,Qinhuangdao,China,39.93,119.59,1763,2,614,614,QINHUANGDAO,4,39.9,119.6,0.07,0.19,0.47,0.94,1.96
432,Qinzhou,China,21.97,108.62,726,9,1408,1408,BEIHAI,72,21.48,109.08,0.07,0.22,0.54,0.99,2.03
435,Quanzhou,China,24.9,118.6,1967,2,727,727,XIAMEN,73,24.45,118.07,0.2,0.31,0.59,1.01,2.09
440,Rizhao,China,35.4,119.51,1459,4,1404,1404,SHIJIUSUO,4,35.38,119.55,-0.01,0.15,0.46,0.96,1.99
443,Ruian,China,27.78,120.68,1345,5,934,934,KANMEN,68,28.08,121.28,0.26,0.36,0.62,1.07,2.17
444,Rushan,China,36.92,121.53,355,8,731,731,YANTAI,70,37.53,121.38,0.06,0.19,0.46,0.94,1.98
454,Shanwei,China,22.78,115.36,467,0,1406,1406,SHANWEI,3,22.75,115.35,0.11,0.26,0.59,1.04,2.11
461,Shenzhen,China,22.54,114.06,13545,4,1366,1366,TSIM_BEI_TSUI,8,22.49,114.01,0.08,0.2,0.48,0.9,1.97
464,Shishi,China,24.74,118.63,649,4,727,727,XIAMEN,65,24.45,118.07,0.2,0.31,0.59,1.01,2.09
481,Taicang,China,31.45,121.12,765,18,979,979,LUSI,89,32.13,121.62,0.43,0.54,0.81,1.27,2.35
482,Taishan,China,22.25,112.79,593,27,269,269,MACAU,78,22.2,113.55,0.12,0.23,0.5,0.91,1.99
486,"Taizhou, Zhejiang",China,28.64,121.42,2199,6,934,934,KANMEN,63,28.08,121.28,0.26,0.36,0.62,1.07,2.17
487,"Tangshan, Hebei",China,39.63,118.18,4024,48,1403,1403,TANGGU,80,39.0,117.72,0.02,0.18,0.5,1.0,2.01
489,Tianjin,China,39.11,117.19,14704,46,1403,1403,TANGGU,48,39.0,117.72,0.02,0.18,0.5,1.0,2.01
500,Wafangdian ,China,39.63,121.99,494,25,1513,1513,LAOHUTAN,88,38.87,121.68,0.19,0.29,0.55,1.01,2.06
503,Weihai,China,37.5,122.11,1499,2,731,731,YANTAI,65,37.53,121.38,0.06,0.19,0.46,0.94,1.98
505,Wenchang,China,19.61,110.75,409,5,1428,1428,HAIKOU,67,20.02,110.28,0.21,0.37,0.69,1.14,2.21
506,Wenling,China,28.38,121.38,1185,8,934,934,KANMEN,34,28.08,121.28,0.26,0.36,0.62,1.07,2.17
507,Wenzhou,China,28.0,120.67,4093,2,934,934,KANMEN,61,28.08,121.28,0.26,0.36,0.62,1.07,2.17
516,Xiamen,China,24.48,118.08,4078,1,727,727,XIAMEN,4,24.45,118.07,0.2,0.31,0.59,1.01,2.09
548,Yangchun,China,22.17,111.79,324,42,933,933,ZHAPO,66,21.58,111.82,0.23,0.34,0.61,1.01,2.09
549,Yangjiang,China,21.86,111.96,996,5,933,933,ZHAPO,34,21.58,111.82,0.23,0.34,0.61,1.01,2.09
554,Yantai,China,37.47,121.44,2898,3,731,731,YANTAI,9,37.53,121.38,0.06,0.19,0.46,0.94,1.98
570,Yueqing,China,28.12,120.96,1230,4,934,934,KANMEN,32,28.08,121.28,0.26,0.36,0.62,1.07,2.17
572,Yuhuan,China,28.14,121.23,517,2,934,934,KANMEN,8,28.08,121.28,0.26,0.36,0.62,1.07,2.17
586,Zhangzhou,China,24.51,117.66,1002,13,727,727,XIAMEN,43,24.45,118.07,0.2,0.31,0.59,1.01,2.09
591,Zhaoyuan,China,37.36,120.4,385,24,731,731,YANTAI,89,37.53,121.38,0.06,0.19,0.46,0.94,1.98
594,Zhongshan,China,22.52,113.38,3094,13,269,269,MACAU,39,22.2,113.55,0.12,0.23,0.5,0.91,1.99
599,Zhucheng,China,35.99,119.4,1045,47,1404,1404,SHIJIUSUO,70,35.38,119.55,-0.01,0.15,0.46,0.96,1.99
600,Zhuhai,China,22.28,113.57,1969,1,269,269,MACAU,9,22.2,113.55,0.12,0.23,0.5,0.91,1.99
610,Hong Kong,"China, Hong Kong SAR",22.28,114.19,7769,1,1674,1674,QUARRY_BAY,2,22.29,114.21,0.13,0.26,0.56,0.99,2.06
611,Macao,"China, Macao SAR",22.2,113.55,701,1,269,269,MACAU,0,22.2,113.55,0.12,0.23,0.5,0.91,1.99
612,Gaoxiong,"China, Taiwan Province of China",22.63,120.32,1566,4,1356,1356,KAOHSIUNG_II,11,22.53,120.32,0.05,0.21,0.56,1.02,2.12
613,Jilong,"China, Taiwan Province of China",25.13,121.74,371,1,545,545,KEELUNG_II,1,25.13,121.73,0.16,0.28,0.57,1.03,2.14
614,Taibei,"China, Taiwan Province of China",25.05,121.55,2779,16,545,545,KEELUNG_II,21,25.13,121.73,0.16,0.28,0.57,1.03,2.14
615,Tainan,"China, Taiwan Province of China",23.13,120.26,881,13,1356,1356,KAOHSIUNG_II,67,22.53,120.32,0.05,0.21,0.56,1.02,2.12
617,Taoyuan,"China, Taiwan Province of China",24.99,121.3,2357,15,545,545,KEELUNG_II,46,25.13,121.73,0.16,0.28,0.57,1.03,2.14
618,Xinbei,"China, Taiwan Province of China",25.01,121.46,4564,16,545,545,KEELUNG_II,30,25.13,121.73,0.16,0.28,0.57,1.03,2.14
619,Xinzhu,"China, Taiwan Province of China",24.8,120.97,467,5,545,545,KEELUNG_II,85,25.13,121.73,0.16,0.28,0.57,1.03,2.14
624,Buenaventura,Colombia,3.89,-77.07,488,0,456,456,BUENAVENTURA,4,3.9,-77.1,0.17,0.28,0.51,0.92,1.97
625,Cali,Colombia,3.44,-76.52,2917,71,456,456,BUENAVENTURA,82,3.9,-77.1,0.17,0.28,0.51,0.92,1.97
626,Cartagena,Colombia,10.4,-75.51,1106,1,572,572,CARTAGENA,4,10.4,-75.55,0.45,0.56,0.82,1.24,2.31
640,Alajuela,Costa Rica,10.02,-84.22,435,52,464,464,PUNTARENAS,67,9.97,-84.83,0.27,0.38,0.62,1.03,2.13
641,Heredia,Costa Rica,10.0,-84.12,359,58,464,464,PUNTARENAS,78,9.97,-84.83,0.27,0.38,0.62,1.03,2.13
642,San José,Costa Rica,9.93,-84.08,1503,51,464,464,PUNTARENAS,82,9.97,-84.83,0.27,0.38,0.62,1.03,2.13
647,La Habana (Havana),Cuba,23.12,-82.38,2156,3,1162,1162,SIBONEY,10,23.1,-82.47,0.38,0.48,0.72,1.12,2.2
648,Santiago de Cuba,Cuba,20.02,-75.82,443,2,418,418,GUANTANAMO_BAY,71,19.91,-75.15,0.28,0.38,0.65,1.05,2.14
652,Hamhung,Dem. People's Republic of Korea,39.92,127.54,546,12,1007,1007,WONSAN,84,39.17,127.45,0.18,0.31,0.59,1.07,2.13
655,Wonsan,Dem. People's Republic of Korea,39.15,127.44,366,2,1007,1007,WONSAN,2,39.17,127.45,0.18,0.31,0.59,1.07,2.13
672,København (Copenhagen),Denmark,55.68,12.57,1401,1,82,82,KOBENHAVN,3,55.7,12.6,0.1,0.24,0.52,0.94,1.76
681,Al-Iskandariyah (Alexandria),Egypt,31.19,29.9,5807,2,503,503,ALEXANDRIA,3,31.22,29.92,0.24,0.36,0.62,1.06,1.98
682,Al-Ismailiyah,Egypt,30.6,32.27,383,52,253,253,PORT_SAID,72,31.25,32.3,0.18,0.3,0.57,1.02,1.94
684,Al-Mansurah,Egypt,31.04,31.38,607,46,253,253,PORT_SAID,91,31.25,32.3,0.18,0.3,0.57,1.02,1.94
690,Bur Sa'id,Egypt,31.26,32.28,808,1,253,253,PORT_SAID,2,31.25,32.3,0.18,0.3,0.57,1.02,1.94
691,Kafr-ad-Dawwar,Egypt,31.13,30.13,375,15,503,503,ALEXANDRIA,22,31.22,29.92,0.24,0.36,0.62,1.06,1.98
693,San Salvador,El Salvador,13.69,-89.19,1132,26,1011,1011,ACAJUTLA,71,13.57,-89.83,0.25,0.36,0.6,1.0,2.1
696,Tallinn,Estonia,59.44,24.75,458,2,14,14,HELSINKI,80,60.15,24.96,-0.22,-0.07,0.24,0.67,1.46
702,Helsinki,Finland,60.17,24.94,1355,1,14,14,HELSINKI,2,60.15,24.96,-0.22,-0.07,0.24,0.67,1.46
704,Avignon,France,43.95,4.81,484,55,61,61,MARSEILLE,86,43.28,5.35,0.17,0.28,0.53,0.91,1.8
705,Béthune,France,50.53,2.63,365,61,468,468,DUNKERQUE,60,51.05,2.37,0.15,0.3,0.58,1.01,1.85
706,Bordeaux,France,44.84,-0.58,1018,18,1915,1915,PORT_BLOC,89,45.57,-1.06,0.16,0.28,0.53,0.93,1.81
707,Douai-Lens,France,50.37,3.08,507,89,489,489,NIEUWPOORT,90,51.15,2.73,0.18,0.32,0.61,1.03,1.88
709,Lille,France,50.63,3.06,1092,62,489,489,NIEUWPOORT,62,51.15,2.73,0.18,0.32,0.61,1.03,1.88
711,Marseille-Aix-en-Provence,France,43.53,5.44,1645,21,61,61,MARSEILLE,29,43.28,5.35,0.17,0.28,0.53,0.91,1.8
712,Montpellier,France,43.61,3.88,487,10,958,958,SETE,27,43.4,3.7,0.18,0.3,0.56,0.95,1.84
713,Nantes,France,47.22,-1.55,711,32,457,457,ST. NAZAIRE,49,47.27,-2.2,0.15,0.27,0.52,0.91,1.79
714,Nice-Cannes,France,43.66,7.15,956,1,1468,1468,NICE,12,43.7,7.29,0.11,0.23,0.48,0.87,1.75
716,Rennes,France,48.11,-1.67,371,52,454,454,ST. MALO,64,48.64,-2.03,0.13,0.27,0.53,0.93,1.8
717,Rouen,France,49.44,1.1,479,45,474,474,DIEPPE,54,49.93,1.08,0.25,0.39,0.68,1.1,1.95
720,Toulon,France,43.12,5.93,593,1,980,980,TOULON,2,43.11,5.91,0.12,0.24,0.5,0.88,1.77
731,Bremen,Germany,53.08,8.81,569,38,7,7,CUXHAVEN_2,89,53.87,8.72,0.2,0.34,0.64,1.07,1.89
738,Hamburg,Germany,53.55,10.0,1788,11,13,13,TRAVEMUNDE,73,53.96,10.87,0.19,0.33,0.63,1.07,1.88
749,Accra,Ghana,5.56,-0.2,2788,2,1049,1049,TEMA,23,5.62,0.0,0.23,0.34,0.6,1.02,2.05
751,Sekondi Takoradi,Ghana,4.93,-1.71,1160,1,331,331,TAKORADI,7,4.88,-1.75,0.32,0.42,0.67,1.08,2.13
753,Athínai (Athens),Greece,37.95,23.75,3155,5,374,374,PIRAIEVS,11,37.94,23.63,-0.0,0.12,0.37,0.77,1.68
754,Thessaloniki,Greece,40.64,22.94,815,2,373,373,THESSALONIKI,2,40.63,22.93,0.28,0.4,0.65,1.05,1.94
759,San Pedro Sula,Honduras,15.5,-88.03,1034,23,557,557,PUERTO_CORTES,38,15.83,-87.95,0.57,0.69,0.97,1.4,2.49
781,Barddhaman,India,23.24,87.87,458,114,1002,1002,TRIBENI,62,22.98,88.4,1.64,1.76,2.01,2.44,3.43
785,Belgaum,India,15.85,74.5,800,80,1249,1249,MORMUGAO,90,15.42,73.8,0.13,0.25,0.51,0.96,2.01
788,Bhavnagar,India,21.77,72.15,767,5,420,420,BHAUNAGAR_I,16,21.8,72.3,0.27,0.41,0.71,1.19,2.19
790,Bhiwandi,India,19.3,73.07,944,15,43,43,MUMBAI,49,18.92,72.83,0.14,0.23,0.46,0.9,1.94
792,Bhubaneswar,India,20.23,85.83,1321,46,1161,1161,PARADIP,91,20.27,86.7,0.1,0.22,0.47,0.9,1.93
801,Chennai (Madras),India,13.05,80.25,12336,3,205,205,CHENNAI,8,13.1,80.3,0.11,0.21,0.45,0.9,1.97
802,Cherthala,India,9.68,76.34,931,5,438,438,COCHIN,33,9.97,76.27,0.23,0.33,0.58,1.02,2.11
804,Cuttack,India,20.46,85.88,805,70,1161,1161,PARADIP,88,20.27,86.7,0.1,0.22,0.47,0.9,1.93
821,Gandhidham,India,23.07,70.14,466,8,596,596,KANDLA,10,23.02,70.22,0.11,0.21,0.46,0.9,1.9
828,Habra,India,22.83,88.63,382,84,1002,1002,TRIBENI,28,22.98,88.4,1.64,1.76,2.01,2.44,3.43
845,Jamnagar,India,22.47,70.07,691,7,596,596,KANDLA,64,23.02,70.22,0.11,0.21,0.46,0.9,1.9
852,Kanhangad,India,12.31,75.11,399,3,696,696,MANGALORE,67,12.85,74.83,-0.0,0.14,0.44,0.91,1.97
858,Kayamkulam,India,9.17,76.5,839,2,438,438,COCHIN,93,9.97,76.27,0.23,0.33,0.58,1.02,2.11
860,Kharagpur,India,22.33,87.32,352,73,1369,1369,GANGRA,84,21.95,88.02,0.14,0.28,0.54,0.98,1.98
861,Kochi (Cochin),India,9.93,76.26,3605,1,438,438,COCHIN,5,9.97,76.27,0.23,0.33,0.58,1.02,2.11
863,Kolkata (Calcutta),India,22.53,88.36,15845,42,48,48,KIDDERPORE,3,22.53,88.33,-0.33,-0.21,0.04,0.46,1.47
867,Kottayam,India,9.58,76.52,885,23,438,438,COCHIN,51,9.97,76.27,0.23,0.33,0.58,1.02,2.11
876,Mangalore,India,12.92,74.86,779,4,1423,1423,MANGALORE,6,12.92,74.8,0.11,0.24,0.52,0.97,2.03
881,Morvi,India,22.82,70.83,399,43,596,596,KANDLA,67,23.02,70.22,0.11,0.21,0.46,0.9,1.9
882,Mumbai (Bombay),India,19.07,72.88,22089,3,43,43,MUMBAI,18,18.92,72.83,0.14,0.23,0.46,0.9,1.94
892,Ottappalam,India,10.77,76.38,465,43,438,438,COCHIN,90,9.97,76.27,0.23,0.33,0.58,1.02,2.11
893,Palakkad,India,10.77,76.65,412,69,438,438,COCHIN,99,9.97,76.27,0.23,0.33,0.58,1.02,2.11
903,Rajkot,India,22.3,70.78,2150,66,596,596,KANDLA,99,23.02,70.22,0.11,0.21,0.46,0.9,1.9
916,Santipur,India,23.25,88.43,412,120,1002,1002,TRIBENI,30,22.98,88.4,1.64,1.76,2.01,2.44,3.43
924,Surat,India,21.17,72.83,8582,5,420,420,BHAUNAGAR_I,90,21.8,72.3,0.27,0.41,0.71,1.19,2.19
927,Thoothukkudi (Tuticorin),India,8.81,78.14,644,3,1072,1072,TUTICORIN,10,8.75,78.2,0.07,0.19,0.46,0.91,2.0
928,Thrissur,India,10.52,76.22,3720,17,438,438,COCHIN,61,9.97,76.27,0.23,0.33,0.58,1.02,2.11
930,Tirunelveli,India,8.73,77.7,616,46,1072,1072,TUTICORIN,55,8.75,78.2,0.07,0.19,0.46,0.91,2.0
940,Visakhapatnam,India,17.68,83.21,2440,6,414,414,VISAKHAPATNAM,7,17.68,83.28,0.08,0.19,0.43,0.87,1.91
948,Batam,Indonesia,1.12,104.03,1859,2,1746,1746,TANJONG_PAGAR,26,1.27,103.85,0.12,0.26,0.54,0.98,2.09
1021,Dublin,Ireland,53.33,-6.25,1299,2,432,432,DUBLIN,3,53.35,-6.22,0.1,0.26,0.52,0.9,1.74
1023,Hefa (Haifa),Israel,32.81,34.99,1200,2,1797,1797,HADERA,40,32.47,34.86,0.17,0.3,0.57,1.02,1.94
1024,Jerusalem,Israel,31.77,35.22,997,52,1797,1797,HADERA,85,32.47,34.86,0.17,0.3,0.57,1.02,1.94
1025,Tel Aviv-Yafo (Tel Aviv-Jaffa),Israel,32.08,34.78,4569,2,1797,1797,HADERA,44,32.47,34.86,0.17,0.3,0.57,1.02,1.94
1032,Cagliari,Italy,39.21,9.13,479,2,104,104,CAGLIARI,3,39.2,9.17,0.19,0.31,0.57,0.98,1.89
1033,Caserta,Italy,41.08,14.33,433,27,129,129,NAPOLI,24,40.87,14.27,0.15,0.26,0.51,0.91,1.81
1037,Genova (Genoa),Italy,44.41,8.93,674,1,59,59,GENOVA,3,44.4,8.9,0.15,0.26,0.51,0.89,1.77
1042,Napoli (Naples),Italy,40.85,14.26,2182,2,105,105,NAPOLI,1,40.84,14.26,0.15,0.26,0.51,0.91,1.81
1043,Nola,Italy,40.92,14.53,330,21,129,129,NAPOLI,23,40.87,14.27,0.15,0.26,0.51,0.91,1.81
1044,Padova,Italy,45.42,11.88,700,21,39,39,VENEZIA,35,45.42,12.33,0.23,0.35,0.59,0.97,1.83
1045,Palermo,Italy,38.12,13.36,851,2,107,107,PALERMO,3,38.13,13.33,0.13,0.24,0.51,0.92,1.84
1049,Roma (Rome),Italy,41.89,12.48,4347,24,106,106,CIVITAVECCHIA,57,42.05,11.82,0.11,0.22,0.48,0.89,1.78
1050,Salerno,Italy,40.68,14.77,423,2,105,105,NAPOLI,46,40.84,14.26,0.15,0.26,0.51,0.91,1.81
1054,Treviso,Italy,45.67,12.24,386,19,168,168,VENEZIA,27,45.43,12.33,0.23,0.35,0.59,0.97,1.84
1055,Venezia,Italy,45.44,12.34,643,0,168,168,VENEZIA,1,45.43,12.33,0.23,0.35,0.59,0.97,1.84
1057,Vicenza,Italy,45.56,11.54,334,51,168,168,VENEZIA,63,45.43,12.33,0.23,0.35,0.59,0.97,1.84
1059,Akita,Japan,39.72,140.12,296,3,1264,1264,OGA,43,39.94,139.71,0.04,0.14,0.39,0.86,1.99
1061,Chukyo M.M.A. (Nagoya),Japan,35.18,136.91,9535,10,1488,1488,NAGOYA_II,10,35.09,136.88,-0.09,0.02,0.28,0.75,1.87
1062,Fukuyama,Japan,34.48,133.37,460,2,812,812,UNO,54,34.49,133.95,0.52,0.62,0.88,1.33,2.46
1063,Hiroshima,Japan,34.39,132.46,2058,2,1028,1028,HIROSIMA,5,34.35,132.46,0.45,0.55,0.81,1.26,2.38
1064,Iwaki,Japan,37.05,140.88,354,8,635,635,ONAHAMA,12,36.94,140.89,-0.04,0.07,0.35,0.87,2.01
1065,Kagoshima,Japan,31.57,130.55,579,2,1265,1265,AKUNE,60,32.02,130.19,0.14,0.25,0.52,0.98,2.1
1066,Kanazawa,Japan,36.56,136.64,461,7,1190,1190,MIKUNI,56,36.25,136.15,0.42,0.52,0.78,1.24,2.36
1067,Kinki M.M.A. (Osaka),Japan,34.68,135.55,18922,9,1099,1099,OSAKA,11,34.66,135.43,0.54,0.65,0.9,1.37,2.49
1068,Kitakyushu-Fukuoka M.M.A.,Japan,33.61,130.42,5466,1,1094,1094,HAKATA,2,33.62,130.41,0.23,0.33,0.59,1.04,2.15
1069,Kochi,Japan,33.56,133.53,320,3,1567,1567,KOCHI_III,8,33.5,133.57,0.1,0.22,0.49,0.96,2.08
1070,Koriyama,Japan,37.4,140.38,324,57,635,635,ONAHAMA,68,36.94,140.89,-0.04,0.07,0.35,0.87,2.01
1071,Kumamoto,Japan,32.79,130.74,735,12,810,810,MISUMI,33,32.62,130.45,0.32,0.43,0.69,1.15,2.27
1072,Kurashiki,Japan,34.58,133.77,470,6,812,812,UNO,20,34.49,133.95,0.52,0.62,0.88,1.33,2.46
1073,Kurume,Japan,33.32,130.52,302,6,1094,1094,HAKATA,35,33.62,130.41,0.23,0.33,0.59,1.04,2.15
1075,Matsuyama,Japan,33.83,132.76,502,5,1062,1062,MATSUYAMA_II,6,33.86,132.71,0.04,0.14,0.41,0.86,1.99
1076,Miyazaki,Japan,31.92,131.43,395,2,814,814,ABURATSU,37,31.58,131.41,0.24,0.35,0.63,1.09,2.22
1077,Nagano,Japan,36.65,138.18,364,51,753,753,KASHIWAZAKI,84,37.36,138.51,0.18,0.27,0.52,0.99,2.12
1078,Nagasaki,Japan,32.75,129.88,397,2,1100,1100,NAGASAKI,2,32.73,129.87,0.26,0.36,0.62,1.08,2.2
1079,Naha,Japan,26.21,127.69,318,1,1151,1151,NAHA,2,26.21,127.67,0.24,0.36,0.66,1.12,2.25
1080,Niigata,Japan,37.91,139.03,794,2,1093,1093,AWA_SIMA,65,38.47,139.25,0.47,0.56,0.81,1.28,2.41
1081,Oita,Japan,33.24,131.61,474,2,1293,1293,OITA_II,8,33.27,131.69,0.17,0.27,0.54,0.99,2.11
1082,Okayama,Japan,34.65,133.91,719,4,812,812,UNO,18,34.49,133.95,0.52,0.62,0.88,1.33,2.46
1083,Sapporo,Japan,43.06,141.35,2654,15,159,159,OSHORO_I,42,43.22,140.87,0.15,0.26,0.5,0.96,2.07
1084,Sendai,Japan,38.26,140.9,2338,7,1345,1345,SOMA,48,37.83,140.96,0.6,0.72,1.01,1.53,2.66
1085,Shizuoka-Hamamatsu M.M.A.,Japan,34.98,138.38,2930,5,1438,1438,YAIZU,13,34.87,138.33,0.53,0.65,0.92,1.39,2.53
1086,Takamatsu,Japan,34.33,134.06,415,3,1789,1789,TAKAMATSU_II,2,34.35,134.06,0.23,0.34,0.6,1.07,2.19
1088,Tokyo,Japan,35.69,139.69,37036,8,1545,1545,TOKYO_III,8,35.65,139.77,0.06,0.17,0.45,0.93,2.07
1089,Toyama,Japan,36.69,137.22,406,5,1389,1389,TOYAMA,8,36.76,137.22,0.34,0.44,0.69,1.15,2.28
1090,Toyohashi,Japan,34.77,137.38,365,1,1089,1089,MAISAKA,23,34.68,137.61,-0.01,0.1,0.36,0.84,1.97
1091,Utsunomiya,Japan,36.57,139.88,518,66,635,635,ONAHAMA,99,36.94,140.89,-0.04,0.07,0.35,0.87,2.01
1095,Irbid,Jordan,32.56,35.85,567,81,1797,1797,HADERA,93,32.47,34.86,0.17,0.3,0.57,1.02,1.94
1109,Mombasa,Kenya,-4.05,39.66,1553,1,2183,2183,MOMBASA_II,2,-4.07,39.65,0.23,0.34,0.6,1.02,2.07
1116,Riga,Latvia,56.95,24.11,616,10,37,37,DAUGAVGRIVA,12,57.05,24.03,0.09,0.23,0.54,0.99,1.79
1128,Alor Star,Malaysia,6.12,100.37,382,8,1676,1676,PULAU_LANGKAWI,76,6.43,99.76,0.06,0.2,0.48,0.92,2.02
1129,Ipoh,Malaysia,4.58,101.08,888,47,1594,1594,LUMUT,65,4.24,100.61,0.03,0.17,0.45,0.88,1.98
1130,Johor Bahru,Malaysia,1.47,103.76,1128,1,248,248,JOHOR_BAHRU,4,1.46,103.79,0.12,0.26,0.55,0.99,2.1
1131,Kota Bharu,Malaysia,6.13,102.25,375,4,1703,1703,GETING,19,6.23,102.11,0.05,0.19,0.49,0.92,2.02
1132,Kota Kinabalu,Malaysia,5.98,116.12,613,3,1733,1733,KOTA_KINABALU,5,5.98,116.07,0.19,0.3,0.56,0.98,2.1
1133,Kuala Lumpur,Malaysia,3.14,101.69,9000,37,1591,1591,PELABUHAN_KELANG,38,3.05,101.36,0.06,0.2,0.48,0.92,2.01
1134,Kuala Terengganu,Malaysia,5.33,103.14,419,1,1592,1592,CENDERING,10,5.26,103.19,0.12,0.26,0.55,0.99,2.1
1135,Kuantan,Malaysia,3.81,103.33,559,1,1589,1589,TANJUNG_GELANG,22,3.98,103.43,0.13,0.26,0.54,0.97,2.08
1137,Sandakan,Malaysia,5.84,118.12,403,1,1834,1834,SANDAKAN,6,5.81,118.07,0.16,0.27,0.54,0.96,2.08
1138,Seremban,Malaysia,2.73,101.94,523,23,1593,1593,TANJUNG_KELING,62,2.21,102.15,0.04,0.17,0.45,0.88,1.99
1142,Acapulco de Juárez,Mexico,16.86,-99.89,1047,1,686,686,ACAPULCO,5,16.83,-99.92,0.7,0.8,1.03,1.43,2.54
1151,Coatzacoalcos,Mexico,18.15,-94.42,423,1,692,692,COATZACOALCOS,0,18.15,-94.42,0.28,0.39,0.64,1.08,2.17
1152,Colima,Mexico,19.23,-103.72,447,50,737,737,MANZANILLO,68,19.05,-104.33,0.46,0.55,0.78,1.18,2.3
1158,Ensenada,Mexico,31.87,-116.62,363,2,795,795,ENSENADA,2,31.85,-116.63,0.19,0.28,0.49,0.89,1.99
1166,Mazatlán,Mexico,23.24,-106.41,492,2,712,712,MAZATLAN,5,23.2,-106.42,0.3,0.4,0.63,1.02,2.12
1167,Mérida,Mexico,20.97,-89.62,1258,36,690,690,PROGRESO,38,21.3,-89.67,0.45,0.56,0.81,1.25,2.33
1169,Minatitlán,Mexico,18.0,-94.56,428,16,692,692,COATZACOALCOS,22,18.15,-94.42,0.28,0.39,0.64,1.08,2.17
1177,Poza Rica de Hidalgo,Mexico,20.53,-97.46,598,33,918,918,TUXPAN,54,21.0,-97.33,0.39,0.5,0.76,1.21,2.29
1184,Tampico,Mexico,22.22,-97.85,1078,6,1020,1020,CIUDAD_MADERO,6,22.25,-97.8,0.42,0.54,0.81,1.26,2.33
1187,Tijuana,Mexico,32.53,-117.02,2333,10,158,158,SAN_DIEGO,24,32.71,-117.17,0.25,0.34,0.55,0.94,2.04
1192,Veracruz,Mexico,19.2,-96.13,981,1,768,768,ALVARADO,61,18.77,-95.77,0.23,0.34,0.6,1.05,2.14
1206,Tanger,Morocco,35.78,-5.81,1381,1,488,488,TARIFA,32,36.01,-5.6,0.18,0.28,0.53,0.92,1.86
1207,Tétouan,Morocco,35.57,-5.37,461,8,498,498,CEUTA,36,35.89,-5.32,0.13,0.24,0.48,0.88,1.81
1217,Yangon,Myanmar,16.81,96.16,5813,3,210,210,RANGOON,4,16.77,96.17,0.33,0.46,0.71,1.14,2.18
1221,Amsterdam,Netherlands,52.37,4.89,1189,3,32,32,IJMUIDEN,25,52.46,4.55,0.15,0.3,0.59,1.02,1.86
1222,Eindhoven,Netherlands,51.44,5.48,373,65,9,9,MAASSLUIS,100,51.92,4.25,0.16,0.31,0.6,1.03,1.86
1223,Rotterdam,Netherlands,51.92,4.48,1026,22,9,9,MAASSLUIS,16,51.92,4.25,0.16,0.31,0.6,1.03,1.86
1224,s-Gravenhage (The Hague),Netherlands,52.08,4.3,725,3,22,22,HOEK_VAN_HOLLAND,16,51.98,4.12,0.21,0.36,0.65,1.08,1.92
1225,Utrecht,Netherlands,52.09,5.12,576,24,32,32,IJMUIDEN,57,52.46,4.55,0.15,0.3,0.59,1.02,1.86
1226,Auckland,New Zealand,-36.87,174.77,1711,2,150,150,AUCKLAND_II,3,-36.84,174.77,0.21,0.31,0.57,1.01,2.03
1227,Christchurch,New Zealand,-43.53,172.63,410,7,247,247,PORT_LYTTELTON,11,-43.61,172.72,0.26,0.36,0.62,1.05,2.0
1228,Wellington,New Zealand,-41.29,174.78,428,1,500,500,WELLINGTON_II,1,-41.28,174.78,0.28,0.37,0.63,1.07,2.05
1282,Oslo,Norway,59.91,10.75,1116,1,62,62,OSLO,1,59.91,10.73,-0.28,-0.11,0.16,0.58,1.36
1293,Karachi,Pakistan,24.91,67.08,18077,11,204,204,KARACHI,16,24.81,66.97,0.15,0.24,0.48,0.92,1.92
1310,Ciudad de Panamá (Panama City),Panama,9.0,-79.52,2055,2,163,163,BALBOA,6,8.97,-79.57,0.28,0.37,0.62,1.03,2.12
1314,Arequipa,Peru,-16.4,-71.54,984,86,458,458,MATARANI,91,-17.0,-72.12,0.12,0.21,0.45,0.83,1.86
1320,Lima,Peru,-12.04,-77.03,11517,8,1274,1274,CALLAO_2,13,-12.05,-77.15,0.13,0.23,0.47,0.87,1.92
1321,Piura,Peru,-5.2,-80.63,509,43,475,475,TALARA,97,-4.62,-81.28,0.16,0.27,0.52,0.94,2.01
1322,Tacna,Peru,-18.01,-70.25,347,39,618,618,ARICA,52,-18.47,-70.33,0.08,0.17,0.4,0.77,1.8
1324,Angeles City,Philippines,15.15,120.58,601,37,145,145,MANILA,76,14.58,120.97,0.72,0.84,1.12,1.53,2.66
1325,Antipolo,Philippines,14.62,121.12,990,17,145,145,MANILA,17,14.58,120.97,0.72,0.84,1.12,1.53,2.66
1327,Bacoor,Philippines,14.41,120.97,774,7,145,145,MANILA,19,14.58,120.97,0.72,0.84,1.12,1.53,2.66
1330,Batangas City,Philippines,13.76,121.06,387,2,145,145,MANILA,92,14.58,120.97,0.72,0.84,1.12,1.53,2.66
1331,Binan,Philippines,14.3,121.08,440,23,145,145,MANILA,33,14.58,120.97,0.72,0.84,1.12,1.53,2.66
1332,Butuan,Philippines,8.95,125.54,400,3,1708,1708,SURIGAO,93,9.78,125.5,0.16,0.28,0.59,0.99,2.13
1333,Cabuyao,Philippines,14.25,121.14,442,32,145,145,MANILA,41,14.58,120.97,0.72,0.84,1.12,1.53,2.66
1335,Calamba,Philippines,14.19,121.13,595,37,145,145,MANILA,47,14.58,120.97,0.72,0.84,1.12,1.53,2.66
1336,Cebu City,Philippines,10.32,123.89,1062,3,394,394,CEBU,4,10.3,123.92,0.16,0.29,0.58,0.99,2.13
1338,Dasmarinas,Philippines,14.3,120.96,839,17,145,145,MANILA,31,14.58,120.97,0.72,0.84,1.12,1.53,2.66
1339,Davao City,Philippines,7.07,125.61,2034,2,537,537,DAVAO,2,7.08,125.63,0.21,0.33,0.6,1.02,2.16
1344,Imus,Philippines,14.41,120.94,641,6,145,145,MANILA,20,14.58,120.97,0.72,0.84,1.12,1.53,2.66
1345,Lapu-Lapu City,Philippines,10.31,123.95,532,1,394,394,CEBU,3,10.3,123.92,0.16,0.29,0.58,0.99,2.13
1346,Lipa City,Philippines,13.94,121.16,438,24,145,145,MANILA,74,14.58,120.97,0.72,0.84,1.12,1.53,2.66
1347,Mandaue City,Philippines,10.32,123.92,434,2,394,394,CEBU,3,10.3,123.92,0.16,0.29,0.58,0.99,2.13
1348,Manila,Philippines,14.6,120.98,15231,2,145,145,MANILA,3,14.58,120.97,0.72,0.84,1.12,1.53,2.66
1349,San Fernando,Philippines,15.06,120.66,356,27,145,145,MANILA,63,14.58,120.97,0.72,0.84,1.12,1.53,2.66
1350,San Jose del Monte,Philippines,14.82,121.1,657,24,145,145,MANILA,30,14.58,120.97,0.72,0.84,1.12,1.53,2.66
1351,San Pedro,Philippines,14.35,121.04,396,17,145,145,MANILA,27,14.58,120.97,0.72,0.84,1.12,1.53,2.66
1352,Santa Rosa,Philippines,14.28,121.09,506,25,145,145,MANILA,35,14.58,120.97,0.72,0.84,1.12,1.53,2.66
1356,Gdańsk,Poland,54.35,18.65,466,6,64,64,GDANSK/NOWY_PORT,6,54.4,18.68,0.22,0.35,0.65,1.09,1.91
1361,Szczecin,Poland,53.43,14.55,397,19,2,2,SWINOUJSCIE,59,53.92,14.23,0.15,0.29,0.58,1.01,1.83
1364,Lisboa (Lisbon),Portugal,38.72,-9.14,3028,2,52,52,CASCAIS,25,38.68,-9.42,0.23,0.34,0.59,0.99,1.93
1365,Porto,Portugal,41.15,-8.61,1334,2,791,791,LEIXOES,8,41.18,-8.7,0.17,0.28,0.53,0.93,1.85
1366,Aguadilla-Isabela-San Sebastian,Puerto Rico,18.43,-67.15,297,2,759,759,MAGUEYES_ISLAND,52,17.97,-67.05,0.27,0.37,0.62,1.02,2.11
1367,San Juan,Puerto Rico,18.47,-66.11,2434,1,1001,1001,SAN_JUAN,1,18.46,-66.11,0.28,0.38,0.64,1.04,2.12
1371,Ansan,Republic of Korea,37.32,126.82,771,3,956,956,INCHEON,25,37.45,126.59,0.14,0.25,0.51,0.97,2.05
1372,Anyang,Republic of Korea,37.39,126.93,560,13,956,956,INCHEON,30,37.45,126.59,0.14,0.25,0.51,0.97,2.05
1373,Bucheon,Republic of Korea,37.5,126.78,828,10,956,956,INCHEON,18,37.45,126.59,0.14,0.25,0.51,0.97,2.05
1374,Busan,Republic of Korea,35.1,129.04,3484,1,955,955,BUSAN,0,35.1,129.04,0.23,0.33,0.59,1.04,2.15
1375,Changwon,Republic of Korea,35.23,128.68,1057,7,970,970,CHINHAE,9,35.15,128.65,0.17,0.32,0.64,1.13,2.21
1376,Cheonan,Republic of Korea,36.81,127.14,713,18,1675,1675,BORYEONG,73,36.41,126.49,0.28,0.41,0.69,1.17,2.24
1377,Cheongju,Republic of Korea,36.64,127.49,733,55,1675,1675,BORYEONG,93,36.41,126.49,0.28,0.41,0.69,1.17,2.24
1378,Daegu,Republic of Korea,35.87,128.59,2181,72,1324,1324,POHANG,74,36.05,129.38,0.42,0.53,0.8,1.26,2.35
1379,Daejon,Republic of Korea,36.32,127.42,1586,51,1675,1675,BORYEONG,84,36.41,126.49,0.28,0.41,0.69,1.17,2.24
1380,Gimhae,Republic of Korea,35.23,128.88,320,13,955,955,BUSAN,21,35.1,129.04,0.23,0.33,0.59,1.04,2.15
1381,Goyang,Republic of Korea,37.66,126.84,1121,6,956,956,INCHEON,32,37.45,126.59,0.14,0.25,0.51,0.97,2.05
1382,Gumi,Republic of Korea,36.12,128.35,401,93,1324,1324,POHANG,93,36.05,129.38,0.42,0.53,0.8,1.26,2.35
1383,Gwangju,Republic of Korea,35.15,126.92,1537,38,954,954,MOKPO,64,34.78,126.38,0.36,0.46,0.72,1.18,2.28
1384,Gwangmyeong,Republic of Korea,37.48,126.87,351,8,956,956,INCHEON,25,37.45,126.59,0.14,0.25,0.51,0.97,2.05
1385,Incheon,Republic of Korea,37.45,126.73,2874,6,956,956,INCHEON,13,37.45,126.59,0.14,0.25,0.51,0.97,2.05
1386,Jeju,Republic of Korea,33.51,126.52,350,2,1066,1066,JEJU,3,33.53,126.54,0.45,0.56,0.82,1.28,2.39
1387,Jeonju,Republic of Korea,35.82,127.15,668,30,1527,1527,GUNSAN,56,35.98,126.56,0.16,0.28,0.56,1.03,2.11
1388,Pohang,Republic of Korea,36.02,129.36,367,2,1324,1324,POHANG,4,36.05,129.38,0.42,0.53,0.8,1.26,2.35
1389,Seongnam,Republic of Korea,37.44,127.14,943,24,956,956,INCHEON,48,37.45,126.59,0.14,0.25,0.51,0.97,2.05
1390,Seoul,Republic of Korea,37.57,126.98,10026,7,956,956,INCHEON,37,37.45,126.59,0.14,0.25,0.51,0.97,2.05
1391,Siheung,Republic of Korea,37.46,126.9,451,10,956,956,INCHEON,28,37.45,126.59,0.14,0.25,0.51,0.97,2.05
1392,Suweon,Republic of Korea,37.26,127.02,1389,14,956,956,INCHEON,43,37.45,126.59,0.14,0.25,0.51,0.97,2.05
1393,Uijeongbu,Republic of Korea,37.74,127.05,426,25,956,956,INCHEON,52,37.45,126.59,0.14,0.25,0.51,0.97,2.05
1394,Ulsan,Republic of Korea,35.54,129.32,916,4,997,997,ULSAN,8,35.5,129.39,0.15,0.26,0.52,0.97,2.08
1395,Yongin,Republic of Korea,37.24,127.2,1158,31,956,956,INCHEON,59,37.45,126.59,0.14,0.25,0.51,0.97,2.05
1414,"Kaliningrad, Kaliningrad Oblast",Russian Federation,54.71,20.51,495,7,289,289,PIONERSKY,32,54.95,20.22,0.2,0.34,0.64,1.08,1.9
1446,Sochi,Russian Federation,43.6,39.73,481,2,215,215,TUAPSE,77,44.1,39.07,0.07,0.23,0.5,0.88,1.78
1485,Dakar,Senegal,14.69,-17.44,3659,1,1816,1816,DAKAR_2,3,14.68,-17.42,0.21,0.32,0.57,0.98,2.04
1486,Rufisque,Senegal,14.72,-17.27,417,2,1816,1816,DAKAR_2,16,14.68,-17.42,0.21,0.32,0.57,0.98,2.04
1487,Thies,Senegal,14.8,-16.93,440,25,1816,1816,DAKAR_2,54,14.68,-17.42,0.21,0.32,0.57,0.98,2.04
1490,Singapore,Singapore,1.29,103.85,6157,1,1746,1746,TANJONG_PAGAR,2,1.27,103.85,0.12,0.26,0.54,0.98,2.09
1498,Cape Town,South Africa,-33.93,18.42,5064,2,1195,1195,CAPE_TOWN,2,-33.91,18.43,0.2,0.3,0.55,0.95,2.04
1499,Durban (Ethekwini),South Africa,-29.86,31.03,3301,2,284,284,DURBAN,2,-29.87,31.05,0.19,0.29,0.55,0.95,2.04
1503,Pietermaritzburg (The Msunduzi),South Africa,-29.62,30.39,561,66,284,284,DURBAN,69,-29.87,31.05,0.19,0.29,0.55,0.95,2.04
1505,Port Elizabeth (Nelson Mandela Bay),South Africa,-33.92,25.57,1331,5,820,820,PORT_ELIZABETH,7,-33.95,25.63,0.22,0.33,0.58,1.0,2.08
1513,Alicante,Spain,38.35,-0.48,381,1,208,208,ALICANTE,1,38.34,-0.48,0.13,0.23,0.47,0.87,1.78
1514,Barcelona,Spain,41.39,2.16,5733,3,1811,1811,BARCELONA,6,41.34,2.17,0.27,0.38,0.65,1.05,1.95
1515,Bilbao,Spain,43.26,-2.93,347,9,1806,1806,BILBAO,14,43.35,-3.05,0.19,0.32,0.58,1.0,1.89
1517,Las Palmas Gran Canaria,Spain,28.11,-15.43,406,1,1802,1802,LAS_PALMAS_D,4,28.14,-15.41,0.3,0.41,0.68,1.12,2.13
1519,Malaga,Spain,36.72,-4.42,595,2,1810,1810,MALAGA_II,1,36.71,-4.42,0.15,0.25,0.5,0.88,1.81
1520,Murcia,Spain,37.99,-1.13,517,35,208,208,ALICANTE,69,38.34,-0.48,0.13,0.23,0.47,0.87,1.78
1521,Palma,Spain,39.57,2.65,486,2,1892,1892,PALMA_DE_MALLORCA,2,39.55,2.64,0.17,0.29,0.55,0.97,1.88
1522,Sevilla,Spain,37.38,-5.98,701,64,1809,1809,BONANZA,72,36.8,-6.34,0.27,0.38,0.64,1.04,1.97
1523,Valencia,Spain,39.47,-0.38,841,4,1813,1813,VALENCIA,7,39.44,-0.31,0.22,0.34,0.59,1.0,1.91
1525,Vigo,Spain,42.23,-8.72,308,2,483,483,VIGO,1,42.24,-8.73,0.24,0.36,0.61,1.0,1.92
1536,Göteborg,Sweden,57.7,11.97,644,1,2133,2133,GOTEBORG-RINGON,2,57.72,11.97,-0.1,0.05,0.32,0.75,1.55
1537,Malmö,Sweden,55.61,13.0,340,2,330,330,KLAGSHAMN,12,55.52,12.89,0.1,0.24,0.52,0.94,1.76
1538,Stockholm,Sweden,59.33,18.06,1738,2,78,78,STOCKHOLM,2,59.32,18.08,-0.34,-0.19,0.1,0.53,1.32
1559,Chon Buri,Thailand,13.36,100.99,1491,1,449,449,KO_SICHANG,30,13.15,100.82,0.17,0.28,0.54,0.95,2.03
1562,Krung Thep (Bangkok),Thailand,13.72,100.53,11392,15,444,444,FORT_PHRACHULA_CHOMKLAO,20,13.55,100.58,1.33,1.43,1.68,2.08,3.15
1566,Nakhon Pathom,Thailand,13.82,100.04,567,40,444,444,FORT_PHRACHULA_CHOMKLAO,65,13.55,100.58,1.33,1.43,1.68,2.08,3.15
1568,Nonthaburi,Thailand,13.86,100.52,1026,29,444,444,FORT_PHRACHULA_CHOMKLAO,35,13.55,100.58,1.33,1.43,1.68,2.08,3.15
1569,Pathum Thani,Thailand,14.01,100.53,974,45,444,444,FORT_PHRACHULA_CHOMKLAO,52,13.55,100.58,1.33,1.43,1.68,2.08,3.15
1570,Phra Nakhon Si Ayutthaya,Thailand,14.35,100.58,470,82,444,444,FORT_PHRACHULA_CHOMKLAO,89,13.55,100.58,1.33,1.43,1.68,2.08,3.15
1571,Phuket,Thailand,7.89,98.4,461,2,446,446,KO_TAPHAO_NOI,8,7.83,98.43,0.24,0.35,0.6,1.02,2.13
1572,Ratchaburi,Thailand,13.54,99.82,439,25,444,444,FORT_PHRACHULA_CHOMKLAO,83,13.55,100.58,1.33,1.43,1.68,2.08,3.15
1573,Rayong,Thailand,12.68,101.26,574,2,449,449,KO_SICHANG,71,13.15,100.82,0.17,0.28,0.54,0.95,2.03
1576,Samut Prakan,Thailand,13.6,100.6,1393,2,444,444,FORT_PHRACHULA_CHOMKLAO,6,13.55,100.58,1.33,1.43,1.68,2.08,3.15
1577,Samut Sakhon,Thailand,13.55,100.27,617,3,444,444,FORT_PHRACHULA_CHOMKLAO,33,13.55,100.58,1.33,1.43,1.68,2.08,3.15
1589,Antalya,Turkey,36.91,30.7,1395,3,1681,1681,ANTALYA_II,11,36.83,30.62,0.24,0.37,0.63,1.06,1.97
1601,Izmir,Turkey,38.41,27.14,3152,1,1679,1679,MENTES/IZMIR,37,38.43,26.72,0.2,0.33,0.6,1.01,1.92
1607,Manisa,Turkey,38.61,27.43,419,28,1679,1679,MENTES/IZMIR,65,38.43,26.72,0.2,0.33,0.6,1.01,1.92
1627,Sevastopol,Ukraine,44.59,33.52,402,2,42,42,SEVASTOPOL,4,44.62,33.53,0.02,0.18,0.45,0.92,1.78
1628,Simferopol,Ukraine,44.96,34.11,340,38,42,42,SEVASTOPOL,59,44.62,33.53,0.02,0.18,0.45,0.92,1.78
1636,Belfast,United Kingdom,54.59,-5.93,652,3,219,219,BELFAST_2,1,54.6,-5.92,-0.03,0.14,0.4,0.78,1.6
1637,Birkenhead,United Kingdom,53.39,-3.01,336,1,765,765,BIRKENHEAD,1,53.4,-3.02,0.11,0.27,0.53,0.93,1.75
1639,Bournemouth/Poole,United Kingdom,50.72,-1.88,527,2,1878,1878,BOURNEMOUTH,1,50.71,-1.87,0.12,0.26,0.54,0.95,1.8
1640,Brighton-Worthing-Littlehampton,United Kingdom,50.83,-0.14,632,1,1548,1548,NEWHAVEN,15,50.78,0.06,0.14,0.29,0.58,1.0,1.85
1641,Bristol,United Kingdom,51.46,-2.6,720,7,1758,1758,HINKLEY_POINT,46,51.21,-3.13,0.14,0.28,0.55,0.95,1.8
1642,Cardiff,United Kingdom,51.48,-3.18,495,2,1758,1758,HINKLEY_POINT,30,51.21,-3.13,0.14,0.28,0.55,0.95,1.8
1644,Edinburgh,United Kingdom,55.95,-3.2,564,3,1526,1526,LEITH_II,4,55.99,-3.18,0.0,0.18,0.47,0.88,1.68
1645,Glasgow,United Kingdom,55.87,-4.26,1719,12,755,755,MILLPORT,43,55.75,-4.91,-0.04,0.13,0.4,0.8,1.61
1646,Kingston upon Hull,United Kingdom,53.75,-0.33,329,2,286,286,IMMINGHAM,16,53.63,-0.19,0.12,0.29,0.59,1.01,1.83
1648,Liverpool,United Kingdom,53.41,-2.98,929,1,15,15,LIVERPOOL_GEORGES_AND_PRINCES_PIERS,2,53.4,-3.0,0.11,0.27,0.54,0.93,1.75
1649,London,United Kingdom,51.51,-0.13,9841,27,336,336,TOWER_PIER,14,51.5,0.08,0.14,0.29,0.58,1.0,1.83
1650,Manchester,United Kingdom,53.48,-2.24,2833,33,15,15,LIVERPOOL_GEORGES_AND_PRINCES_PIERS,51,53.4,-3.0,0.11,0.27,0.54,0.93,1.75
1651,Newcastle upon Tyne,United Kingdom,54.97,-1.61,834,11,95,95,NORTH_SHIELDS,12,55.01,-1.44,0.12,0.3,0.59,1.01,1.82
1652,Newport,United Kingdom,51.58,-3.0,325,2,1758,1758,HINKLEY_POINT,43,51.21,-3.13,0.14,0.28,0.55,0.95,1.8
1653,Nottingham,United Kingdom,52.95,-1.15,819,77,286,286,IMMINGHAM,99,53.63,-0.19,0.12,0.29,0.59,1.01,1.83
1654,Preston,United Kingdom,53.76,-2.7,338,9,936,936,HEYSHAM,33,54.03,-2.92,0.08,0.24,0.51,0.9,1.72
1655,Reading-Wokingham,United Kingdom,51.41,-0.84,356,64,336,336,TOWER_PIER,64,51.5,0.08,0.14,0.29,0.58,1.0,1.83
1656,Sheffield,United Kingdom,53.38,-1.47,757,57,286,286,IMMINGHAM,89,53.63,-0.19,0.12,0.29,0.59,1.01,1.83
1657,Southampton/Portsmouth (South Hampshire),United Kingdom,50.91,-1.4,967,2,350,350,PORTSMOUTH,24,50.8,-1.11,0.12,0.26,0.55,0.96,1.81
1658,Southend-On-Sea,United Kingdom,51.54,0.71,323,2,334,334,SOUTHEND,3,51.51,0.72,0.12,0.27,0.56,0.98,1.82
1659,Stoke-on-Trent (The Potteries),United Kingdom,53.0,-2.19,397,51,15,15,LIVERPOOL_GEORGES_AND_PRINCES_PIERS,70,53.4,-3.0,0.11,0.27,0.54,0.93,1.75
1660,Sunderland,United Kingdom,54.91,-1.38,349,1,95,95,NORTH_SHIELDS,12,55.01,-1.44,0.12,0.3,0.59,1.01,1.82
1661,Swansea,United Kingdom,51.62,-3.94,320,2,1214,1214,ILFRACOMBE,47,51.21,-4.11,0.15,0.3,0.56,0.96,1.82
1662,Teeside (Middlesbrough),United Kingdom,54.58,-1.23,398,2,1505,1505,WHITBY,41,54.49,-0.61,0.19,0.36,0.66,1.08,1.9
1663,West Yorkshire,United Kingdom,53.8,-1.76,1956,66,936,936,HEYSHAM,80,54.03,-2.92,0.08,0.24,0.51,0.9,1.72
1665,Dar es Salaam,United Republic of Tanzania,-6.82,39.27,8562,2,1600,1600,ZANZIBAR,76,-6.15,39.18,0.21,0.32,0.58,1.0,2.06
1670,Zanzibar,United Republic of Tanzania,-6.16,39.2,874,2,1600,1600,ZANZIBAR,3,-6.15,39.18,0.21,0.32,0.58,1.0,2.06
1674,Allentown-Bethlehem,United States of America,40.61,-75.48,800,90,135,135,PHILADELPHIA,81,39.93,-75.14,0.41,0.52,0.81,1.23,2.2
1676,Antioch,United States of America,38.0,-121.81,380,40,2330,2330,PORT_CHICAGO,21,38.05,-122.04,0.24,0.33,0.54,0.92,2.01
1682,Baltimore,United States of America,39.29,-76.61,2387,2,148,148,BALTIMORE,4,39.27,-76.58,0.43,0.54,0.82,1.25,2.21
1686,Bonita Springs-Naples,United States of America,26.34,-81.78,479,6,1107,1107,NAPLES,24,26.13,-81.81,0.35,0.44,0.7,1.12,2.19
1687,Boston,United States of America,42.35,-71.06,4396,2,235,235,BOSTON,1,42.35,-71.05,0.33,0.47,0.78,1.24,2.19
1688,Bridgeport-Stamford,United States of America,41.17,-73.2,973,1,1068,1068,BRIDGEPORT,2,41.17,-73.18,0.35,0.48,0.78,1.22,2.17
1690,Cape Coral,United States of America,26.64,-81.98,975,7,1106,1106,FORT_MYERS,11,26.65,-81.87,0.36,0.45,0.7,1.12,2.18
1691,Charleston-North Charleston,United States of America,32.79,-79.99,765,2,234,234,CHARLESTON_I,6,32.78,-79.92,0.43,0.53,0.78,1.19,2.21
1700,Concord,United States of America,37.98,-122.03,710,22,2330,2330,PORT_CHICAGO,8,38.05,-122.04,0.24,0.33,0.54,0.92,2.01
1702,Corpus Christi,United States of America,27.74,-97.4,358,3,1903,1903,CORPUS_CHRISTI,26,27.58,-97.22,0.56,0.66,0.9,1.33,2.38
1705,Daytona Beach-Port Orange,United States of America,29.14,-81.0,522,4,270,270,DAYTONA_BEACH,10,29.23,-81.0,0.32,0.42,0.67,1.09,2.14
1722,Hartford,United States of America,41.76,-72.69,1032,54,429,429,NEW_LONDON,67,41.36,-72.09,0.35,0.49,0.79,1.24,2.21
1723,Honolulu,United States of America,21.31,-157.83,928,4,155,155,HONOLULU,5,21.31,-157.87,0.28,0.39,0.66,1.12,2.37
1724,Houston,United States of America,29.76,-95.37,6890,36,161,161,GALVESTON_II,75,29.31,-94.79,0.74,0.83,1.07,1.5,2.54
1729,"Jacksonville, Florida",United States of America,30.33,-81.66,1360,23,316,316,MAYPORT,23,30.39,-81.43,0.37,0.47,0.71,1.13,2.17
1731,Kissimmee,United States of America,28.3,-81.42,612,66,2123,2123,TRIDENT_PIER,82,28.41,-80.59,0.35,0.45,0.7,1.11,2.17
1734,Lakeland,United States of America,28.04,-81.96,374,45,520,520,ST. PETERSBURG,73,27.76,-82.63,0.39,0.48,0.73,1.16,2.21
1735,Lancaster,United States of America,40.04,-76.31,532,56,786,786,REEDY_POINT,82,39.56,-75.57,0.42,0.54,0.82,1.25,2.21
1736,Lancaster-Palmdale,United States of America,34.69,-118.15,546,81,377,377,SANTA_MONICA,82,34.01,-118.5,0.18,0.27,0.47,0.86,1.97
1742,Los Angeles-Long Beach-Santa Ana,United States of America,34.03,-118.24,12678,20,377,377,SANTA_MONICA,24,34.01,-118.5,0.18,0.27,0.47,0.86,1.97
1745,McAllen,United States of America,26.22,-98.24,1116,80,1038,1038,PORT_MANSFIELD,89,26.55,-97.42,0.43,0.53,0.76,1.2,2.26
1747,Miami,United States of America,25.79,-80.2,6372,2,363,363,MIAMI_BEACH,8,25.77,-80.13,0.37,0.47,0.71,1.12,2.19
1750,Mission Viejo,United States of America,33.6,-117.67,658,12,766,766,NEWPORT_BAY,19,33.6,-117.88,0.21,0.3,0.51,0.9,2.0
1751,Mobile,United States of America,30.69,-88.04,339,2,1156,1156,DAUPHIN_ISLAND,50,30.25,-88.08,0.42,0.52,0.77,1.19,2.23
1754,Myrtle Beach,United States of America,33.69,-78.89,441,2,1444,1444,SPRINGMAID_PIER,4,33.66,-78.92,0.36,0.46,0.72,1.13,2.15
1756,New Haven,United States of America,41.3,-72.93,608,2,1068,1068,BRIDGEPORT,26,41.17,-73.18,0.35,0.48,0.78,1.22,2.17
1757,New Orleans,United States of America,29.95,-90.08,1030,8,526,526,GRAND_ISLE,78,29.26,-89.96,0.94,1.04,1.29,1.72,2.76
1758,New York-Newark,United States of America,40.72,-74.0,19154,0,12,12,NEW_YORK,2,40.7,-74.01,0.4,0.52,0.81,1.25,2.21
1762,Orlando,United States of America,28.54,-81.38,2129,56,2123,2123,TRIDENT_PIER,79,28.41,-80.59,0.35,0.45,0.7,1.11,2.17
1763,Oxnard,United States of America,34.2,-119.18,410,6,1013,1013,RINCON_ISLAND,30,34.35,-119.44,0.3,0.39,0.6,0.99,2.1
1764,Palm Bay-Melbourne,United States of America,28.06,-80.6,544,1,2123,2123,TRIDENT_PIER,39,28.41,-80.59,0.35,0.45,0.7,1.11,2.17
1765,Pensacola,United States of America,30.42,-87.22,363,2,246,246,PENSACOLA,2,30.4,-87.21,0.33,0.43,0.68,1.1,2.13
1766,Philadelphia,United States of America,39.95,-75.16,5861,27,135,135,PHILADELPHIA,3,39.93,-75.14,0.41,0.52,0.81,1.23,2.2
1769,Port St. Lucie,United States of America,27.29,-80.35,574,6,1696,1696,LAKE_WORTH_PIER,83,26.61,-80.03,0.35,0.45,0.7,1.11,2.17
1771,Poughkeepsie-Newburgh,United States of America,41.6,-73.97,538,70,856,856,NEW_ROCHELLE,81,40.89,-73.78,0.37,0.49,0.79,1.22,2.18
1772,Providence,United States of America,41.82,-71.42,1217,2,430,430,PROVIDENCE,2,41.81,-71.4,0.31,0.45,0.76,1.22,2.17
1776,Richmond,United States of America,37.54,-77.44,1162,50,462,462,RICHMOND,3,37.57,-77.45,0.42,0.53,0.8,1.22,2.2
1777,Riverside-San Bernardino,United States of America,33.95,-117.4,2664,58,766,766,NEWPORT_BAY,60,33.6,-117.88,0.21,0.3,0.51,0.9,2.0
1781,Sacramento,United States of America,38.58,-121.49,2269,88,2330,2330,PORT_CHICAGO,76,38.05,-122.04,0.24,0.33,0.54,0.92,2.01
1784,San Diego,United States of America,32.72,-117.16,3373,2,158,158,SAN_DIEGO,1,32.71,-117.17,0.25,0.34,0.55,0.94,2.04
1785,San Francisco-Oakland,United States of America,37.76,-122.44,3363,3,10,10,SAN_FRANCISCO,6,37.81,-122.47,0.23,0.32,0.53,0.91,2.02
1786,San Jose,United States of America,37.34,-121.89,1848,17,2329,2329,REDWOOD_CITY,34,37.51,-122.21,0.23,0.33,0.54,0.93,2.03
1787,Santa Clarita,United States of America,34.39,-118.54,442,40,377,377,SANTA_MONICA,43,34.01,-118.5,0.18,0.27,0.47,0.86,1.97
1788,Santa Rosa,United States of America,38.44,-122.71,341,30,1394,1394,POINT_REYES,55,37.99,-122.98,0.24,0.33,0.54,0.92,2.03
1789,Sarasota-Bradenton,United States of America,27.34,-82.53,772,2,520,520,ST. PETERSBURG,48,27.76,-82.63,0.39,0.48,0.73,1.16,2.21
1790,Savannah,United States of America,32.07,-81.1,347,15,395,395,FORT_PULASKI,19,32.03,-80.9,0.44,0.54,0.79,1.2,2.23
1792,Seattle,United States of America,47.63,-122.33,3581,1,127,127,SEATTLE,3,47.6,-122.34,0.24,0.33,0.53,0.87,1.91
1795,"Springfield, Massachusett, Connecticut",United States of America,42.1,-72.59,691,90,429,429,NEW_LONDON,92,41.36,-72.09,0.35,0.49,0.79,1.24,2.21
1798,Stockton,United States of America,37.96,-121.29,461,83,2330,2330,PORT_CHICAGO,67,38.05,-122.04,0.24,0.33,0.54,0.92,2.01
1800,Tampa-St. Petersburg,United States of America,27.95,-82.46,3040,1,520,520,ST. PETERSBURG,27,27.76,-82.63,0.39,0.48,0.73,1.16,2.21
1801,Temecula-Murrieta,United States of America,33.54,-117.16,1019,39,766,766,NEWPORT_BAY,67,33.6,-117.88,0.21,0.3,0.51,0.9,2.0
1804,Trenton,United States of America,40.22,-74.74,341,49,135,135,PHILADELPHIA,47,39.93,-75.14,0.41,0.52,0.81,1.23,2.2
1808,Virginia Beach,United States of America,36.83,-76.09,1505,5,1635,1635,CHESAPEAKE_BAY_BR. TUN.,15,36.97,-76.11,0.53,0.63,0.9,1.32,2.32
1810,"Washington, D.C.",United States of America,38.9,-77.04,5600,31,360,360,WASHINGTON_DC,3,38.87,-77.02,0.44,0.55,0.82,1.25,2.21
1813,Worcester,United States of America,42.26,-71.8,572,59,430,430,PROVIDENCE,60,41.81,-71.4,0.31,0.45,0.76,1.22,2.17
1815,Montevideo,Uruguay,-34.83,-56.17,1788,6,431,431,MONTEVIDEO,11,-34.9,-56.25,0.17,0.26,0.49,0.86,1.84
1837,Bien Hoa,Viet Nam,10.95,106.82,1175,42,1495,1495,VUNGTAU,74,10.33,107.07,0.17,0.31,0.6,1.03,2.12
1839,Da Nang,Viet Nam,16.05,108.21,1286,1,1475,1475,DANANG,5,16.1,108.22,0.21,0.34,0.63,1.05,2.13
1841,Hai Phòng,Viet Nam,20.86,106.68,1504,1,841,841,HONDAU,25,20.67,106.8,0.19,0.3,0.57,0.97,2.02
1842,Hue,Viet Nam,16.47,107.6,447,6,1475,1475,DANANG,78,16.1,108.22,0.21,0.34,0.63,1.05,2.13
1845,Thành Pho Ho Chí Minh (Ho Chi Minh City),Viet Nam,10.75,106.67,9816,21,1495,1495,VUNGTAU,64,10.33,107.07,0.17,0.31,0.6,1.03,2.12
1846,Thu Dau Mot,Viet Nam,10.97,106.65,521,45,1495,1495,VUNGTAU,84,10.33,107.07,0.17,0.31,0.6,1.03,2.12
1847,Vungtau,Viet Nam,10.35,107.08,479,1,1495,1495,VUNGTAU,2,10.33,107.07,0.17,0.31,0.6,1.03,2.12
1848,Adan (Aden),Yemen,12.8,45.04,1154,1,44,44,ADEN,7,12.79,44.97,0.22,0.31,0.54,0.96,1.97
