location,lat,lon,gauge_id,gauge_name,gauge_country
1.0,48.38,-4.49,1.0,BREST,FRANCE
2.0,53.92,14.23,2.0,SWINOUJSCIE,POLAND
3.0,51.45,0.74,3.0,SHEERNESS,UNITED KINGDOM
5.0,53.31,-4.62,5.0,HOLYHEAD,UNITED KINGDOM
7.0,53.87,8.72,7.0,CUXHAVEN_2,GERMANY
8.0,53.9,11.46,8.0,WISMAR_2,GERMANY
9.0,51.92,4.25,9.0,MAASSLUIS,"NETHERLANDS, KINGDOM OF THE"
10.0,37.81,-122.47,10.0,SAN_FRANCISCO,UNITED STATES
11.0,54.17,12.1,11.0,WARNEMUNDE_2,GERMANY
12.0,40.7,-74.01,12.0,NEW_YORK,UNITED STATES
13.0,53.96,10.87,13.0,TRAVEMUNDE,GERMANY
14.0,60.15,24.96,14.0,HELSINKI,FINLAND
15.0,53.4,-3.0,15.0,LIVERPOOL_GEORGES_AND_PRINCES_PIERS,UNITED KINGDOM
16.0,60.85,21.18,16.0,LYOKKI,FINLAND
17.0,60.6,21.23,17.0,LYPYRTTI,FINLAND
18.0,59.95,22.37,18.0,JUNGFRUSUND,FINLAND
20.0,51.44,3.6,20.0,VLISSINGEN,"NETHERLANDS, KINGDOM OF THE"
21.0,57.15,-2.08,21.0,ABERDEEN_II,UNITED KINGDOM
22.0,51.98,4.12,22.0,HOEK_VAN_HOLLAND,"NETHERLANDS, KINGDOM OF THE"
23.0,52.96,4.75,23.0,DEN_HELDER,"NETHERLANDS, KINGDOM OF THE"
24.0,53.33,6.93,24.0,DELFZIJL,"NETHERLANDS, KINGDOM OF THE"
25.0,53.18,5.41,25.0,HARLINGEN,"NETHERLANDS, KINGDOM OF THE"
26.0,56.53,20.98,26.0,LIEPAJA,LATVIA
27.0,59.78,21.37,27.0,UTO,FINLAND
28.0,59.77,22.95,28.0,RUSSARO,FINLAND
29.0,60.12,25.42,29.0,SODERSKAR,FINLAND
30.0,63.07,20.8,30.0,RONNSKAR,FINLAND
31.0,59.2,17.62,31.0,NEDRE_SODERTALJE,SWEDEN
32.0,52.46,4.55,32.0,IJMUIDEN,"NETHERLANDS, KINGDOM OF THE"
33.0,59.68,10.6,33.0,OSCARSBORG,NORWAY
34.0,63.43,10.43,34.0,TRONDHEIM,NORWAY
37.0,57.05,24.03,37.0,DAUGAVGRIVA,LATVIA
39.0,45.42,12.33,39.0,VENEZIA,ITALY
41.0,42.17,41.68,41.0,POTI,GEORGIA
42.0,44.62,33.53,42.0,SEVASTOPOL,UKRAINE
43.0,18.92,72.83,43.0,MUMBAI,INDIA
44.0,12.79,44.97,44.0,ADEN,YEMEN
45.0,68.21,14.48,45.0,KABELVAG,NORWAY
47.0,58.97,5.73,47.0,STAVANGER,NORWAY
48.0,22.53,88.33,48.0,KIDDERPORE,INDIA
51.0,41.63,41.7,51.0,BATUMI,GEORGIA
52.0,38.68,-9.42,52.0,CASCAIS,PORTUGAL
57.0,63.08,21.57,57.0,VAASA,FINLAND
58.0,60.4,5.32,58.0,BERGEN,NORWAY
59.0,44.4,8.9,59.0,GENOVA,ITALY
61.0,43.28,5.35,61.0,MARSEILLE,FRANCE
62.0,59.91,10.73,62.0,OSLO,NORWAY
63.0,60.03,19.88,63.0,KOBBAKLINTAR,ÅLAND ISLANDS
64.0,54.4,18.68,64.0,GDANSK/NOWY_PORT,POLAND
65.0,-33.85,151.23,65.0,SYDNEY,AUSTRALIA
68.0,58.74,17.87,68.0,LANDSORT,SWEDEN
69.0,57.37,17.1,69.0,OLANDS_NORRA_UDDE,SWEDEN
70.0,56.11,15.59,70.0,KUNGSHOLMSFORT,SWEDEN
71.0,59.82,22.98,71.0,HANKO,FINLAND
72.0,55.42,13.82,72.0,YSTAD,SWEDEN
73.0,57.1,12.22,73.0,VARBERG,SWEDEN
76.0,56.15,10.22,76.0,AARHUS,DENMARK
77.0,59.28,19.03,77.0,GRONSKAR,SWEDEN
78.0,59.32,18.08,78.0,STOCKHOLM,SWEDEN
79.0,65.04,25.42,79.0,OULU,FINLAND
80.0,55.46,8.44,80.0,ESBJERG,DENMARK
81.0,55.56,9.75,81.0,FREDERICIA,DENMARK
82.0,55.7,12.6,82.0,KOBENHAVN,DENMARK
83.0,60.7,28.73,83.0,VYBORG,RUSSIAN FEDERATION
84.0,60.1,20.02,84.0,LEMSTROM,ÅLAND ISLANDS
86.0,63.83,23.03,86.0,YKSPIHLAJA,FINLAND
87.0,45.42,12.35,87.0,VENEZIA,ITALY
88.0,63.99,20.89,88.0,RATAN,SWEDEN
89.0,57.6,9.96,89.0,HIRTSHALS,DENMARK
90.0,60.63,17.97,90.0,BJORN,SWEDEN
91.0,57.44,10.55,91.0,FREDERIKSHAVN,DENMARK
94.0,34.9,132.07,94.0,TONOURA,JAPAN
95.0,55.01,-1.44,95.0,NORTH_SHIELDS,UNITED KINGDOM
96.0,44.67,-63.58,96.0,HALIFAX,CANADA
97.0,58.37,11.25,97.0,BACKEVIK,SWEDEN
98.0,55.29,10.83,98.0,SLIPSHAVN,DENMARK
99.0,60.68,17.17,99.0,NEDRE_GAVLE,SWEDEN
104.0,39.2,9.17,104.0,CAGLIARI,ITALY
105.0,40.84,14.26,105.0,NAPOLI,ITALY
106.0,42.05,11.82,106.0,CIVITAVECCHIA,ITALY
107.0,38.13,13.33,107.0,PALERMO,ITALY
108.0,43.87,8.02,108.0,PORTO_MAURIZIO,ITALY
111.0,-32.06,115.74,111.0,FREMANTLE,AUSTRALIA
112.0,30.67,-81.47,112.0,FERNANDINA_BEACH,UNITED STATES
113.0,55.33,11.14,113.0,KORSOR,DENMARK
118.0,55.7,21.13,118.0,KLAIPEDA,LITHUANIA
119.0,56.09,12.46,119.0,HORNBAEK,DENMARK
120.0,54.57,11.93,120.0,GEDSER,DENMARK
122.0,62.37,17.53,122.0,DRAGHALLAN,SWEDEN
127.0,47.6,-122.34,127.0,SEATTLE,UNITED STATES
129.0,40.87,14.27,129.0,NAPOLI,ITALY
130.0,35.16,139.62,130.0,ABURATSUBO,JAPAN
131.0,38.3,141.51,131.0,AYUKAWA,JAPAN
132.0,37.41,136.9,132.0,WAJIMA,JAPAN
133.0,32.43,131.67,133.0,HOSOJIMA,JAPAN
134.0,33.48,135.77,134.0,KUSHIMOTO,JAPAN
135.0,39.93,-75.14,135.0,PHILADELPHIA,UNITED STATES
138.0,48.52,-68.47,138.0,POINTE-AU-PERE,CANADA
139.0,43.28,145.58,139.0,HANASAKI,JAPAN
140.0,58.95,11.18,140.0,STROMSTAD,SWEDEN
142.0,60.1,23.55,142.0,SKURU,FINLAND
145.0,14.58,120.97,145.0,MANILA,PHILIPPINES
146.0,54.6,18.8,146.0,HEL,POLAND
148.0,39.27,-76.58,148.0,BALTIMORE,UNITED STATES
150.0,-36.84,174.77,150.0,AUCKLAND_II,NEW ZEALAND
154.0,45.65,13.76,154.0,TRIESTE,ITALY
155.0,21.31,-157.87,155.0,HONOLULU,UNITED STATES
157.0,-34.6,-58.37,157.0,BUENOS_AIRES,ARGENTINA
158.0,32.71,-117.17,158.0,SAN_DIEGO,UNITED STATES
159.0,43.22,140.87,159.0,OSHORO_I,JAPAN
161.0,29.31,-94.79,161.0,GALVESTON_II,UNITED STATES
162.0,37.1,-8.67,162.0,LAGOS,PORTUGAL
163.0,8.97,-79.57,163.0,BALBOA,PANAMA
164.0,60.45,26.95,164.0,KOTKA,FINLAND
165.0,49.15,-125.92,165.0,TOFINO,CANADA
166.0,48.42,-123.37,166.0,VICTORIA,CANADA
167.0,54.32,-130.33,167.0,PRINCE_RUPERT,CANADA
168.0,45.43,12.33,168.0,VENEZIA,ITALY
169.0,9.35,-79.92,169.0,CRISTOBAL,PANAMA
172.0,61.59,21.46,172.0,MANTYLUOTO,FINLAND
174.0,11.8,99.82,174.0,KO_LAK,THAILAND
175.0,49.28,-123.12,175.0,VANCOUVER,CANADA
176.0,50.5,-59.48,176.0,HARRINGTON_HBR,CANADA
179.0,58.35,11.22,179.0,SMOGEN,SWEDEN
180.0,39.35,-74.42,180.0,ATLANTIC_CITY,UNITED STATES
183.0,43.66,-70.25,183.0,PORTLAND ,UNITED STATES
188.0,24.55,-81.81,188.0,KEY_WEST,UNITED STATES
189.0,-20.32,118.57,189.0,PORT_HEDLAND,AUSTRALIA
190.0,56.01,-2.52,190.0,DUNBAR,UNITED KINGDOM
193.0,49.33,-123.25,193.0,POINT_ATKINSON,CANADA
194.0,63.71,22.69,194.0,PIETARSAARI ,FINLAND
195.0,45.27,-66.07,195.0,SAINT_JOHN,CANADA
196.0,-33.85,151.23,196.0,SYDNEY,AUSTRALIA
202.0,50.1,-5.54,202.0,NEWLYN,UNITED KINGDOM
203.0,64.92,21.23,203.0,FURUOGRUND,SWEDEN
204.0,24.81,66.97,204.0,KARACHI,PAKISTAN
205.0,13.1,80.3,205.0,CHENNAI,INDIA
208.0,38.34,-0.48,208.0,ALICANTE,SPAIN
209.0,36.53,-6.31,209.0,CADIZ_II,SPAIN
210.0,16.77,96.17,210.0,RANGOON,MYANMAR
213.0,-46.6,168.35,213.0,BLUFF,NEW ZEALAND
214.0,51.96,1.35,214.0,FELIXSTOWE,UNITED KINGDOM
215.0,44.1,39.07,215.0,TUAPSE,RUSSIAN FEDERATION
216.0,-33.18,138.01,216.0,PORT_PIRIE,AUSTRALIA
217.0,-36.84,174.77,217.0,AUCKLAND-WAITEMATA_HARBOUR,NEW ZEALAND
219.0,54.6,-5.92,219.0,BELFAST_2,UNITED KINGDOM
221.0,-41.28,174.78,221.0,WELLINGTON_HARBOUR,NEW ZEALAND
223.0,-38.58,-58.7,223.0,QUEQUEN,ARGENTINA
224.0,38.78,-75.12,224.0,LEWES,UNITED STATES
225.0,55.33,-131.62,225.0,KETCHIKAN,UNITED STATES
226.0,61.48,21.33,226.0,SAPPI,FINLAND
227.0,60.08,26.98,227.0,SUR_SARI,RUSSIAN FEDERATION
229.0,65.67,24.52,229.0,KEMI,FINLAND
230.0,-34.72,135.87,230.0,PORT_LINCOLN,AUSTRALIA
231.0,60.2,19.3,231.0,HELIGMAN,ÅLAND ISLANDS
234.0,32.78,-79.92,234.0,CHARLESTON_I,UNITED STATES
235.0,42.35,-71.05,235.0,BOSTON,UNITED STATES
236.0,53.36,5.22,236.0,WEST-TERSCHELLING,"NETHERLANDS, KINGDOM OF THE"
237.0,60.35,28.62,237.0,PRIMORSK,RUSSIAN FEDERATION
238.0,59.85,23.25,238.0,TVARMINNE,FINLAND
239.0,60.43,22.1,239.0,TURKU,FINLAND
240.0,64.67,24.41,240.0,RAAHE,FINLAND
245.0,33.72,-118.27,245.0,LOS_ANGELES,UNITED STATES
246.0,30.4,-87.21,246.0,PENSACOLA,UNITED STATES
247.0,-43.61,172.72,247.0,PORT_LYTTELTON,NEW ZEALAND
248.0,1.46,103.79,248.0,JOHOR_BAHRU,MALAYSIA
249.0,60.03,20.38,249.0,FOGLO,ÅLAND ISLANDS
253.0,31.25,32.3,253.0,PORT_SAID,EGYPT
255.0,51.11,1.32,255.0,DOVER,UNITED KINGDOM
256.0,32.87,-117.26,256.0,LA_JOLLA,UNITED STATES
258.0,37.74,-25.67,258.0,PONTA_DELGADA,PORTUGAL
259.0,-43.61,172.72,259.0,LYTTELTON_II,NEW ZEALAND
260.0,6.07,121.0,260.0,JOLO,PHILIPPINES
265.0,46.21,-123.77,265.0,ASTORIA,UNITED STATES
266.0,60.12,-149.43,266.0,SEWARD,UNITED STATES
267.0,-32.92,151.8,267.0,NEWCASTLE_III,AUSTRALIA
269.0,22.2,113.55,269.0,MACAU,MACAO
270.0,29.23,-81.0,270.0,DAYTONA_BEACH,UNITED STATES
271.0,54.93,10.07,271.0,MOMMARK,DENMARK
284.0,-29.87,31.05,284.0,DURBAN,SOUTH AFRICA
285.0,62.34,21.21,285.0,KASKINEN,FINLAND
286.0,53.63,-0.19,286.0,IMMINGHAM,UNITED KINGDOM
288.0,43.08,-70.74,288.0,SEAVEY_ISLAND,UNITED STATES
289.0,54.95,20.22,289.0,PIONERSKY,RUSSIAN FEDERATION
299.0,36.95,-76.33,299.0,SEWELLS_POINT,UNITED STATES
300.0,19.73,-155.06,300.0,HILO,UNITED STATES
302.0,58.01,7.55,302.0,TREGDE,NORWAY
303.0,28.48,-16.24,303.0,SANTA_CRUZ_DE_TENERIFE_I,SPAIN
310.0,-29.43,153.36,310.0,YAMBA,AUSTRALIA
311.0,38.98,-76.48,311.0,ANNAPOLIS,UNITED STATES
312.0,68.43,17.43,312.0,NARVIK,NORWAY
313.0,63.43,9.1,313.0,HEIMSJO,NORWAY
314.0,58.21,-6.39,314.0,STORNOWAY,UNITED KINGDOM
315.0,60.56,27.18,315.0,HAMINA,FINLAND
316.0,30.39,-81.43,316.0,MAYPORT,UNITED STATES
317.0,42.48,27.48,317.0,BOURGAS,BULGARIA
318.0,43.18,27.92,318.0,VARNA,BULGARIA
320.0,-32.92,151.8,320.0,NEWCASTLE_I,AUSTRALIA
330.0,55.52,12.89,330.0,KLAGSHAMN,SWEDEN
331.0,4.88,-1.75,331.0,TAKORADI,GHANA
332.0,44.9,-66.98,332.0,EASTPORT,UNITED STATES
333.0,22.3,114.2,333.0,NORTH_POINT,HONG KONG
334.0,51.51,0.72,334.0,SOUTHEND,UNITED KINGDOM
335.0,51.47,0.37,335.0,TILBURY,UNITED KINGDOM
336.0,51.5,0.08,336.0,TOWER_PIER,UNITED KINGDOM
350.0,50.8,-1.11,350.0,PORTSMOUTH,UNITED KINGDOM
351.0,41.51,-71.33,351.0,NEWPORT,UNITED STATES
352.0,43.51,16.44,352.0,SPLIT - GRADSKA_LUKA,CROATIA
353.0,45.3,14.53,353.0,BAKAR,CROATIA
359.0,34.92,139.82,359.0,MERA,JAPAN
360.0,38.87,-77.02,360.0,WASHINGTON_DC,UNITED STATES
361.0,57.14,-2.08,361.0,ABERDEEN_I,UNITED KINGDOM
362.0,40.79,-73.78,362.0,WILLETS_POINT,UNITED STATES
363.0,25.77,-80.13,363.0,MIAMI_BEACH,UNITED STATES
366.0,40.47,-74.01,366.0,SANDY_HOOK,UNITED STATES
367.0,41.52,-70.67,367.0,WOODS_HOLE,UNITED STATES
368.0,32.37,-64.7,368.0,ST. GEORGES,BERMUDA
369.0,22.55,88.3,369.0,GARDEN_REACH,INDIA
373.0,40.63,22.93,373.0,THESSALONIKI,GREECE
374.0,37.94,23.63,374.0,PIRAIEVS,GREECE
375.0,40.93,24.41,375.0,KAVALLA,GREECE
376.0,61.13,21.43,376.0,RAUMA,FINLAND
377.0,34.01,-118.5,377.0,SANTA_MONICA,UNITED STATES
378.0,41.74,-124.18,378.0,CRESCENT_CITY,UNITED STATES
379.0,44.17,28.67,379.0,CONSTANTZA,ROMANIA
384.0,48.55,-123.01,384.0,FRIDAY_HARBOR,UNITED STATES
385.0,48.37,-124.61,385.0,NEAH_BAY,UNITED STATES
386.0,-32.15,133.64,386.0,THEVENARD,AUSTRALIA
392.0,47.57,-59.13,392.0,PORT_AUX_BASQUES,CANADA
393.0,47.57,-52.72,393.0,ST. JOHN'S,CANADA
394.0,10.3,123.92,394.0,CEBU,PHILIPPINES
395.0,32.03,-80.9,395.0,FORT_PULASKI,UNITED STATES
396.0,34.23,-77.95,396.0,WILMINGTON,UNITED STATES
397.0,54.51,13.64,397.0,SASSNITZ,GERMANY
398.0,61.92,5.63,398.0,KJOLSDAL,NORWAY
399.0,36.82,-76.29,399.0,PORTSMOUTH,UNITED STATES
401.0,58.97,9.88,401.0,NEVLUNGHAVN,NORWAY
405.0,58.3,-134.41,405.0,JUNEAU,UNITED STATES
407.0,35.02,138.89,407.0,UCHIURA,JAPAN
408.0,38.37,26.14,408.0,KHIOS,GREECE
409.0,37.95,22.96,409.0,POSIDHONIA,GREECE
410.0,38.96,20.76,410.0,PREVEZA,GREECE
411.0,37.02,22.12,411.0,KALAMAI,GREECE
412.0,38.32,-76.45,412.0,SOLOMON'S_ISLAND,UNITED STATES
413.0,51.23,2.92,413.0,OOSTENDE,BELGIUM
414.0,17.68,83.28,414.0,VISAKHAPATNAM,INDIA
417.0,21.65,88.05,417.0,SAUGOR/SAGAR,INDIA
418.0,19.91,-75.15,418.0,GUANTANAMO_BAY,CUBA
420.0,21.8,72.3,420.0,BHAUNAGAR_I,INDIA
425.0,69.33,16.13,425.0,ANDENES,NORWAY
426.0,57.05,-135.34,426.0,SITKA,UNITED STATES
427.0,46.23,-63.12,427.0,CHARLOTTETOWN,CANADA
428.0,29.14,-83.03,428.0,CEDAR_KEY_II,UNITED STATES
429.0,41.36,-72.09,429.0,NEW_LONDON,UNITED STATES
430.0,41.81,-71.4,430.0,PROVIDENCE,UNITED STATES
431.0,-34.9,-56.25,431.0,MONTEVIDEO,URUGUAY
432.0,53.35,-6.22,432.0,DUBLIN,IRELAND
433.0,-34.48,-57.85,433.0,COLONIA,URUGUAY
434.0,-34.97,-54.95,434.0,PUNTA_DEL_ESTE,URUGUAY
435.0,54.15,-4.47,435.0,DOUGLAS,ISLE OF MAN
437.0,37.77,-122.3,437.0,ALAMEDA,UNITED STATES
438.0,9.97,76.27,438.0,COCHIN,INDIA
440.0,29.37,-91.39,440.0,EUGENE_ISLAND,UNITED STATES
444.0,13.55,100.58,444.0,FORT_PHRACHULA_CHOMKLAO,THAILAND
445.0,59.55,-139.73,445.0,YAKUTAT,UNITED STATES
446.0,7.83,98.43,446.0,KO_TAPHAO_NOI,THAILAND
447.0,58.77,-94.18,447.0,CHURCHILL,CANADA
448.0,-34.78,138.48,448.0,PORT_ADELAIDE,AUSTRALIA
449.0,13.15,100.82,449.0,KO_SICHANG,THAILAND
453.0,49.48,0.11,453.0,LE_HAVRE,FRANCE
454.0,48.64,-2.03,454.0,ST. MALO,FRANCE
455.0,50.97,1.87,455.0,CALAIS,FRANCE
456.0,3.9,-77.1,456.0,BUENAVENTURA,COLOMBIA
457.0,47.27,-2.2,457.0,ST. NAZAIRE,FRANCE
458.0,-17.0,-72.12,458.0,MATARANI,PERU
460.0,40.53,141.53,460.0,HACHINOHE_I,JAPAN
462.0,37.57,-77.45,462.0,RICHMOND,UNITED STATES
463.0,39.63,141.97,463.0,MIYAKO_I,JAPAN
464.0,9.97,-84.83,464.0,PUNTARENAS,COSTA RICA
466.0,46.16,-1.22,466.0,LA_ROCHELLE-LA_PALLICE,FRANCE
467.0,49.65,-1.64,467.0,CHERBOURG,FRANCE
468.0,51.05,2.37,468.0,DUNKERQUE,FRANCE
469.0,43.4,-1.68,469.0,ST_JEAN_DE_LUZ,FRANCE
470.0,51.35,3.2,470.0,ZEEBRUGGE,BELGIUM
471.0,50.73,1.58,471.0,BOULOGNE,FRANCE
474.0,49.93,1.08,474.0,DIEPPE,FRANCE
475.0,-4.62,-81.28,475.0,TALARA,PERU
477.0,-20.15,57.5,477.0,PORT_LOUIS,MAURITIUS
483.0,42.24,-8.73,483.0,VIGO,SPAIN
484.0,43.37,-8.4,484.0,LA_CORUNA_I,SPAIN
485.0,43.46,-3.79,485.0,SANTANDER_I,SPAIN
486.0,61.93,5.11,486.0,MALOY,NORWAY
487.0,51.86,-176.63,487.0,ADAK  SWEEPER_COVE,UNITED STATES
488.0,36.01,-5.6,488.0,TARIFA,SPAIN
489.0,51.15,2.73,489.0,NIEUWPOORT,BELGIUM
490.0,36.12,-5.43,490.0,ALGECIRAS,SPAIN
491.0,52.83,173.2,491.0,MASSACRE_BAY,UNITED STATES
495.0,59.45,-135.33,495.0,SKAGWAY,UNITED STATES
496.0,36.71,-4.42,496.0,MALAGA,SPAIN
497.0,26.06,-97.22,497.0,PORT_ISABEL,UNITED STATES
498.0,35.89,-5.32,498.0,CEUTA,SPAIN
499.0,-33.03,-71.63,499.0,VALPARAISO,CHILE
500.0,-41.28,174.78,500.0,WELLINGTON_II,NEW ZEALAND
501.0,-42.77,-65.03,501.0,PUERTO_MADRYN,ARGENTINA
503.0,31.22,29.92,503.0,ALEXANDRIA,EGYPT
508.0,35.18,-120.76,508.0,PORT_SAN_LUIS,UNITED STATES
509.0,62.47,6.15,509.0,ALESUND,NORWAY
510.0,-23.65,-70.4,510.0,ANTOFAGASTA_2,CHILE
511.0,-23.65,-70.42,511.0,ANTOFAGASTA,CHILE
513.0,8.73,167.74,513.0,KWAJALEIN,MARSHALL ISLANDS
518.0,42.98,144.37,518.0,KUSHIRO,JAPAN
519.0,41.05,-71.96,519.0,MONTAUK,UNITED STATES
520.0,27.76,-82.63,520.0,ST. PETERSBURG,UNITED STATES
521.0,20.89,-156.48,521.0,KAHULUI_HARBOR,UNITED STATES
522.0,13.15,123.75,522.0,LEGASPI,PHILIPPINES
523.0,28.21,-177.36,523.0,MIDWAY_ISLAND,UNITED STATES MINOR OUTLYING ISLANDS
524.0,70.37,31.1,524.0,VARDO,NORWAY
525.0,44.39,-68.2,525.0,BAR_HARBOR,UNITED STATES
526.0,29.26,-89.96,526.0,GRAND_ISLE,UNITED STATES
527.0,49.23,-124.82,527.0,PORT_ALBERNI,CANADA
528.0,7.45,151.85,528.0,CHUUK,"MICRONESIA, FEDERATED STATES OF"
531.0,68.58,16.55,531.0,EVENSKJAER,NORWAY
537.0,7.08,125.63,537.0,DAVAO,PHILIPPINES
538.0,28.02,-97.05,538.0,ROCKPORT,UNITED STATES
539.0,-14.28,-170.69,539.0,PAGO_PAGO,AMERICAN SAMOA
540.0,13.44,144.65,540.0,APRA_HARBOR,GUAM
541.0,78.07,14.25,541.0,BARENTSBURG,SVALBARD AND JAN MAYEN
542.0,-28.23,-48.65,542.0,IMBITUBA,BRAZIL
543.0,22.2,88.17,543.0,DIAMOND_HARBOUR,INDIA
544.0,-2.2,-80.92,544.0,LA_LIBERTAD_II,ECUADOR
545.0,25.13,121.73,545.0,KEELUNG_II,"TAIWAN, PROVINCE OF CHINA"
546.0,44.02,145.87,546.0,YUZHNO_KURILSK,RUSSIAN FEDERATION
547.0,78.07,14.25,547.0,BARENTSBURG_II,SVALBARD AND JAN MAYEN
549.0,-33.83,151.28,549.0,CAMP_COVE,AUSTRALIA
552.0,10.0,-83.03,552.0,PUERTO_LIMON,COSTA RICA
554.0,50.58,-126.95,554.0,ALERT_BAY,CANADA
555.0,-2.2,-80.92,555.0,LA_LIBERTAD,ECUADOR
556.0,-8.05,-34.87,556.0,RECIFE,BRAZIL
557.0,15.83,-87.95,557.0,PUERTO_CORTES,HONDURAS
558.0,13.33,-87.82,558.0,LA_UNION,EL SALVADOR
562.0,67.29,14.39,562.0,BODO,NORWAY
563.0,21.11,-76.12,563.0,GIBARA,CUBA
564.0,-21.1,149.23,564.0,MACKAY,AUSTRALIA
565.0,28.15,-15.41,565.0,LAS_PALMAS_C,SPAIN
566.0,60.56,-145.75,566.0,CORDOVA,UNITED STATES
567.0,57.73,-152.51,567.0,KODIAK_ISLAND,UNITED STATES
568.0,28.67,-17.77,568.0,SANTA_CRUZ_DE_LA_PALMA_B,SPAIN
569.0,71.58,128.92,569.0,TIKSI,RUSSIAN FEDERATION
571.0,-36.68,-73.1,571.0,TALCAHUANO,CHILE
572.0,10.4,-75.55,572.0,CARTAGENA,COLOMBIA
575.0,-2.8,-171.72,575.0,KANTON_ISLAND,KIRIBATI
578.0,-12.97,-38.52,578.0,SALVADOR,BRAZIL
580.0,-1.45,-48.5,580.0,BELEM,BRAZIL
581.0,8.92,-79.55,581.0,NAOS_ISLAND,PANAMA
593.0,28.97,-13.53,593.0,ARRECIFE,SPAIN
595.0,19.29,166.62,595.0,WAKE_ISLAND,MARSHALL ISLANDS
596.0,23.02,70.22,596.0,KANDLA,INDIA
597.0,37.25,-76.5,597.0,GLOUCESTER_POINT,UNITED STATES
598.0,16.74,-169.53,598.0,JOHNSTON_ISLAND,UNITED STATES MINOR OUTLYING ISLANDS
599.0,69.75,61.7,599.0,AMDERMA,RUSSIAN FEDERATION
600.0,69.25,64.52,600.0,UST_KARA,RUSSIAN FEDERATION
601.0,77.72,104.3,601.0,FEDOROVA,RUSSIAN FEDERATION
602.0,74.67,138.9,602.0,SANNIKOVA,RUSSIAN FEDERATION
603.0,73.18,143.23,603.0,SHALAUROVA,RUSSIAN FEDERATION
604.0,69.62,162.3,604.0,AMBARCHIK,RUSSIAN FEDERATION
605.0,69.5,166.58,605.0,RAU-CHUA,RUSSIAN FEDERATION
606.0,69.7,170.25,606.0,PEVEK,RUSSIAN FEDERATION
607.0,67.83,-175.83,607.0,VANKAREM,RUSSIAN FEDERATION
608.0,70.98,-178.48,608.0,VRANGELIA,RUSSIAN FEDERATION
609.0,72.37,52.7,609.0,MALYE_KARMAKULY,RUSSIAN FEDERATION
610.0,73.0,119.87,610.0,UST_OLENEK,RUSSIAN FEDERATION
611.0,73.5,80.4,611.0,DIKSON,RUSSIAN FEDERATION
612.0,75.42,88.9,612.0,STERLEGOVA,RUSSIAN FEDERATION
613.0,66.97,-171.93,613.0,NETTEN,RUSSIAN FEDERATION
614.0,39.9,119.6,614.0,QINHUANGDAO,CHINA
615.0,76.27,94.77,615.0,PRAVDY,RUSSIAN FEDERATION
616.0,68.9,-179.37,616.0,MYS_SHMIDTA,RUSSIAN FEDERATION
617.0,65.85,-169.13,617.0,RATMANOVA,RUSSIAN FEDERATION
618.0,-18.47,-70.33,618.0,ARICA,CHILE
619.0,-27.07,-70.83,619.0,CALDERA,CHILE
620.0,78.08,106.82,620.0,MALYI_TAIMYR,RUSSIAN FEDERATION
621.0,67.48,-174.65,621.0,KOLUCHIN,RUSSIAN FEDERATION
622.0,69.82,60.75,622.0,UGORSKII_SHAR,RUSSIAN FEDERATION
627.0,34.47,136.85,627.0,TOBA,JAPAN
634.0,35.35,25.15,634.0,IRAKLION,GREECE
635.0,36.94,140.89,635.0,ONAHAMA,JAPAN
636.0,37.16,-75.99,636.0,KIPTOPEKE_BEACH,UNITED STATES
637.0,-19.25,146.83,637.0,TOWNSVILLE_I,AUSTRALIA
638.0,64.15,-21.94,638.0,REYKJAVIK,ICELAND
639.0,1.83,-78.73,639.0,TUMACO,COLOMBIA
640.0,73.93,124.5,640.0,DUNAI,RUSSIAN FEDERATION
641.0,76.0,137.87,641.0,KOTELNYI,RUSSIAN FEDERATION
642.0,73.33,139.87,642.0,KIGILIAH,RUSSIAN FEDERATION
643.0,54.18,15.55,643.0,KOLOBRZEG,POLAND
644.0,54.58,16.87,644.0,USTKA,POLAND
645.0,54.8,18.42,645.0,WLADYSLAWOWO,POLAND
646.0,76.8,110.75,646.0,ANDREIA,RUSSIAN FEDERATION
647.0,76.95,68.55,647.0,ZHELANIA_II,RUSSIAN FEDERATION
648.0,77.6,101.52,648.0,GEIBERGA,RUSSIAN FEDERATION
649.0,71.55,130.03,649.0,MUOSTAH,RUSSIAN FEDERATION
650.0,70.63,162.48,650.0,CHETYREHSTOLBOVOI,RUSSIAN FEDERATION
651.0,70.45,59.08,651.0,BOLVANSKII_NOS,RUSSIAN FEDERATION
652.0,74.67,112.93,652.0,PREOBRAZHENIA,RUSSIAN FEDERATION
653.0,73.33,70.05,653.0,POPOVA,RUSSIAN FEDERATION
655.0,77.17,96.43,655.0,RUSSKII,RUSSIAN FEDERATION
656.0,78.2,103.27,656.0,SOLNECHNAIA,RUSSIAN FEDERATION
657.0,72.83,140.73,657.0,SVIATOI_NOS,RUSSIAN FEDERATION
658.0,74.88,142.12,658.0,ZEMLIA_BUNGE,RUSSIAN FEDERATION
661.0,34.2,129.3,661.0,IZUHARA,JAPAN
662.0,64.42,-173.23,662.0,PROVIDENIA,RUSSIAN FEDERATION
663.0,35.48,135.4,663.0,MAIZURU_I,JAPAN
664.0,11.25,125.0,664.0,TACLOBAN,PHILIPPINES
665.0,11.37,162.35,665.0,ENEWETOK,MARSHALL ISLANDS
667.0,75.53,113.43,667.0,MARII_PRONCHISHEVOI,RUSSIAN FEDERATION
668.0,8.27,-82.87,668.0,PUERTO_ARMUELLES,PANAMA
669.0,34.03,131.8,669.0,TOKUYAMA_I,JAPAN
679.0,41.25,141.15,679.0,OMINATO,JAPAN
680.0,69.65,18.96,680.0,TROMSO,NORWAY
681.0,68.8,16.55,681.0,HARSTAD,NORWAY
682.0,63.11,7.73,682.0,KRISTIANSUND,NORWAY
683.0,-41.05,145.91,683.0,BURNIE,AUSTRALIA
684.0,68.97,33.05,684.0,MURMANSK,RUSSIAN FEDERATION
685.0,43.51,16.39,685.0,SPLIT_RT_MARJANA,CROATIA
686.0,16.83,-99.92,686.0,ACAPULCO,MEXICO
687.0,68.97,33.05,687.0,MURMANSK_II,RUSSIAN FEDERATION
688.0,48.77,-123.45,688.0,FULFORD_HARBOUR,CANADA
689.0,16.17,-95.2,689.0,SALINA_CRUZ,MEXICO
690.0,21.3,-89.67,690.0,PROGRESO,MEXICO
692.0,18.15,-94.42,692.0,COATZACOALCOS,MEXICO
693.0,27.92,-110.9,693.0,GUAYMAS,MEXICO
695.0,24.17,-110.35,695.0,LA_PAZ,MEXICO
696.0,12.85,74.83,696.0,MANGALORE,INDIA
701.0,34.14,135.19,701.0,KAINAN,JAPAN
703.0,57.12,8.6,703.0,HANSTHOLM,DENMARK
704.0,79.5,76.98,704.0,VISE,RUSSIAN FEDERATION
707.0,77.5,82.2,707.0,UEDINENIA,RUSSIAN FEDERATION
708.0,69.88,175.77,708.0,BILLINGA,RUSSIAN FEDERATION
710.0,76.18,62.58,710.0,RUSSKAIA_GAVAN_II,RUSSIAN FEDERATION
711.0,76.2,62.58,711.0,RUSSKAYA_GAVAN,RUSSIAN FEDERATION
712.0,23.2,-106.42,712.0,MAZATLAN,MEXICO
721.0,40.9,140.86,721.0,ASAMUSHI,JAPAN
722.0,35.29,139.65,722.0,YOKOSUKA,JAPAN
723.0,38.87,121.68,723.0,DALIAN,CHINA
724.0,1.47,103.83,724.0,SEMBAWANG,SINGAPORE
725.0,28.95,-95.31,725.0,FREEPORT,UNITED STATES
726.0,-25.02,-47.93,726.0,CANANEIA,BRAZIL
727.0,24.45,118.07,727.0,XIAMEN,CHINA
728.0,75.95,82.95,728.0,IZVESTIA_TSIK,RUSSIAN FEDERATION
729.0,79.55,90.62,729.0,GOLOMIANYI,RUSSIAN FEDERATION
730.0,69.93,167.98,730.0,AION,RUSSIAN FEDERATION
731.0,37.53,121.38,731.0,YANTAI,CHINA
732.0,71.42,67.58,732.0,MORZHOVAIA,RUSSIAN FEDERATION
734.0,77.15,89.2,734.0,ISACHENKO,RUSSIAN FEDERATION
735.0,71.95,132.77,735.0,BUORHAIA,RUSSIAN FEDERATION
736.0,73.65,109.73,736.0,KOSYSTYI,RUSSIAN FEDERATION
737.0,19.05,-104.33,737.0,MANZANILLO,MEXICO
738.0,78.6,98.83,738.0,KRASNOFLOTSKIE,RUSSIAN FEDERATION
752.0,38.56,139.55,752.0,NEZUGASEKI,JAPAN
753.0,37.36,138.51,753.0,KASHIWAZAKI,JAPAN
754.0,52.47,1.75,754.0,LOWESTOFT,UNITED KINGDOM
755.0,55.75,-4.91,755.0,MILLPORT,UNITED KINGDOM
756.0,21.95,-159.35,756.0,NAWILIWILI_BAY,UNITED STATES
757.0,53.88,-166.54,757.0,UNALASKA,UNITED STATES
758.0,70.66,23.68,758.0,HAMMERFEST,NORWAY
759.0,17.97,-67.05,759.0,MAGUEYES_ISLAND,PUERTO RICO
760.0,42.66,18.06,760.0,DUBROVNIK,CROATIA
761.0,45.08,13.63,761.0,ROVINJ,CROATIA
762.0,54.66,11.35,762.0,RODBYHAVN,DENMARK
763.0,43.36,-8.4,763.0,LA_CORUNA_II,SPAIN
764.0,-34.65,-54.15,764.0,LA_PALOMA,URUGUAY
765.0,53.4,-3.02,765.0,BIRKENHEAD,UNITED KINGDOM
766.0,33.6,-117.88,766.0,NEWPORT_BAY,UNITED STATES
767.0,70.37,72.57,767.0,TADIBE-IAHA,RUSSIAN FEDERATION
768.0,18.77,-95.77,768.0,ALVARADO,MEXICO
772.0,44.35,143.37,772.0,MONBETU_I,JAPAN
775.0,41.77,-70.5,775.0,SANDWICH_MARINA,UNITED STATES
776.0,41.74,-70.62,776.0,BUZZARDS_BAY,UNITED STATES
786.0,39.56,-75.57,786.0,REEDY_POINT,UNITED STATES
787.0,-41.26,173.27,787.0,NELSON,NEW ZEALAND
788.0,43.73,7.42,788.0,MONACO,MONACO
789.0,54.37,10.16,789.0,KIEL-HOLTENAU,GERMANY
790.0,73.55,118.67,790.0,TERPIAI-TUMSA,RUSSIAN FEDERATION
791.0,41.18,-8.7,791.0,LEIXOES,PORTUGAL
792.0,70.08,170.93,792.0,VALKARKAI,RUSSIAN FEDERATION
795.0,31.85,-116.63,795.0,ENSENADA,MEXICO
796.0,18.63,-91.85,796.0,CIUDAD_DEL_CARMEN,MEXICO
808.0,35.01,138.52,808.0,SHIMIZU-MINATO,JAPAN
809.0,34.01,134.59,809.0,KOMATSUSHIMA,JAPAN
810.0,32.62,130.45,810.0,MISUMI,JAPAN
811.0,35.55,133.24,811.0,SAKAI,JAPAN
812.0,34.49,133.95,812.0,UNO,JAPAN
813.0,41.78,140.72,813.0,HAKODATE_I,JAPAN
814.0,31.58,131.41,814.0,ABURATSU,JAPAN
815.0,32.78,132.96,815.0,TOSA_SHIMIZU,JAPAN
816.0,34.22,135.15,816.0,WAKAYAMA,JAPAN
817.0,34.34,135.18,817.0,TAN-NOWA,JAPAN
818.0,-31.52,159.07,818.0,LORD_HOWE_ISLAND,AUSTRALIA
819.0,-38.03,-57.52,819.0,MAR_DEL_PLATA,ARGENTINA
820.0,-33.95,25.63,820.0,PORT_ELIZABETH,SOUTH AFRICA
821.0,-29.06,167.95,821.0,NORFOLK_ISLAND,NORFOLK ISLAND
822.0,-27.37,153.17,822.0,BRISBANE,AUSTRALIA
823.0,21.43,-157.79,823.0,MOKUOLOE_ISLAND,UNITED STATES
824.0,52.98,158.65,824.0,PETROPAVLOVSK-KAMCHATSKY,RUSSIAN FEDERATION
825.0,-23.85,151.31,825.0,GLADSTONE,AUSTRALIA
826.0,-34.19,18.44,826.0,SIMONS_BAY,SOUTH AFRICA
827.0,59.55,150.72,827.0,NAGAEVO,RUSSIAN FEDERATION
828.0,29.29,-94.79,828.0,GALVESTON_I,UNITED STATES
829.0,53.25,-132.07,829.0,QUEEN_CHARLOTTE_CITY,CANADA
830.0,60.15,-1.14,830.0,LERWICK,UNITED KINGDOM
831.0,-34.47,150.91,831.0,PORT_KEMBLA,AUSTRALIA
832.0,-34.57,-58.4,832.0,PALERMO,ARGENTINA
833.0,-37.07,149.91,833.0,EDEN,AUSTRALIA
834.0,-33.32,115.66,834.0,BUNBURY,AUSTRALIA
835.0,-17.5,140.83,835.0,KARUMBA,AUSTRALIA
836.0,-29.26,16.87,836.0,PORT_NOLLOTH,SOUTH AFRICA
837.0,-32.92,151.79,837.0,NEWCASTLE_V,AUSTRALIA
838.0,-42.88,147.34,838.0,HOBART,AUSTRALIA
839.0,62.02,-6.77,839.0,TORSHAVN,FAROE ISLANDS
841.0,20.67,106.8,841.0,HONDAU,VIET NAM
842.0,48.55,-124.42,842.0,PORT_RENFREW,CANADA
843.0,39.45,-31.12,843.0,SANTA_CRUZ_DAS_FLORES,PORTUGAL
845.0,33.97,130.95,845.0,SHIMONOSEKI_I,JAPAN
846.0,34.68,135.18,846.0,KOBE,JAPAN
847.0,34.35,134.05,847.0,TAKAMATSU,JAPAN
848.0,40.95,-73.08,848.0,PORT_JEFFERSON,UNITED STATES
852.0,-22.3,166.43,852.0,NOUMEA-CHALEIX,NEW CALEDONIA
856.0,40.89,-73.78,856.0,NEW_ROCHELLE,UNITED STATES
857.0,-38.03,-57.53,857.0,MAR_DEL_PLATA,ARGENTINA
859.0,69.6,60.22,859.0,BELYI_NOS,RUSSIAN FEDERATION
860.0,35.08,136.88,860.0,NAGOYA,JAPAN
910.0,-34.18,22.14,910.0,MOSSEL_BAY,SOUTH AFRICA
911.0,-26.64,15.15,911.0,LUDERITZ,NAMIBIA
912.0,33.95,130.97,912.0,MOZI,JAPAN
913.0,-65.25,-64.26,913.0,ARGENTINE_ISLANDS,ANTARCTICA
914.0,-22.95,14.5,914.0,WALVIS_BAY,NAMIBIA
916.0,55.37,-7.33,916.0,MALIN_HEAD,IRELAND
917.0,71.87,82.7,917.0,SOPOCHNAIA_KARGA,RUSSIAN FEDERATION
918.0,21.0,-97.33,918.0,TUXPAN,MEXICO
919.0,26.07,-97.15,919.0,PADRE_ISLAND,UNITED STATES
933.0,21.58,111.82,933.0,ZHAPO,CHINA
934.0,28.08,121.28,934.0,KANMEN,CHINA
935.0,-12.47,130.85,935.0,DARWIN,AUSTRALIA
936.0,54.03,-2.92,936.0,HEYSHAM,UNITED KINGDOM
937.0,76.15,152.83,937.0,ZHOHOVA,RUSSIAN FEDERATION
950.0,-34.05,23.05,950.0,KNYSNA,SOUTH AFRICA
952.0,35.63,139.75,952.0,SIBAURA,JAPAN
953.0,-16.92,145.78,953.0,CAIRNS,AUSTRALIA
954.0,34.78,126.38,954.0,MOKPO,"KOREA, REPUBLIC OF"
955.0,35.1,129.04,955.0,BUSAN,"KOREA, REPUBLIC OF"
956.0,37.45,126.59,956.0,INCHEON,"KOREA, REPUBLIC OF"
957.0,-35.03,117.89,957.0,ALBANY,AUSTRALIA
958.0,43.4,3.7,958.0,SETE,FRANCE
960.0,38.34,-0.48,960.0,ALICANTE,SPAIN
970.0,35.15,128.65,970.0,CHINHAE,"KOREA, REPUBLIC OF"
979.0,32.13,121.62,979.0,LUSI,CHINA
980.0,43.11,5.91,980.0,TOULON,FRANCE
981.0,36.15,-5.36,981.0,GIBRALTAR,GIBRALTAR
982.0,50.37,-4.19,982.0,DEVONPORT,UNITED KINGDOM
983.0,-12.12,96.89,983.0,COCOS_ISLAND,COCOS (KEELING) ISLANDS
984.0,52.17,-128.13,984.0,BELLA_BELLA,CANADA
985.0,36.54,-6.29,985.0,CADIZ_III,SPAIN
996.0,-39.06,174.03,996.0,PORT_TARANAKI,NEW ZEALAND
997.0,35.5,129.39,997.0,ULSAN,"KOREA, REPUBLIC OF"
998.0,-44.39,171.26,998.0,TIMARU_HARBOUR,NEW ZEALAND
1000.0,69.42,-132.97,1000.0,TUKTOYAKTUK,CANADA
1001.0,18.46,-66.11,1001.0,SAN_JUAN,PUERTO RICO
1002.0,22.98,88.4,1002.0,TRIBENI,INDIA
1003.0,18.8,105.77,1003.0,HONNGU,VIET NAM
1006.0,79.43,102.48,1006.0,PESCHANYI,RUSSIAN FEDERATION
1007.0,39.17,127.45,1007.0,WONSAN,"KOREA, DEMOCRATIC PEOPLE'S REPUBLIC OF"
1009.0,45.55,13.72,1009.0,KOPER,SLOVENIA
1011.0,13.57,-89.83,1011.0,ACAJUTLA,EL SALVADOR
1012.0,80.62,58.05,1012.0,KRENKELIA,RUSSIAN FEDERATION
1013.0,34.35,-119.44,1013.0,RINCON_ISLAND,UNITED STATES
1018.0,28.38,129.5,1018.0,NASE_II,JAPAN
1019.0,73.15,128.88,1019.0,SAGYLLAH-ARY,RUSSIAN FEDERATION
1020.0,22.25,-97.8,1020.0,CIUDAD_MADERO,MEXICO
1026.0,34.9,136.82,1026.0,ONISAKI,JAPAN
1027.0,43.21,140.86,1027.0,OSHORO_II,JAPAN
1028.0,34.35,132.46,1028.0,HIROSIMA,JAPAN
1030.0,32.64,-16.91,1030.0,FUNCHAL,PORTUGAL
1031.0,-28.78,114.6,1031.0,GERALDTON,AUSTRALIA
1032.0,-22.9,-43.17,1032.0,ILHA_FISCAL,BRAZIL
1033.0,-38.37,145.22,1033.0,STONY_POINT,AUSTRALIA
1034.0,22.44,114.18,1034.0,TAI_PO_KAU,HONG KONG
1036.0,54.62,8.38,1036.0,AMRUM,GERMANY
1037.0,53.56,6.75,1037.0,BORKUM,GERMANY
1038.0,26.55,-97.42,1038.0,PORT_MANSFIELD,UNITED STATES
1049.0,5.62,0.0,1049.0,TEMA,GHANA
1060.0,34.07,139.48,1060.0,MIYAKE_SIMA,JAPAN
1061.0,34.21,139.13,1061.0,KOZU_SIMA,JAPAN
1062.0,33.86,132.71,1062.0,MATSUYAMA_II,JAPAN
1064.0,34.62,138.88,1064.0,MINAMI_IZU,JAPAN
1065.0,-35.76,174.35,1065.0,WHANGAREI_HARBOUR,NEW ZEALAND
1066.0,33.53,126.54,1066.0,JEJU,"KOREA, REPUBLIC OF"
1067.0,61.24,-149.89,1067.0,ANCHORAGE,UNITED STATES
1068.0,41.17,-73.18,1068.0,BRIDGEPORT,UNITED STATES
1069.0,-35.56,138.64,1069.0,VICTOR_HARBOUR,AUSTRALIA
1070.0,59.44,-151.72,1070.0,SELDOVIA,UNITED STATES
1071.0,50.72,-127.48,1071.0,PORT_HARDY,CANADA
1072.0,8.75,78.2,1072.0,TUTICORIN,INDIA
1074.0,56.02,-3.45,1074.0,ROSYTH,UNITED KINGDOM
1075.0,42.08,19.08,1075.0,BAR,MONTENEGRO
1078.0,47.13,-2.25,1078.0,POINTE_ST. GILDAS,FRANCE
1080.0,15.7,-88.62,1080.0,SANTO_TOMAS_DE_CASTILLA,GUATEMALA
1089.0,34.68,137.61,1089.0,MAISAKA,JAPAN
1090.0,33.56,135.9,1090.0,URAGAMI,JAPAN
1091.0,34.79,139.39,1091.0,OKADA,JAPAN
1093.0,38.47,139.25,1093.0,AWA_SIMA,JAPAN
1094.0,33.62,130.41,1094.0,HAKATA,JAPAN
1095.0,36.2,133.33,1095.0,SAIGO,JAPAN
1096.0,30.73,130.99,1096.0,NISINOOMOTE,JAPAN
1097.0,31.02,130.69,1097.0,ODOMARI,JAPAN
1098.0,34.34,134.91,1098.0,SUMOTO,JAPAN
1099.0,34.66,135.43,1099.0,OSAKA,JAPAN
1100.0,32.73,129.87,1100.0,NAGASAKI,JAPAN
1101.0,32.7,128.85,1101.0,FUKUE,JAPAN
1102.0,32.98,130.22,1102.0,OURA,JAPAN
1103.0,45.41,141.69,1103.0,WAKKANAI,JAPAN
1104.0,44.02,144.29,1104.0,ABASHIRI,JAPAN
1105.0,29.84,129.85,1105.0,NAKANO_SIMA,JAPAN
1106.0,26.65,-81.87,1106.0,FORT_MYERS,UNITED STATES
1107.0,26.13,-81.81,1107.0,NAPLES,UNITED STATES
1108.0,37.55,129.12,1108.0,MUKHO,"KOREA, REPUBLIC OF"
1109.0,58.44,-3.09,1109.0,WICK,UNITED KINGDOM
1111.0,41.28,-70.1,1111.0,NANTUCKET_ISLAND,UNITED STATES
1112.0,57.9,-5.16,1112.0,ULLAPOOL,UNITED KINGDOM
1113.0,59.0,9.86,1113.0,HELGEROA,NORWAY
1114.0,-33.87,121.9,1114.0,ESPERANCE,AUSTRALIA
1115.0,-24.9,113.65,1115.0,CARNARVON,AUSTRALIA
1116.0,-15.45,128.1,1116.0,WYNDHAM,AUSTRALIA
1118.0,-41.18,146.36,1118.0,DEVONPORT,AUSTRALIA
1121.0,45.68,-62.7,1121.0,PICTOU,CANADA
1128.0,69.08,76.85,1128.0,ANTIPAIUTA,RUSSIAN FEDERATION
1146.0,34.08,136.21,1146.0,OWASE,JAPAN
1147.0,33.16,129.72,1147.0,SASEBO_II,JAPAN
1148.0,35.59,134.32,1148.0,TAJIRI,JAPAN
1149.0,39.64,141.98,1149.0,MIYAKO_II,JAPAN
1150.0,33.68,135.38,1150.0,SHIRAHAMA,JAPAN
1151.0,26.21,127.67,1151.0,NAHA,JAPAN
1152.0,48.65,-123.45,1152.0,PATRICIA_BAY,CANADA
1153.0,38.97,-74.96,1153.0,CAPE_MAY,UNITED STATES
1154.0,-24.77,152.38,1154.0,BUNDABERG,AUSTRALIA
1155.0,34.75,127.77,1155.0,YEOSU,"KOREA, REPUBLIC OF"
1156.0,30.25,-88.08,1156.0,DAUPHIN_ISLAND,UNITED STATES
1157.0,-12.67,141.87,1157.0,WEIPA,AUSTRALIA
1158.0,43.83,-66.13,1158.0,YARMOUTH,CANADA
1159.0,-18.0,122.22,1159.0,BROOME,AUSTRALIA
1160.0,-13.86,136.42,1160.0,MILNER_BAY,AUSTRALIA
1161.0,20.27,86.7,1161.0,PARADIP,INDIA
1162.0,23.1,-82.47,1162.0,SIBONEY,CUBA
1164.0,-4.2,152.18,1164.0,RABAUL,PAPUA NEW GUINEA
1190.0,36.25,136.15,1190.0,MIKUNI,JAPAN
1191.0,35.13,140.25,1191.0,KATSUURA,JAPAN
1193.0,29.73,-84.98,1193.0,APALACHICOLA,UNITED STATES
1194.0,42.35,140.95,1194.0,MURORAN,JAPAN
1195.0,-33.91,18.43,1195.0,CAPE_TOWN,SOUTH AFRICA
1196.0,44.62,-124.04,1196.0,SOUTH_BEACH,UNITED STATES
1197.0,54.99,9.99,1197.0,FYNSHAV,DENMARK
1199.0,49.13,-66.48,1199.0,STE-ANNE-DES-MONTS,CANADA
1200.0,70.15,72.57,1200.0,SE-LAHA,RUSSIAN FEDERATION
1209.0,34.24,132.55,1209.0,KURE_IV,JAPAN
1210.0,34.04,131.8,1210.0,TOKUYAMA_II,JAPAN
1211.0,62.36,17.53,1211.0,SPIKARNA,SWEDEN
1212.0,33.23,132.55,1212.0,UWAJIMA_II,JAPAN
1213.0,49.0,-64.38,1213.0,RIVIERE-AU-RENARD,CANADA
1214.0,51.21,-4.11,1214.0,ILFRACOMBE,UNITED KINGDOM
1215.0,54.84,-5.12,1215.0,PORTPATRICK,UNITED KINGDOM
1216.0,-42.55,147.93,1216.0,SPRING_BAY,AUSTRALIA
1217.0,7.1,171.37,1217.0,MAJURO-B,MARSHALL ISLANDS
1218.0,49.23,-68.13,1218.0,BAIE_COMEAU,CANADA
1232.0,35.49,24.08,1232.0,SOUDHAS,GREECE
1233.0,37.13,26.85,1233.0,LEROS,GREECE
1234.0,37.44,24.95,1234.0,SIROS,GREECE
1236.0,57.68,11.79,1236.0,GOTEBORG - TORSHAMNEN,SWEDEN
1237.0,38.47,23.59,1237.0,KHALKIS_NORTH,GREECE
1238.0,40.84,25.88,1238.0,ALEXANDROUPOLIS,GREECE
1239.0,38.83,20.71,1239.0,LEVKAS,GREECE
1240.0,37.64,21.32,1240.0,KATAKOLON,GREECE
1241.0,64.86,11.23,1241.0,RORVIK,NORWAY
1242.0,48.85,-125.13,1242.0,BAMFIELD,CANADA
1243.0,36.44,28.24,1243.0,RHODOS,GREECE
1245.0,49.2,-122.92,1245.0,NEW  WESTMINSTER,CANADA
1246.0,-21.28,149.3,1246.0,HAY_POINT,AUSTRALIA
1247.0,47.64,-3.45,1247.0,PORT_TUDY,FRANCE
1248.0,1.23,103.65,1248.0,SULTAN_SHOAL,SINGAPORE
1249.0,15.42,73.8,1249.0,MORMUGAO,INDIA
1250.0,38.42,21.73,1250.0,PATRAI,GREECE
1252.0,7.33,134.47,1252.0,MALAKAL-B,PALAU
1253.0,-23.12,-134.97,1253.0,RIKITEA,FRENCH POLYNESIA
1255.0,49.12,-123.18,1255.0,STEVESTON,CANADA
1263.0,34.61,138.22,1263.0,OMAEZAKI_II,JAPAN
1264.0,39.94,139.71,1264.0,OGA,JAPAN
1265.0,32.02,130.19,1265.0,AKUNE,JAPAN
1266.0,40.53,141.53,1266.0,HACHINOHE_II,JAPAN
1267.0,70.98,25.97,1267.0,HONNINGSVAG,NORWAY
1268.0,-10.6,141.91,1268.0,BOOBY_ISLAND,AUSTRALIA
1269.0,43.34,-124.32,1269.0,CHARLESTON_II,UNITED STATES
1270.0,22.03,88.1,1270.0,HALDIA,INDIA
1271.0,-54.82,-68.22,1271.0,USHUAIA_II,ARGENTINA
1272.0,-27.15,-109.47,1272.0,EASTER_ISLAND-E,CHILE
1274.0,-12.05,-77.15,1274.0,CALLAO_2,PERU
1275.0,1.3,103.72,1275.0,JURONG,SINGAPORE
1293.0,33.27,131.69,1293.0,OITA_II,JAPAN
1294.0,48.36,-4.78,1294.0,LE_CONQUET,FRANCE
1295.0,38.57,-76.07,1295.0,CAMBRIDGE_II,UNITED STATES
1296.0,42.17,142.77,1296.0,URAKAWA_II,JAPAN
1297.0,21.9,-84.9,1297.0,CABO_DE_SAN_ANTONIO,CUBA
1299.0,46.22,-60.25,1299.0,NORTH_SYDNEY,CANADA
1300.0,-10.51,142.31,1300.0,INCE_POINT,AUSTRALIA
1301.0,47.87,-3.91,1301.0,CONCARNEAU,FRANCE
1306.0,34.43,131.42,1306.0,HAGI,JAPAN
1318.0,33.47,129.85,1318.0,KARIYA,JAPAN
1320.0,33.33,133.24,1320.0,KURE_I,JAPAN
1321.0,47.3,-53.98,1321.0,ARGENTIA,CANADA
1322.0,50.2,-66.4,1322.0,SEPT-ILES,CANADA
1323.0,50.02,-125.23,1323.0,CAMPBELL_RIVER,CANADA
1324.0,36.05,129.38,1324.0,POHANG,"KOREA, REPUBLIC OF"
1325.0,48.11,-122.76,1325.0,PORT_TOWNSEND,UNITED STATES
1328.0,-20.59,117.19,1328.0,CAPE_LAMBERT,AUSTRALIA
1329.0,-2.82,-171.72,1329.0,KANTON_ISLAND-B,KIRIBATI
1343.0,34.9,139.13,1343.0,ITO_II,JAPAN
1344.0,37.81,138.28,1344.0,OGI,JAPAN
1345.0,37.83,140.96,1345.0,SOMA,JAPAN
1346.0,39.27,141.89,1346.0,KAMAISI_II,JAPAN
1347.0,48.72,-3.97,1347.0,ROSCOFF,FRANCE
1349.0,47.08,-64.88,1349.0,LOWER_ESCUMINAC,CANADA
1350.0,60.68,-151.4,1350.0,NIKISKI,UNITED STATES
1351.0,1.17,103.75,1351.0,RAFFLES_LIGHT_HOUSE,SINGAPORE
1352.0,36.6,-121.89,1352.0,MONTEREY,UNITED STATES
1353.0,61.12,-146.36,1353.0,VALDEZ,UNITED STATES
1354.0,46.71,-123.97,1354.0,TOKE_POINT,UNITED STATES
1355.0,22.88,-109.9,1355.0,CABO_SAN_LUCAS,MEXICO
1356.0,22.53,120.32,1356.0,KAOHSIUNG_II,"TAIWAN, PROVINCE OF CHINA"
1364.0,39.02,141.75,1364.0,OFUNATO_II,JAPAN
1365.0,38.21,128.59,1365.0,SOKCHO,"KOREA, REPUBLIC OF"
1366.0,22.49,114.01,1366.0,TSIM_BEI_TSUI,HONG KONG
1367.0,-33.01,137.59,1367.0,WHYALLA_III,AUSTRALIA
1368.0,-10.56,142.15,1368.0,GOODS_ISLAND,AUSTRALIA
1369.0,21.95,88.02,1369.0,GANGRA,INDIA
1370.0,6.98,158.23,1370.0,POHNPEI-B,"MICRONESIA, FEDERATED STATES OF"
1371.0,1.98,-157.48,1371.0,CHRISTMAS_ISLAND_II,KIRIBATI
1372.0,23.87,-166.28,1372.0,FRENCH_FRIGATE_SHOALS,UNITED STATES
1373.0,-9.43,159.95,1373.0,HONIARA_II,SOLOMON ISLANDS
1386.0,32.61,130.2,1386.0,KUCHINOTSU,JAPAN
1387.0,35.48,135.39,1387.0,MAIZURU_II,JAPAN
1388.0,26.18,127.82,1388.0,OKINAWA,JAPAN
1389.0,36.76,137.22,1389.0,TOYAMA,JAPAN
1390.0,33.27,134.16,1390.0,MUROTOMISAKI,JAPAN
1391.0,27.08,142.18,1391.0,CHICHIJIMA,JAPAN
1393.0,18.34,-64.92,1393.0,CHARLOTTE_AMALIE,"VIRGIN ISLANDS, U.S."
1394.0,37.99,-122.98,1394.0,POINT_REYES,UNITED STATES
1395.0,22.47,69.08,1395.0,OKHA,INDIA
1397.0,-17.53,-149.57,1397.0,PAPEETE-B,FRENCH POLYNESIA
1399.0,72.0,129.12,1399.0,BYKOV_MYS,RUSSIAN FEDERATION
1403.0,39.0,117.72,1403.0,TANGGU,CHINA
1404.0,35.38,119.55,1404.0,SHIJIUSUO,CHINA
1405.0,34.75,119.45,1405.0,LIANYUNGANG,CHINA
1406.0,22.75,115.35,1406.0,SHANWEI,CHINA
1408.0,21.48,109.08,1408.0,BEIHAI,CHINA
1420.0,-33.93,137.62,1420.0,WALLAROO_II,AUSTRALIA
1421.0,78.93,11.94,1421.0,NY-ALESUND,SVALBARD AND JAN MAYEN
1422.0,19.3,-81.32,1422.0,NORTH_SOUND,CAYMAN ISLANDS
1423.0,12.92,74.8,1423.0,MANGALORE,INDIA
1426.0,19.27,-81.38,1426.0,SOUTH_SOUND,CAYMAN ISLANDS
1428.0,20.02,110.28,1428.0,HAIKOU,CHINA
1437.0,34.81,138.76,1437.0,TAGO,JAPAN
1438.0,34.87,138.33,1438.0,YAIZU,JAPAN
1440.0,33.13,139.8,1440.0,KAMINATO_II,JAPAN
1441.0,38.46,23.59,1441.0,KHALKIS_SOUTH,GREECE
1442.0,43.28,145.57,1442.0,HANASAKI_II,JAPAN
1444.0,33.66,-78.92,1444.0,SPRINGMAID_PIER,UNITED STATES
1445.0,35.02,128.81,1445.0,GADEOKDO,"KOREA, REPUBLIC OF"
1446.0,34.83,128.43,1446.0,TONGYEONG,"KOREA, REPUBLIC OF"
1447.0,17.69,-64.75,1447.0,LIME_TREE_BAY,"VIRGIN ISLANDS, U.S."
1448.0,54.06,14.0,1448.0,KOSEROW,GERMANY
1449.0,13.77,109.25,1449.0,QUINHON,VIET NAM
1450.0,-9.02,-158.07,1450.0,PENRHYN,COOK ISLANDS
1451.0,21.78,89.47,1451.0,HIRON_POINT,BANGLADESH
1452.0,-8.53,179.22,1452.0,FUNAFUTI,TUVALU
1454.0,21.83,89.83,1454.0,KHEPUPARA,BANGLADESH
1455.0,36.83,-2.48,1455.0,ALMERIA,SPAIN
1456.0,37.95,-8.88,1456.0,SINES,PORTUGAL
1468.0,43.7,7.29,1468.0,NICE,FRANCE
1469.0,42.52,3.11,1469.0,PORT_VENDRES,FRANCE
1470.0,44.35,143.37,1470.0,MONBETU_II,JAPAN
1471.0,-16.48,145.47,1471.0,PORT_DOUGLAS_2,AUSTRALIA
1473.0,1.1,154.78,1473.0,KAPINGAMARANGI,"MICRONESIA, FEDERATED STATES OF"
1474.0,15.23,145.75,1474.0,SAIPAN,NORTHERN MARIANA ISLANDS
1475.0,16.1,108.22,1475.0,DANANG,VIET NAM
1476.0,21.45,91.83,1476.0,COX'S_BAZAAR,BANGLADESH
1488.0,35.09,136.88,1488.0,NAGOYA_II,JAPAN
1489.0,34.68,125.44,1489.0,HEUKSANDO,"KOREA, REPUBLIC OF"
1490.0,37.49,130.91,1490.0,ULLEUNG,"KOREA, REPUBLIC OF"
1491.0,56.62,-6.06,1491.0,TOBERMORY,UNITED KINGDOM
1492.0,-19.28,147.06,1492.0,CAPE_FERGUSON,AUSTRALIA
1493.0,-26.68,153.13,1493.0,MOOLOOLABA_2,AUSTRALIA
1495.0,10.33,107.07,1495.0,VUNGTAU,VIET NAM
1496.0,22.22,91.05,1496.0,CHARCHANGA,BANGLADESH
1501.0,-20.93,55.29,1501.0,POINTE_DES_GALETS,RÉUNION
1505.0,54.49,-0.61,1505.0,WHITBY,UNITED KINGDOM
1506.0,-35.11,138.47,1506.0,PORT_STANVAC,AUSTRALIA
1513.0,38.87,121.68,1513.0,LAOHUTAN,CHINA
1522.0,28.5,129.5,1522.0,NASE_III,JAPAN
1523.0,35.45,135.32,1523.0,MAIZURU_III,JAPAN
1524.0,44.64,-67.3,1524.0,CUTLER_II,UNITED STATES
1526.0,55.99,-3.18,1526.0,LEITH_II,UNITED KINGDOM
1527.0,35.98,126.56,1527.0,GUNSAN,"KOREA, REPUBLIC OF"
1544.0,35.74,140.86,1544.0,CHOSHI-GYOKO,JAPAN
1545.0,35.65,139.77,1545.0,TOKYO_III,JAPAN
1546.0,34.03,127.31,1546.0,GEOMUNDO,"KOREA, REPUBLIC OF"
1547.0,-38.34,141.61,1547.0,PORTLAND,AUSTRALIA
1548.0,50.78,0.06,1548.0,NEWHAVEN,UNITED KINGDOM
1549.0,-20.62,116.75,1549.0,KING_BAY,AUSTRALIA
1550.0,-35.02,137.77,1550.0,PORT_GILES,AUSTRALIA
1551.0,51.62,3.68,1551.0,ROOMPOT_BUITEN,"NETHERLANDS, KINGDOM OF THE"
1567.0,33.5,133.57,1567.0,KOCHI_III,JAPAN
1568.0,34.32,126.76,1568.0,WANDO,"KOREA, REPUBLIC OF"
1569.0,-20.28,148.78,1569.0,SHUTE_HARBOUR_2,AUSTRALIA
1571.0,8.27,-82.87,1571.0,PUERTO_ARMUELLES_B,PANAMA
1585.0,34.9,132.07,1585.0,HAMADA_II,JAPAN
1586.0,34.2,129.29,1586.0,IZUHARA_II,JAPAN
1587.0,41.24,140.38,1587.0,TAPPI,JAPAN
1588.0,33.96,126.3,1588.0,CHUJADO,"KOREA, REPUBLIC OF"
1589.0,3.98,103.43,1589.0,TANJUNG_GELANG,MALAYSIA
1590.0,-37.64,176.18,1590.0,TAURANGA,NEW ZEALAND
1591.0,3.05,101.36,1591.0,PELABUHAN_KELANG,MALAYSIA
1592.0,5.26,103.19,1592.0,CENDERING,MALAYSIA
1593.0,2.21,102.15,1593.0,TANJUNG_KELING,MALAYSIA
1594.0,4.24,100.61,1594.0,LUMUT,MALAYSIA
1595.0,5.42,100.35,1595.0,PULAU_PINANG,MALAYSIA
1596.0,41.45,140.25,1596.0,YOSIOKA,JAPAN
1597.0,48.48,-68.52,1597.0,RIMOUSKI,CANADA
1600.0,-6.15,39.18,1600.0,ZANZIBAR,"TANZANIA, UNITED REPUBLIC OF"
1603.0,-62.48,-59.63,1603.0,PUERTO_SOBERANIA,ANTARCTICA
1627.0,33.24,126.56,1627.0,SEOGWIPO,"KOREA, REPUBLIC OF"
1628.0,35.62,126.3,1628.0,WIDO,"KOREA, REPUBLIC OF"
1629.0,-17.58,146.08,1629.0,MOURILYAN_HARBOUR,AUSTRALIA
1630.0,-18.52,146.38,1630.0,LUCINDA,AUSTRALIA
1631.0,-21.65,115.13,1631.0,ONSLOW,AUSTRALIA
1632.0,52.93,1.3,1632.0,CROMER,UNITED KINGDOM
1633.0,48.86,-122.76,1633.0,CHERRY_POINT,UNITED STATES
1634.0,55.34,-160.5,1634.0,SAND_POINT,UNITED STATES
1635.0,36.97,-76.11,1635.0,CHESAPEAKE_BAY_BR. TUN.,UNITED STATES
1636.0,36.18,-75.75,1636.0,DUCK_PIER_OUTSIDE,UNITED STATES
1637.0,40.64,-74.14,1637.0,BERGEN_POINT,UNITED STATES
1638.0,27.98,-82.83,1638.0,CLEARWATER_BEACH,UNITED STATES
1639.0,40.77,-124.22,1639.0,N. SPIT,UNITED STATES
1640.0,42.74,-124.5,1640.0,PORT_ORFORD,UNITED STATES
1641.0,30.15,-85.67,1641.0,PANAMA_CITY,UNITED STATES
1643.0,-45.81,170.62,1643.0,PORT_CHALMERS,NEW ZEALAND
1644.0,-33.64,-78.83,1644.0,JUAN_FERNANDEZ-C,CHILE
1645.0,-0.43,-90.28,1645.0,BALTRA-B,ECUADOR
1671.0,24.33,124.16,1671.0,ISHIGAKI_II,JAPAN
1672.0,-19.67,63.42,1672.0,RODRIGUES_IS,MAURITIUS
1673.0,-20.15,57.5,1673.0,PORT_LOUIS_II,MAURITIUS
1674.0,22.29,114.21,1674.0,QUARRY_BAY,HONG KONG
1675.0,36.41,126.49,1675.0,BORYEONG,"KOREA, REPUBLIC OF"
1676.0,6.43,99.76,1676.0,PULAU_LANGKAWI,MALAYSIA
1677.0,1.33,103.44,1677.0,KUKUP,MALAYSIA
1678.0,2.81,104.14,1678.0,PULAU_TIOMAN,MALAYSIA
1679.0,38.43,26.72,1679.0,MENTES/IZMIR,TURKEY
1681.0,36.83,30.62,1681.0,ANTALYA_II,TURKEY
1696.0,26.61,-80.03,1696.0,LAKE_WORTH_PIER,UNITED STATES
1699.0,36.67,126.13,1699.0,ANHEUNG,"KOREA, REPUBLIC OF"
1700.0,51.71,-5.05,1700.0,MILFORD_HAVEN,UNITED KINGDOM
1701.0,24.71,-81.11,1701.0,VACA_KEY,UNITED STATES
1702.0,1.93,104.11,1702.0,TANJUNG_SEDILI,MALAYSIA
1703.0,6.23,102.11,1703.0,GETING,MALAYSIA
1704.0,-27.95,153.42,1704.0,GOLD_COAST_SEAWAY_2,AUSTRALIA
1706.0,43.13,17.2,1706.0,SUCURAJ,CROATIA
1707.0,-0.68,73.15,1707.0,GAN_II,MALDIVES
1708.0,9.78,125.5,1708.0,SURIGAO,PHILIPPINES
1711.0,12.33,121.08,1711.0,SAN_JOSE,PHILIPPINES
1730.0,9.55,112.88,1730.0,NAN_SHA,CHINA
1731.0,52.01,-4.98,1731.0,FISHGUARD_II,UNITED KINGDOM
1733.0,5.98,116.07,1733.0,KOTA_KINABALU,MALAYSIA
1734.0,4.23,117.88,1734.0,TAWAU,MALAYSIA
1735.0,35.82,14.53,1735.0,MARSAXLOKK  ,MALTA
1745.0,16.83,112.33,1745.0,XI_SHA,CHINA
1746.0,1.27,103.85,1746.0,TANJONG_PAGAR,SINGAPORE
1747.0,46.5,-1.79,1747.0,LES_SABLES_D OLONNE,FRANCE
1748.0,63.44,10.39,1748.0,TRONDHEIM_2,NORWAY
1749.0,-10.52,142.21,1749.0,TURTLE_HEAD,AUSTRALIA
1750.0,-39.48,176.92,1750.0,NAPIER,NEW ZEALAND
1751.0,-26.29,-80.11,1751.0,SAN_FELIX,CHILE
1753.0,4.18,73.53,1753.0,MALE-B,MALDIVES
1758.0,51.21,-3.13,1758.0,HINKLEY_POINT,UNITED KINGDOM
1759.0,59.04,10.95,1759.0,VIKER,NORWAY
1760.0,-23.16,150.79,1760.0,ROSSLYN_BAY,AUSTRALIA
1761.0,-31.83,115.74,1761.0,HILLARYS,AUSTRALIA
1762.0,-21.95,114.14,1762.0,EXMOUTH,AUSTRALIA
1764.0,42.05,3.21,1764.0,L'ESTARTIT,SPAIN
1772.0,55.63,-6.19,1772.0,ISLAY,UNITED KINGDOM
1773.0,50.61,-2.45,1773.0,WEYMOUTH,UNITED KINGDOM
1775.0,58.46,-5.05,1775.0,KINLOCHBERVIE,UNITED KINGDOM
1780.0,73.22,113.5,1780.0,ANABAR,RUSSIAN FEDERATION
1784.0,16.22,-61.53,1784.0,POINTE-A-PITRE,GUADELOUPE
1789.0,34.35,134.06,1789.0,TAKAMATSU_II,JAPAN
1790.0,34.68,135.19,1790.0,KOBE_II,JAPAN
1792.0,10.45,99.25,1792.0,KO_MATTAPHON,THAILAND
1793.0,54.09,-4.77,1793.0,PORT_ERIN,ISLE OF MAN
1794.0,54.65,-3.57,1794.0,WORKINGTON,UNITED KINGDOM
1795.0,49.18,-2.12,1795.0,ST_HELIER,JERSEY
1796.0,-51.69,-57.82,1796.0,STANLEY_II,FALKLAND ISLANDS (MALVINAS)
1797.0,32.47,34.86,1797.0,HADERA,ISRAEL
1799.0,50.52,-128.03,1799.0,WINTER_HARBOUR,CANADA
1800.0,64.5,-165.43,1800.0,NOME,UNITED STATES
1801.0,43.53,-1.51,1801.0,BOUCAU,FRANCE
1802.0,28.14,-15.41,1802.0,LAS_PALMAS_D,SPAIN
1803.0,28.48,-16.24,1803.0,TENERIFE,SPAIN
1804.0,1.37,172.93,1804.0,BETIO,KIRIBATI
1805.0,-17.6,177.44,1805.0,LAUTOKA,FIJI
1806.0,43.35,-3.05,1806.0,BILBAO,SPAIN
1807.0,43.46,-3.79,1807.0,SANTANDER_III,SPAIN
1808.0,43.36,-8.39,1808.0,LA_CORUNA_III,SPAIN
1809.0,36.8,-6.34,1809.0,BONANZA,SPAIN
1810.0,36.71,-4.42,1810.0,MALAGA_II,SPAIN
1811.0,41.34,2.17,1811.0,BARCELONA,SPAIN
1812.0,55.25,14.84,1812.0,TEJN,DENMARK
1813.0,39.44,-0.31,1813.0,VALENCIA,SPAIN
1816.0,14.68,-17.42,1816.0,DAKAR_2,SENEGAL
1830.0,33.92,130.93,1830.0,SHIMONOSEKI_III,JAPAN
1833.0,3.26,113.06,1833.0,BINTULU,MALAYSIA
1834.0,5.81,118.07,1834.0,SANDAKAN,MALAYSIA
1835.0,29.73,-93.87,1835.0,SABINE_PASS_NORTH,UNITED STATES
1836.0,-38.55,143.99,1836.0,LORNE,AUSTRALIA
1838.0,7.11,171.37,1838.0,MAJURO-C,MARSHALL ISLANDS
1839.0,-8.5,179.2,1839.0,FUNAFUTI_B,TUVALU
1840.0,-13.83,-171.76,1840.0,APIA_B,SAMOA
1841.0,-17.76,168.31,1841.0,PORT_VILA_B,VANUATU
1842.0,-21.14,-175.18,1842.0,NUKU'ALOFA_B,TONGA
1843.0,-21.2,-159.78,1843.0,RAROTONGA_B,COOK ISLANDS
1844.0,-0.53,166.91,1844.0,NAURU-B,NAURU
1846.0,-4.67,55.53,1846.0,POINT_LA_RUE,SEYCHELLES
1849.0,-49.35,70.26,1849.0,KERGUELEN,FRENCH SOUTHERN TERRITORIES
1854.0,53.33,-3.83,1854.0,LLANDUDNO,UNITED KINGDOM
1857.0,70.4,-148.53,1857.0,PRUDHOE_BAY,UNITED STATES
1858.0,25.73,-80.16,1858.0,VIRGINIA_KEY,UNITED STATES
1859.0,44.12,15.23,1859.0,ZADAR,CROATIA
1860.0,-2.04,147.37,1860.0,LOMBRUM,PAPUA NEW GUINEA
1861.0,-9.43,159.96,1861.0,HONIARA-B,SOLOMON ISLANDS
1867.0,55.21,-6.66,1867.0,PORTRUSH,UNITED KINGDOM
1871.0,43.56,-5.7,1871.0,GIJON_II,SPAIN
1877.0,5.02,118.35,1877.0,LAHAT_DATU,MALAYSIA
1878.0,50.71,-1.87,1878.0,BOURNEMOUTH,UNITED KINGDOM
1879.0,5.27,115.25,1879.0,LABUAN_2,MALAYSIA
1883.0,37.13,-6.83,1883.0,HUELVA,SPAIN
1887.0,20.68,58.87,1887.0,MASIRAH,OMAN
1891.0,22.27,114.29,1891.0,TAI_MIU_WAN,HONG KONG
1892.0,39.55,2.64,1892.0,PALMA_DE_MALLORCA,SPAIN
1894.0,1.28,103.67,1894.0,TUAS,SINGAPORE
1895.0,1.3,103.77,1895.0,WEST_COAST,SINGAPORE
1896.0,1.34,103.63,1896.0,WEST_TUAS,SINGAPORE
1897.0,42.6,-8.77,1897.0,VILLAGARCIA,SPAIN
1898.0,42.24,-8.73,1898.0,VIGO_II,SPAIN
1902.0,22.22,113.89,1902.0,SHEK_PIK,HONG KONG
1903.0,27.58,-97.22,1903.0,CORPUS_CHRISTI,UNITED STATES
1910.0,19.83,-77.73,1910.0,CABO_CRUZ,CUBA
1914.0,16.75,-22.98,1914.0,PALMEIRA,CAPE VERDE
1915.0,45.57,-1.06,1915.0,PORT_BLOC,FRANCE
1921.0,47.54,-2.9,1921.0,LE_CROUESTY,FRANCE
1923.0,36.68,129.45,1923.0,HUPO,"KOREA, REPUBLIC OF"
1925.0,6.98,158.2,1925.0,POHNPEI_C,"MICRONESIA, FEDERATED STATES OF"
2021.0,21.75,-79.99,2021.0,CASILDA_II,CUBA
2025.0,68.8,49.33,2025.0,BUGRINO,RUSSIAN FEDERATION
2026.0,69.55,32.43,2026.0,MYS_PIKSHUEVA,RUSSIAN FEDERATION
2027.0,69.2,33.48,2027.0,POLYARNIY,RUSSIAN FEDERATION
2028.0,69.2,35.12,2028.0,TERIBERKA,RUSSIAN FEDERATION
2072.0,-23.58,150.87,2072.0,PORT_ALMA,AUSTRALIA
2073.0,-25.3,152.92,2073.0,URANGAN_II,AUSTRALIA
2074.0,-20.02,148.25,2074.0,BOWEN_II,AUSTRALIA
2101.0,65.7,23.1,2101.0,KALIX,SWEDEN
2102.0,63.19,19.01,2102.0,SKAGSUDDE,SWEDEN
2103.0,60.41,18.21,2103.0,FORSMARK,SWEDEN
2104.0,58.55,16.84,2104.0,MARVIKEN,SWEDEN
2105.0,57.64,18.28,2105.0,VISBY,SWEDEN
2106.0,57.27,16.48,2106.0,OSKARSHAMN,SWEDEN
2107.0,55.56,14.36,2107.0,SIMRISHAMN,SWEDEN
2108.0,55.42,12.83,2108.0,SKANOR,SWEDEN
2109.0,55.76,12.9,2109.0,BARSEBACK,SWEDEN
2110.0,56.14,12.58,2110.0,VIKEN,SWEDEN
2111.0,57.25,12.11,2111.0,RINGHALS,SWEDEN
2112.0,58.09,11.83,2112.0,STENUNGSUND,SWEDEN
2113.0,59.0,11.13,2113.0,KUNGSVIK,SWEDEN
2123.0,28.41,-80.59,2123.0,TRIDENT_PIER,UNITED STATES
2125.0,38.91,-123.71,2125.0,ARENA_COVE,UNITED STATES
2126.0,34.41,-119.69,2126.0,SANTA_BARBARA,UNITED STATES
2127.0,48.12,-123.44,2127.0,PORT_ANGELES,UNITED STATES
2128.0,20.04,-155.83,2128.0,KAWAIHAE,UNITED STATES
2133.0,57.72,11.97,2133.0,GOTEBORG-RINGON,SWEDEN
2183.0,-4.07,39.65,2183.0,MOMBASA_II,KENYA
2198.0,-2.27,40.9,2198.0,LAMU_B,KENYA
2215.0,30.33,-89.33,2215.0,BAY_WAVELAND_YACHT_CLUB_II,UNITED STATES
2261.0,-20.2,-70.15,2261.0,IQUIQUE_II,CHILE
2262.0,-39.88,-73.42,2262.0,CORRAL_II,CHILE
2263.0,-53.12,-70.86,2263.0,PUNTA_ARENAS_II,CHILE
2264.0,-41.87,-73.83,2264.0,ANCUD,CHILE
2292.0,38.33,-75.09,2292.0,OCEAN_CITY_INLET,UNITED STATES
2294.0,35.22,-75.64,2294.0,CAPE_HATTERAS,UNITED STATES
2295.0,34.72,-76.67,2295.0,BEAUFORT,UNITED STATES
2310.0,-28.54,153.55,2310.0,BRUNSWICK_HEADS,AUSTRALIA
2311.0,-30.3,153.15,2311.0,COFFS_HARBOUR_III,AUSTRALIA
2312.0,-35.12,150.71,2312.0,JERVIS_BAY_II,AUSTRALIA
2313.0,-31.43,152.91,2313.0,PORT_MACQUARIE,AUSTRALIA
2314.0,-28.17,153.55,2314.0,TWEED_HEADS,AUSTRALIA
2316.0,-32.71,152.18,2316.0,PORT_STEPHENS,AUSTRALIA
2322.0,40.81,-73.77,2322.0,KINGS_POINT,UNITED STATES
2323.0,39.21,-76.25,2323.0,TOLCHESTER_BEACH,UNITED STATES
2324.0,37.99,-76.47,2324.0,LEWISETTA,UNITED STATES
2325.0,35.8,-75.55,2325.0,OREGON_INLET_MARINA,UNITED STATES
2326.0,30.4,-81.43,2326.0,MAYPORT,UNITED STATES
2329.0,37.51,-122.21,2329.0,REDWOOD_CITY,UNITED STATES
2330.0,38.05,-122.04,2330.0,PORT_CHICAGO,UNITED STATES
2356.0,-18.13,178.43,2356.0,SUVA-B,FIJI
2358.0,-33.83,151.26,2358.0,SYDNEY_PORT_JACKSON,AUSTRALIA
1002500410.0,65.0,41.0,,,
1002900240.0,61.0,24.0,,,
1003000110.0,60.0,11.0,,,
1003000250.0,60.0,25.0,,,
1003000300.0,60.0,30.0,,,
1003100180.0,59.0,18.0,,,
1003100250.0,59.0,25.0,,,
1003200120.0,58.0,12.0,,,
1003300240.0,57.0,24.0,,,
1003400130.0,56.0,13.0,,,
1003403560.0,56.0,-4.0,,,
1003403570.0,56.0,-3.0,,,
1003500210.0,55.0,21.0,,,
1003503540.0,55.0,-6.0,,,
1003503580.0,55.0,-2.0,,,
1003503590.0,55.0,-1.0,,,
1003600000.0,54.0,0.0,,,
1003600100.0,54.0,10.0,,,
1003600190.0,54.0,19.0,,,
1003603570.0,54.0,-3.0,,,
1003603580.0,54.0,-2.0,,,
1003700090.0,53.0,9.0,,,
1003700150.0,53.0,15.0,,,
1003703540.0,53.0,-6.0,,,
1003703570.0,53.0,-3.0,,,
1003703580.0,53.0,-2.0,,,
1003703590.0,53.0,-1.0,,,
1003800000.0,52.0,0.0,,,
1003800010.0,52.0,1.0,,,
1003800040.0,52.0,4.0,,,
1003800050.0,52.0,5.0,,,
1003803560.0,52.0,-4.0,,,
1003803570.0,52.0,-3.0,,,
1003803580.0,52.0,-2.0,,,
1003900000.0,51.0,0.0,,,
1003900030.0,51.0,3.0,,,
1003900040.0,51.0,4.0,,,
1003900050.0,51.0,5.0,,,
1003903570.0,51.0,-3.0,,,
1003903580.0,51.0,-2.0,,,
1003903590.0,51.0,-1.0,,,
1004000030.0,50.0,3.0,,,
1004000040.0,50.0,4.0,,,
1004100010.0,49.0,1.0,,,
1004102370.0,49.0,-123.0,,,
1004200380.0,48.0,38.0,,,
1004202370.0,48.0,-123.0,,,
1004202380.0,48.0,-122.0,,,
1004203580.0,48.0,-2.0,,,
1004300290.0,47.0,29.0,,,
1004300320.0,47.0,32.0,,,
1004300380.0,47.0,38.0,,,
1004300400.0,47.0,40.0,,,
1004303580.0,47.0,-2.0,,,
1004400120.0,46.0,12.0,,,
1004400160.0,46.0,16.0,,,
1004400310.0,46.0,31.0,,,
1004402370.0,46.0,-123.0,,,
1004500080.0,45.0,8.0,,,
1004500100.0,45.0,10.0,,,
1004500110.0,45.0,11.0,,,
1004500120.0,45.0,12.0,,,
1004500340.0,45.0,34.0,,,
1004500390.0,45.0,39.0,,,
1004502960.0,45.0,-64.0,,,
1004503590.0,45.0,-1.0,,,
1004600040.0,44.0,4.0,,,
1004600050.0,44.0,5.0,,,
1004600070.0,44.0,7.0,,,
1004600090.0,44.0,9.0,,,
1004600110.0,44.0,11.0,,,
1004600180.0,44.0,18.0,,,
1004600400.0,44.0,40.0,,,
1004601420.0,44.0,142.0,,,
1004700060.0,43.0,6.0,,,
1004700280.0,43.0,28.0,,,
1004701300.0,43.0,130.0,,,
1004701320.0,43.0,132.0,,,
1004701410.0,43.0,141.0,,,
1004703570.0,43.0,-3.0,,,
1004800120.0,42.0,12.0,,,
1004800140.0,42.0,14.0,,,
1004801200.0,42.0,120.0,,,
1004801220.0,42.0,122.0,,,
1004801300.0,42.0,130.0,,,
1004802860.0,42.0,-74.0,,,
1004802870.0,42.0,-73.0,,,
1004802880.0,42.0,-72.0,,,
1004802890.0,42.0,-71.0,,,
1004803510.0,42.0,-9.0,,,
1004900020.0,41.0,2.0,,,
1004900130.0,41.0,13.0,,,
1004900140.0,41.0,14.0,,,
1004900150.0,41.0,15.0,,,
1004900160.0,41.0,16.0,,,
1004900170.0,41.0,17.0,,,
1004900200.0,41.0,20.0,,,
1004900230.0,41.0,23.0,,,
1004900290.0,41.0,29.0,,,
1004900300.0,41.0,30.0,,,
1004900360.0,41.0,36.0,,,
1004901210.0,41.0,121.0,,,
1004901220.0,41.0,122.0,,,
1004901230.0,41.0,123.0,,,
1004902850.0,41.0,-75.0,,,
1004902860.0,41.0,-74.0,,,
1004902870.0,41.0,-73.0,,,
1004903510.0,41.0,-9.0,,,
1005000030.0,40.0,3.0,,,
1005000170.0,40.0,17.0,,,
1005000280.0,40.0,28.0,,,
1005000290.0,40.0,29.0,,,
1005000310.0,40.0,31.0,,,
1005001170.0,40.0,117.0,,,
1005001180.0,40.0,118.0,,,
1005001200.0,40.0,120.0,,,
1005001220.0,40.0,122.0,,,
1005001230.0,40.0,123.0,,,
1005001240.0,40.0,124.0,,,
1005001280.0,40.0,128.0,,,
1005001400.0,40.0,140.0,,,
1005002830.0,40.0,-77.0,,,
1005002840.0,40.0,-76.0,,,
1005002850.0,40.0,-75.0,,,
1005100000.0,39.0,0.0,,,
1005100090.0,39.0,9.0,,,
1005100270.0,39.0,27.0,,,
1005101170.0,39.0,117.0,,,
1005101220.0,39.0,122.0,,,
1005101260.0,39.0,126.0,,,
1005101270.0,39.0,127.0,,,
1005102390.0,39.0,-121.0,,,
1005102830.0,39.0,-77.0,,,
1005103510.0,39.0,-9.0,,,
1005200000.0,38.0,0.0,,,
1005200130.0,38.0,13.0,,,
1005200150.0,38.0,15.0,,,
1005200240.0,38.0,24.0,,,
1005200270.0,38.0,27.0,,,
1005200290.0,38.0,29.0,,,
1005200370.0,38.0,37.0,,,
1005201170.0,38.0,117.0,,,
1005201210.0,38.0,121.0,,,
1005201220.0,38.0,122.0,,,
1005201270.0,38.0,127.0,,,
1005201390.0,38.0,139.0,,,
1005201410.0,38.0,141.0,,,
1005202370.0,38.0,-123.0,,,
1005202380.0,38.0,-122.0,,,
1005202390.0,38.0,-121.0,,,
1005202830.0,38.0,-77.0,,,
1005203590.0,38.0,-1.0,,,
1005300030.0,37.0,3.0,,,
1005300080.0,37.0,8.0,,,
1005300100.0,37.0,10.0,,,
1005300310.0,37.0,31.0,,,
1005300350.0,37.0,35.0,,,
1005300370.0,37.0,37.0,,,
1005301180.0,37.0,118.0,,,
1005301190.0,37.0,119.0,,,
1005301200.0,37.0,120.0,,,
1005301210.0,37.0,121.0,,,
1005301220.0,37.0,122.0,,,
1005301270.0,37.0,127.0,,,
1005301370.0,37.0,137.0,,,
1005301380.0,37.0,138.0,,,
1005301400.0,37.0,140.0,,,
1005301410.0,37.0,141.0,,,
1005302380.0,37.0,-122.0,,,
1005302840.0,37.0,-76.0,,,
1005303540.0,37.0,-6.0,,,
1005303560.0,37.0,-4.0,,,
1005400030.0,36.0,3.0,,,
1005400050.0,36.0,5.0,,,
1005400070.0,36.0,7.0,,,
1005400360.0,36.0,36.0,,,
1005400370.0,36.0,37.0,,,
1005401190.0,36.0,119.0,,,
1005401200.0,36.0,120.0,,,
1005401270.0,36.0,127.0,,,
1005401280.0,36.0,128.0,,,
1005401290.0,36.0,129.0,,,
1005401390.0,36.0,139.0,,,
1005401400.0,36.0,140.0,,,
1005403540.0,36.0,-6.0,,,
1005403550.0,36.0,-5.0,,,
1005403590.0,36.0,-1.0,,,
1005500110.0,35.0,11.0,,,
1005500360.0,35.0,36.0,,,
1005500370.0,35.0,37.0,,,
1005501180.0,35.0,118.0,,,
1005501190.0,35.0,119.0,,,
1005501200.0,35.0,120.0,,,
1005501270.0,35.0,127.0,,,
1005501290.0,35.0,129.0,,,
1005501340.0,35.0,134.0,,,
1005501360.0,35.0,136.0,,,
1005501370.0,35.0,137.0,,,
1005501380.0,35.0,138.0,,,
1005502410.0,35.0,-119.0,,,
1005502420.0,35.0,-118.0,,,
1005502430.0,35.0,-117.0,,,
1005503580.0,35.0,-2.0,,,
1005600350.0,34.0,35.0,,,
1005600360.0,34.0,36.0,,,
1005601180.0,34.0,118.0,,,
1005601190.0,34.0,119.0,,,
1005601270.0,34.0,127.0,,,
1005601300.0,34.0,130.0,,,
1005601320.0,34.0,132.0,,,
1005601330.0,34.0,133.0,,,
1005601340.0,34.0,134.0,,,
1005602410.0,34.0,-119.0,,,
1005602420.0,34.0,-118.0,,,
1005602430.0,34.0,-117.0,,,
1005602810.0,34.0,-79.0,,,
1005603520.0,34.0,-8.0,,,
1005603530.0,34.0,-7.0,,,
1005603540.0,34.0,-6.0,,,
1005700130.0,33.0,13.0,,,
1005700350.0,33.0,35.0,,,
1005700360.0,33.0,36.0,,,
1005701190.0,33.0,119.0,,,
1005701200.0,33.0,120.0,,,
1005701300.0,33.0,130.0,,,
1005701310.0,33.0,131.0,,,
1005701320.0,33.0,132.0,,,
1005702430.0,33.0,-117.0,,,
1005702450.0,33.0,-115.0,,,
1005702800.0,33.0,-80.0,,,
1005800150.0,32.0,15.0,,,
1005800200.0,32.0,20.0,,,
1005800340.0,32.0,34.0,,,
1005800350.0,32.0,35.0,,,
1005800360.0,32.0,36.0,,,
1005801190.0,32.0,119.0,,,
1005801200.0,32.0,120.0,,,
1005801210.0,32.0,121.0,,,
1005801220.0,32.0,122.0,,,
1005801310.0,32.0,131.0,,,
1005802430.0,32.0,-117.0,,,
1005802790.0,32.0,-81.0,,,
1005803510.0,32.0,-9.0,,,
1005900300.0,31.0,30.0,,,
1005900310.0,31.0,31.0,,,
1005900320.0,31.0,32.0,,,
1005900350.0,31.0,35.0,,,
1005900490.0,31.0,49.0,,,
1005901190.0,31.0,119.0,,,
1005901200.0,31.0,120.0,,,
1005901210.0,31.0,121.0,,,
1005902720.0,31.0,-88.0,,,
1006000310.0,30.0,31.0,,,
1006000330.0,30.0,33.0,,,
1006000480.0,30.0,48.0,,,
1006001200.0,30.0,120.0,,,
1006001210.0,30.0,121.0,,,
1006001220.0,30.0,122.0,,,
1006002650.0,30.0,-95.0,,,
1006002680.0,30.0,-92.0,,,
1006002690.0,30.0,-91.0,,,
1006002700.0,30.0,-90.0,,,
1006002730.0,30.0,-87.0,,,
1006002780.0,30.0,-82.0,,,
1006003500.0,30.0,-10.0,,,
1006100480.0,29.0,48.0,,,
1006101200.0,29.0,120.0,,,
1006101210.0,29.0,121.0,,,
1006102490.0,29.0,-111.0,,,
1006102790.0,29.0,-81.0,,,
1006201190.0,28.0,119.0,,,
1006201200.0,28.0,120.0,,,
1006201210.0,28.0,121.0,,,
1006202630.0,28.0,-97.0,,,
1006202780.0,28.0,-82.0,,,
1006202790.0,28.0,-81.0,,,
1006203450.0,28.0,-15.0,,,
1006300500.0,27.0,50.0,,,
1006300560.0,27.0,56.0,,,
1006301200.0,27.0,120.0,,,
1006302500.0,27.0,-110.0,,,
1006302770.0,27.0,-83.0,,,
1006302780.0,27.0,-82.0,,,
1006302800.0,27.0,-80.0,,,
1006400500.0,26.0,50.0,,,
1006400510.0,26.0,51.0,,,
1006401190.0,26.0,119.0,,,
1006401280.0,26.0,128.0,,,
1006402510.0,26.0,-109.0,,,
1006402620.0,26.0,-98.0,,,
1006402780.0,26.0,-82.0,,,
1006402800.0,26.0,-80.0,,,
1006500500.0,25.0,50.0,,,
1006500510.0,25.0,51.0,,,
1006500520.0,25.0,52.0,,,
1006500550.0,25.0,55.0,,,
1006500670.0,25.0,67.0,,,
1006501170.0,25.0,117.0,,,
1006501180.0,25.0,118.0,,,
1006501190.0,25.0,119.0,,,
1006501210.0,25.0,121.0,,,
1006501220.0,25.0,122.0,,,
1006502530.0,25.0,-107.0,,,
1006600380.0,24.0,38.0,,,
1006600540.0,24.0,54.0,,,
1006600560.0,24.0,56.0,,,
1006600590.0,24.0,59.0,,,
1006600900.0,24.0,90.0,,,
1006600910.0,24.0,91.0,,,
1006601130.0,24.0,113.0,,,
1006601150.0,24.0,115.0,,,
1006601160.0,24.0,116.0,,,
1006601170.0,24.0,117.0,,,
1006601180.0,24.0,118.0,,,
1006601210.0,24.0,121.0,,,
1006700700.0,23.0,70.0,,,
1006700710.0,23.0,71.0,,,
1006700730.0,23.0,73.0,,,
1006700880.0,23.0,88.0,,,
1006700890.0,23.0,89.0,,,
1006700900.0,23.0,90.0,,,
1006700910.0,23.0,91.0,,,
1006701080.0,23.0,108.0,,,
1006701100.0,23.0,110.0,,,
1006701120.0,23.0,112.0,,,
1006701130.0,23.0,113.0,,,
1006701140.0,23.0,114.0,,,
1006701150.0,23.0,115.0,,,
1006701160.0,23.0,116.0,,,
1006701170.0,23.0,117.0,,,
1006701200.0,23.0,120.0,,,
1006702540.0,23.0,-106.0,,,
1006702780.0,23.0,-82.0,,,
1006800390.0,22.0,39.0,,,
1006800700.0,22.0,70.0,,,
1006800710.0,22.0,71.0,,,
1006800720.0,22.0,72.0,,,
1006800730.0,22.0,73.0,,,
1006800870.0,22.0,87.0,,,
1006800920.0,22.0,92.0,,,
1006801080.0,22.0,108.0,,,
1006801090.0,22.0,109.0,,,
1006801110.0,22.0,111.0,,,
1006801120.0,22.0,112.0,,,
1006801130.0,22.0,113.0,,,
1006801140.0,22.0,114.0,,,
1006802550.0,22.0,-105.0,,,
1006802620.0,22.0,-98.0,,,
1006900400.0,21.0,40.0,,,
1006900730.0,21.0,73.0,,,
1006901060.0,21.0,106.0,,,
1006901070.0,21.0,107.0,,,
1006901090.0,21.0,109.0,,,
1006901100.0,21.0,110.0,,,
1006901110.0,21.0,111.0,,,
1006902020.0,21.0,-158.0,,,
1006902550.0,21.0,-105.0,,,
1006902630.0,21.0,-97.0,,,
1006902700.0,21.0,-90.0,,,
1006902730.0,21.0,-87.0,,,
1006902820.0,21.0,-78.0,,,
1007000370.0,20.0,37.0,,,
1007000740.0,20.0,74.0,,,
1007000860.0,20.0,86.0,,,
1007001100.0,20.0,110.0,,,
1007001110.0,20.0,111.0,,,
1007002630.0,20.0,-97.0,,,
1007002840.0,20.0,-76.0,,,
1007100730.0,19.0,73.0,,,
1007100740.0,19.0,74.0,,,
1007100850.0,19.0,85.0,,,
1007101100.0,19.0,110.0,,,
1007102560.0,19.0,-104.0,,,
1007102630.0,19.0,-97.0,,,
1007102640.0,19.0,-96.0,,,
1007102880.0,19.0,-72.0,,,
1007102890.0,19.0,-71.0,,,
1007200430.0,18.0,43.0,,,
1007200830.0,18.0,83.0,,,
1007201100.0,18.0,110.0,,,
1007202650.0,18.0,-95.0,,,
1007202660.0,18.0,-94.0,,,
1007202670.0,18.0,-93.0,,,
1007202830.0,18.0,-77.0,,,
1007202900.0,18.0,-70.0,,,
1007202930.0,18.0,-67.0,,,
1007202940.0,18.0,-66.0,,,
1007203440.0,18.0,-16.0,,,
1007300540.0,17.0,54.0,,,
1007300740.0,17.0,74.0,,,
1007300810.0,17.0,81.0,,,
1007300820.0,17.0,82.0,,,
1007300960.0,17.0,96.0,,,
1007302600.0,17.0,-100.0,,,
1007302670.0,17.0,-93.0,,,
1007400750.0,16.0,75.0,,,
1007400800.0,16.0,80.0,,,
1007401080.0,16.0,108.0,,,
1007401210.0,16.0,121.0,,,
1007402720.0,16.0,-88.0,,,
1007500390.0,15.0,39.0,,,
1007500430.0,15.0,43.0,,,
1007500490.0,15.0,49.0,,,
1007500750.0,15.0,75.0,,,
1007501200.0,15.0,120.0,,,
1007501210.0,15.0,121.0,,,
1007502690.0,15.0,-91.0,,,
1007503430.0,15.0,-17.0,,,
1007600440.0,14.0,44.0,,,
1007600760.0,14.0,76.0,,,
1007600790.0,14.0,79.0,,,
1007600800.0,14.0,80.0,,,
1007601000.0,14.0,100.0,,,
1007601010.0,14.0,101.0,,,
1007601210.0,14.0,121.0,,,
1007601220.0,14.0,122.0,,,
1007602710.0,14.0,-89.0,,,
1007602730.0,14.0,-87.0,,,
1007700450.0,13.0,45.0,,,
1007700750.0,13.0,75.0,,,
1007700790.0,13.0,79.0,,,
1007700800.0,13.0,80.0,,,
1007701010.0,13.0,101.0,,,
1007701020.0,13.0,102.0,,,
1007703430.0,13.0,-17.0,,,
1007800430.0,12.0,43.0,,,
1007800750.0,12.0,75.0,,,
1007800800.0,12.0,80.0,,,
1007801090.0,12.0,109.0,,,
1007802740.0,12.0,-86.0,,,
1007803440.0,12.0,-16.0,,,
1007900760.0,11.0,76.0,,,
1007900770.0,11.0,77.0,,,
1007900790.0,11.0,79.0,,,
1007901070.0,11.0,107.0,,,
1007901230.0,11.0,123.0,,,
1007902850.0,11.0,-75.0,,,
1007902860.0,11.0,-74.0,,,
1007902880.0,11.0,-72.0,,,
1007902980.0,11.0,-62.0,,,
1008000440.0,10.0,44.0,,,
1008000450.0,10.0,45.0,,,
1008000760.0,10.0,76.0,,,
1008000770.0,10.0,77.0,,,
1008000780.0,10.0,78.0,,,
1008001050.0,10.0,105.0,,,
1008001060.0,10.0,106.0,,,
1008001070.0,10.0,107.0,,,
1008001240.0,10.0,124.0,,,
1008002760.0,10.0,-84.0,,,
1008002840.0,10.0,-76.0,,,
1008002870.0,10.0,-73.0,,,
1008002890.0,10.0,-71.0,,,
1008002920.0,10.0,-68.0,,,
1008002930.0,10.0,-67.0,,,
1008002950.0,10.0,-65.0,,,
1008002960.0,10.0,-64.0,,,
1008002970.0,10.0,-63.0,,,
1008003460.0,10.0,-14.0,,,
1008100770.0,9.0,77.0,,,
1008100780.0,9.0,78.0,,,
1008100990.0,9.0,99.0,,,
1008101260.0,9.0,126.0,,,
1008102800.0,9.0,-80.0,,,
1008102840.0,9.0,-76.0,,,
1008102890.0,9.0,-71.0,,,
1008200980.0,8.0,98.0,,,
1008201240.0,8.0,124.0,,,
1008201250.0,8.0,125.0,,,
1008203470.0,8.0,-13.0,,,
1008300030.0,7.0,3.0,,,
1008300040.0,7.0,4.0,,,
1008300050.0,7.0,5.0,,,
1008300800.0,7.0,80.0,,,
1008301010.0,7.0,101.0,,,
1008301220.0,7.0,122.0,,,
1008301240.0,7.0,124.0,,,
1008301260.0,7.0,126.0,,,
1008400000.0,6.0,0.0,,,
1008400010.0,6.0,1.0,,,
1008400020.0,6.0,2.0,,,
1008400030.0,6.0,3.0,,,
1008400060.0,6.0,6.0,,,
1008400070.0,6.0,7.0,,,
1008401000.0,6.0,100.0,,,
1008401020.0,6.0,102.0,,,
1008401160.0,6.0,116.0,,,
1008401180.0,6.0,118.0,,,
1008401250.0,6.0,125.0,,,
1008403490.0,6.0,-11.0,,,
1008500070.0,5.0,7.0,,,
1008500080.0,5.0,8.0,,,
1008500100.0,5.0,10.0,,,
1008501010.0,5.0,101.0,,,
1008501030.0,5.0,103.0,,,
1008503560.0,5.0,-4.0,,,
1008503580.0,5.0,-2.0,,,
1008600100.0,4.0,10.0,,,
1008600990.0,4.0,99.0,,,
1008601030.0,4.0,103.0,,,
1008602830.0,4.0,-77.0,,,
1008701020.0,3.0,102.0,,,
1008702830.0,3.0,-77.0,,,
1008800100.0,2.0,10.0,,,
1008800450.0,2.0,45.0,,,
1008801100.0,2.0,110.0,,,
1008901010.0,1.0,101.0,,,
1008901040.0,1.0,104.0,,,
1008901250.0,1.0,125.0,,,
1009000090.0,0.0,9.0,,,
1009000430.0,0.0,43.0,,,
1009001090.0,0.0,109.0,,,
1009001170.0,0.0,117.0,,,
1009002810.0,0.0,-79.0,,,
1009003090.0,0.0,-51.0,,,
1009101000.0,-1.0,100.0,,,
1009101170.0,-1.0,117.0,,,
1009103120.0,-1.0,-48.0,,,
1009201040.0,-2.0,104.0,,,
1009202800.0,-2.0,-80.0,,,
1009301050.0,-3.0,105.0,,,
1009301150.0,-3.0,115.0,,,
1009301410.0,-3.0,141.0,,,
1009302810.0,-3.0,-79.0,,,
1009303160.0,-3.0,-44.0,,,
1009400400.0,-4.0,40.0,,,
1009401020.0,-4.0,102.0,,,
1009401280.0,-4.0,128.0,,,
1009403210.0,-4.0,-39.0,,,
1009500120.0,-5.0,12.0,,,
1009501050.0,-5.0,105.0,,,
1009501190.0,-5.0,119.0,,,
1009502790.0,-5.0,-81.0,,,
1009600120.0,-6.0,12.0,,,
1009600130.0,-6.0,13.0,,,
1009600390.0,-6.0,39.0,,,
1009601070.0,-6.0,107.0,,,
1009603250.0,-6.0,-35.0,,,
1009700390.0,-7.0,39.0,,,
1009701070.0,-7.0,107.0,,,
1009701080.0,-7.0,108.0,,,
1009701090.0,-7.0,109.0,,,
1009701100.0,-7.0,110.0,,,
1009701130.0,-7.0,113.0,,,
1009702800.0,-7.0,-80.0,,,
1009703240.0,-7.0,-36.0,,,
1009703250.0,-7.0,-35.0,,,
1009801100.0,-8.0,110.0,,,
1009801110.0,-8.0,111.0,,,
1009801130.0,-8.0,113.0,,,
1009802810.0,-8.0,-79.0,,,
1009803240.0,-8.0,-36.0,,,
1009803250.0,-8.0,-35.0,,,
1009900130.0,-9.0,13.0,,,
1009901150.0,-9.0,115.0,,,
1009901160.0,-9.0,116.0,,,
1009901470.0,-9.0,147.0,,,
1009902810.0,-9.0,-79.0,,,
1010003240.0,-10.0,-36.0,,,
1010103230.0,-11.0,-37.0,,,
1010200140.0,-12.0,14.0,,,
1010202830.0,-12.0,-77.0,,,
1010203210.0,-12.0,-39.0,,,
1010300130.0,-13.0,13.0,,,
1010303210.0,-13.0,-39.0,,,
1010602880.0,-16.0,-72.0,,,
1010800370.0,-18.0,37.0,,,
1010800490.0,-18.0,49.0,,,
1010802900.0,-18.0,-70.0,,,
1011000350.0,-20.0,35.0,,,
1011003200.0,-20.0,-40.0,,,
1011203170.0,-22.0,-43.0,,,
1011203190.0,-22.0,-41.0,,,
1011303130.0,-23.0,-47.0,,,
1011303140.0,-23.0,-46.0,,,
1011303160.0,-23.0,-44.0,,,
1011303170.0,-23.0,-43.0,,,
1011402900.0,-24.0,-70.0,,,
1011403130.0,-24.0,-47.0,,,
1011403140.0,-24.0,-46.0,,,
1011503110.0,-25.0,-49.0,,,
1011600320.0,-26.0,32.0,,,
1011600330.0,-26.0,33.0,,,
1011603110.0,-26.0,-49.0,,,
1011701530.0,-27.0,153.0,,,
1011703110.0,-27.0,-49.0,,,
1011801530.0,-28.0,153.0,,,
1011803110.0,-28.0,-49.0,,,
1011903090.0,-29.0,-51.0,,,
1012000300.0,-30.0,30.0,,,
1012000310.0,-30.0,31.0,,,
1012002890.0,-30.0,-71.0,,,
1012003090.0,-30.0,-51.0,,,
1012201160.0,-32.0,116.0,,,
1012203080.0,-32.0,-52.0,,,
1012300280.0,-33.0,28.0,,,
1012301510.0,-33.0,151.0,,,
1012301520.0,-33.0,152.0,,,
1012302880.0,-33.0,-72.0,,,
1012302890.0,-33.0,-71.0,,,
1012400180.0,-34.0,18.0,,,
1012400260.0,-34.0,26.0,,,
1012401510.0,-34.0,151.0,,,
1012501390.0,-35.0,139.0,,,
1012501490.0,-35.0,149.0,,,
1012503020.0,-35.0,-58.0,,,
1012503040.0,-35.0,-56.0,,,
1012701750.0,-37.0,175.0,,,
1012702870.0,-37.0,-73.0,,,
1012801450.0,-38.0,145.0,,,
1012803020.0,-38.0,-58.0,,,
1012902870.0,-39.0,-73.0,,,
1012902980.0,-39.0,-62.0,,,
1013101750.0,-41.0,175.0,,,
1013401730.0,-44.0,173.0,,,
